{"state": "AK", "stateName": "Alaska", "year": 2018, "naep": {"text": "8 out of 10", "numerator": 8, "denominator": 10}, "schools": [{"name": "Joann A. Alexie Memorial School", "lat": 60.857371, "lon": -162.276467, "proficiency": 0.245, "district": "Lower Kuskokwim School District", "city": "Atmautluak", "ncessch": "020000100206"}, {"name": "Bethel Regional High School", "lat": 60.802584, "lon": -161.770398, "proficiency": 0.17, "district": "Lower Kuskokwim School District", "city": "Bethel", "ncessch": "020000100208"}, {"name": "Chaputnguak School", "lat": 60.157612, "lon": -164.282245, "proficiency": 0.245, "district": "Lower Kuskokwim School District", "city": "Chefornak", "ncessch": "020000100209"}, {"name": "Chief Paul Memorial School", "lat": 59.936533, "lon": -164.038046, "proficiency": 0.1, "district": "Lower Kuskokwim School District", "city": "Kipnuk", "ncessch": "020000100210"}, {"name": "Ayagina'ar Elitnaurvik", "lat": 59.959437, "lon": -162.887161, "proficiency": 0.245, "district": "Lower Kuskokwim School District", "city": "Kongiganak", "ncessch": "020000100211"}, {"name": "Kwigillingok School", "lat": 59.877153, "lon": -163.157701, "proficiency": 0.245, "district": "Lower Kuskokwim School District", "city": "Kwigillingok", "ncessch": "020000100212"}, {"name": "Nelson Island Area School", "lat": 60.533031, "lon": -165.109016, "proficiency": 0.245, "district": "Lower Kuskokwim School District", "city": "Toksook Bay", "ncessch": "020000100213"}, {"name": "Anna Tobeluk Memorial School", "lat": 60.896508, "lon": -162.456382, "proficiency": 0.245, "district": "Lower Kuskokwim School District", "city": "Nunapitchuk", "ncessch": "020000100214"}, {"name": "Arviq School", "lat": 59.011976, "lon": -161.817408, "proficiency": -0.03, "district": "Lower Kuskokwim School District", "city": "Platinum", "ncessch": "020000100215"}, {"name": "Paul T. Albert Memorial School", "lat": 60.586072, "lon": -165.251625, "proficiency": 0.245, "district": "Lower Kuskokwim School District", "city": "Tununak", "ncessch": "020000100389"}, {"name": "Akula Elitnaurvik School", "lat": 60.872863, "lon": -162.516114, "proficiency": -0.03, "district": "Lower Kuskokwim School District", "city": "Kasigluk", "ncessch": "020000100391"}, {"name": "Eek School", "lat": 60.215856, "lon": -162.025873, "proficiency": 0.245, "district": "Lower Kuskokwim School District", "city": "Eek", "ncessch": "020000100392"}, {"name": "Lewis Angapak Memorial School", "lat": 60.342864, "lon": -162.676324, "proficiency": 0.245, "district": "Lower Kuskokwim School District", "city": "Tuntutuliak", "ncessch": "020000100406"}, {"name": "Nuniwarmiut School", "lat": 60.386521, "lon": -166.189218, "proficiency": -0.03, "district": "Lower Kuskokwim School District", "city": "Mekoryuk", "ncessch": "020000100408"}, {"name": "William Miller Memorial School", "lat": 60.694191, "lon": -161.97091, "proficiency": 0.245, "district": "Lower Kuskokwim School District", "city": "Napakiak", "ncessch": "020000100409"}, {"name": "Ket'acik/Aapalluk Memorial School", "lat": 60.810742, "lon": -161.423994, "proficiency": 0.1, "district": "Lower Kuskokwim School District", "city": "Kwethluk", "ncessch": "020000100438"}, {"name": "Z. John Williams Memorial School", "lat": 60.707837, "lon": -161.760468, "proficiency": 0.245, "district": "Lower Kuskokwim School District", "city": "Napaskiak", "ncessch": "020000100439"}, {"name": "Ayaprun School", "lat": 60.936833, "lon": -164.629312, "proficiency": 0.245, "district": "Lower Kuskokwim School District", "city": "Newtok", "ncessch": "020000100440"}, {"name": "Kuinerrarmiut Elitnaurviat", "lat": 59.751599, "lon": -161.897479, "proficiency": 0.1, "district": "Lower Kuskokwim School District", "city": "Quinhagak", "ncessch": "020000100441"}, {"name": "Negtemiut Elitnaurviat School", "lat": 60.476896, "lon": -164.722417, "proficiency": 0.245, "district": "Lower Kuskokwim School District", "city": "Nightmute", "ncessch": "020000100474"}, {"name": "Qugcuun Memorial School", "lat": 60.722684, "lon": -161.771339, "proficiency": -0.03, "district": "Lower Kuskokwim School District", "city": "Napaskiak", "ncessch": "020000100475"}, {"name": "Rocky Mountain School", "lat": 59.122128, "lon": -161.592127, "proficiency": 0.245, "district": "Lower Kuskokwim School District", "city": "Goodnews Bay", "ncessch": "020000100476"}, {"name": "Akiuk Memorial School", "lat": 60.894621, "lon": -162.519284, "proficiency": 0.245, "district": "Lower Kuskokwim School District", "city": "Kasigluk", "ncessch": "020000100619"}, {"name": "Alakanuk School", "lat": 62.684937, "lon": -164.669268, "proficiency": 0.245, "district": "Lower Yukon School District", "city": "Alakanuk", "ncessch": "020000300216"}, {"name": "Emmonak School", "lat": 62.778473, "lon": -164.528906, "proficiency": 0.245, "district": "Lower Yukon School District", "city": "Emmonak", "ncessch": "020000300217"}, {"name": "Marshall School", "lat": 61.879179, "lon": -162.087128, "proficiency": 0.245, "district": "Lower Yukon School District", "city": "Marshall", "ncessch": "020000300218"}, {"name": "Hooper Bay School", "lat": 61.521812, "lon": -166.096304, "proficiency": 0.05, "district": "Lower Yukon School District", "city": "Hooper Bay", "ncessch": "020000300219"}, {"name": "Mountain Village School", "lat": 62.089064, "lon": -163.728135, "proficiency": 0.1, "district": "Lower Yukon School District", "city": "Mountain Village", "ncessch": "020000300220"}, {"name": "Russian Mission School", "lat": 61.786345, "lon": -161.325695, "proficiency": 0.245, "district": "Lower Yukon School District", "city": "Russian Mission", "ncessch": "020000300222"}, {"name": "Pilot Station School", "lat": 61.93608, "lon": -162.892124, "proficiency": 0.245, "district": "Lower Yukon School District", "city": "Pilot Station", "ncessch": "020000300410"}, {"name": "Kotlik School", "lat": 63.031678, "lon": -163.554855, "proficiency": 0.245, "district": "Lower Yukon School District", "city": "Kotlik", "ncessch": "020000300411"}, {"name": "Scammon Bay School", "lat": 61.838761, "lon": -165.566778, "proficiency": 0.245, "district": "Lower Yukon School District", "city": "Scammon Bay", "ncessch": "020000300412"}, {"name": "Nunam Iqua School", "lat": 62.531773, "lon": -164.848136, "proficiency": -0.03, "district": "Lower Yukon School District", "city": "Nunam Iqua", "ncessch": "020000300413"}, {"name": "Akiachak School", "lat": 60.913883, "lon": -161.448992, "proficiency": 0.245, "district": "Yupiit School District", "city": "Akiachak", "ncessch": "020000400579"}, {"name": "Tuluksak School", "lat": 61.098677, "lon": -160.956438, "proficiency": 0.245, "district": "Yupiit School District", "city": "Tuluksak", "ncessch": "020000400623"}, {"name": "Akiak School", "lat": 60.907187, "lon": -161.229711, "proficiency": 0.245, "district": "Yupiit School District", "city": "Akiak", "ncessch": "020000400624"}, {"name": "Chevak School", "lat": 61.531048, "lon": -165.585866, "proficiency": 0.1, "district": "Kashunamiut School District", "city": "Chevak", "ncessch": "020000500582"}, {"name": "False Pass School", "lat": 54.853163, "lon": -163.418383, "proficiency": -0.03, "district": "Aleutians East Borough School District", "city": "False Pass", "ncessch": "020000700007"}, {"name": "King Cove School", "lat": 55.04728, "lon": -162.29577, "proficiency": 0.245, "district": "Aleutians East Borough School District", "city": "King Cove", "ncessch": "020000700177"}, {"name": "Sand Point School", "lat": 55.351546, "lon": -160.475841, "proficiency": 0.245, "district": "Aleutians East Borough School District", "city": "Sand Point", "ncessch": "020000700461"}, {"name": "Adak School", "lat": 51.868164, "lon": -176.640331, "proficiency": -0.03, "district": "Aleutian Region School District", "city": "Adak", "ncessch": "020001000080"}, {"name": "Gambell School", "lat": 63.776842, "lon": -171.715402, "proficiency": 0.1, "district": "Bering Strait School District", "city": "Gambell", "ncessch": "020002000012"}, {"name": "Koyuk-Malimiut School", "lat": 64.932066, "lon": -161.15727, "proficiency": 0.245, "district": "Bering Strait School District", "city": "Koyuk", "ncessch": "020002000013"}, {"name": "Hogarth Kingeekuk Sr. Memorial School", "lat": 63.692377, "lon": -170.491327, "proficiency": 0.245, "district": "Bering Strait School District", "city": "Savoonga", "ncessch": "020002000014"}, {"name": "Shishmaref School", "lat": 66.255768, "lon": -166.072675, "proficiency": 0.245, "district": "Bering Strait School District", "city": "Shishmaref", "ncessch": "020002000015"}, {"name": "James C. Isabell School", "lat": 65.263624, "lon": -166.366659, "proficiency": 0.245, "district": "Bering Strait School District", "city": "Teller", "ncessch": "020002000016"}, {"name": "Unalakleet School", "lat": 63.87652, "lon": -160.795158, "proficiency": 0.245, "district": "Bering Strait School District", "city": "Unalakleet", "ncessch": "020002000017"}, {"name": "Wales School", "lat": 65.605098, "lon": -168.085971, "proficiency": -0.03, "district": "Bering Strait School District", "city": "Wales", "ncessch": "020002000018"}, {"name": "White Mountain School", "lat": 64.678363, "lon": -163.396679, "proficiency": -0.03, "district": "Bering Strait School District", "city": "White Mountain", "ncessch": "020002000019"}, {"name": "Aniguiin School", "lat": 64.615987, "lon": -162.264729, "proficiency": 0.245, "district": "Bering Strait School District", "city": "Elim", "ncessch": "020002000421"}, {"name": "Martin L. Olson School", "lat": 64.542917, "lon": -163.03506, "proficiency": -0.03, "district": "Bering Strait School District", "city": "Golovin", "ncessch": "020002000422"}, {"name": "Brevig Mission School", "lat": 65.333225, "lon": -166.487804, "proficiency": 0.245, "district": "Bering Strait School District", "city": "Brevig Mission", "ncessch": "020002000423"}, {"name": "Shaktoolik School", "lat": 64.353789, "lon": -161.194283, "proficiency": 0.245, "district": "Bering Strait School District", "city": "Shaktoolik", "ncessch": "020002000466"}, {"name": "Anthony A. Andrews School", "lat": 63.482262, "lon": -162.02919, "proficiency": 0.245, "district": "Bering Strait School District", "city": "St. Michael", "ncessch": "020002000467"}, {"name": "Tukurngailnguq School", "lat": 63.519426, "lon": -162.287615, "proficiency": 0.1, "district": "Bering Strait School District", "city": "Stebbins", "ncessch": "020002000468"}, {"name": "Diomede School", "lat": 65.758907, "lon": -168.951461, "proficiency": -0.03, "district": "Bering Strait School District", "city": "Diomede", "ncessch": "020002000499"}, {"name": "Bristol Bay Middle/High School", "lat": 58.733307, "lon": -157.004582, "proficiency": -0.03, "district": "Bristol Bay Borough School District", "city": "Naknek", "ncessch": "020003000020"}, {"name": "Eagle Community School", "lat": 64.784368, "lon": -141.206094, "proficiency": -0.03, "district": "Alaska Gateway School District", "city": "Eagle", "ncessch": "020005000025"}, {"name": "Mentasta Lake School", "lat": 62.929428, "lon": -143.797882, "proficiency": -0.03, "district": "Alaska Gateway School District", "city": "Mentasta Lake", "ncessch": "020005000026"}, {"name": "Walter Northway School", "lat": 62.961784, "lon": -141.934161, "proficiency": -0.03, "district": "Alaska Gateway School District", "city": "Northway", "ncessch": "020005000027"}, {"name": "Tok School", "lat": 63.327597, "lon": -142.979692, "proficiency": 0.245, "district": "Alaska Gateway School District", "city": "Tok", "ncessch": "020005000028"}, {"name": "Tanacross School", "lat": 63.376298, "lon": -143.355967, "proficiency": -0.03, "district": "Alaska Gateway School District", "city": "Tanacross", "ncessch": "020005000424"}, {"name": "Cordova Jr/Sr High School", "lat": 60.540335, "lon": -145.758854, "proficiency": 0.3, "district": "Cordova City School District", "city": "Cordova", "ncessch": "020006000029"}, {"name": "Kenny Lake School", "lat": 61.726731, "lon": -145.008097, "proficiency": -0.03, "district": "Copper River School District", "city": "Copper Center", "ncessch": "020007000036"}, {"name": "Glennallen Jr/Sr High School", "lat": 62.11293, "lon": -145.526532, "proficiency": 0.3, "district": "Copper River School District", "city": "Glennallen", "ncessch": "020007000039"}, {"name": "Upstream Learning Correspondence", "lat": 62.11293, "lon": -145.526532, "proficiency": 0.245, "district": "Copper River School District", "city": "Glennallen", "ncessch": "020007000398"}, {"name": "Slana School", "lat": 62.705118, "lon": -143.958155, "proficiency": -0.03, "district": "Copper River School District", "city": "Slana", "ncessch": "020007000583"}, {"name": "PACE Correspondence", "lat": 55.475526, "lon": -133.1372, "proficiency": 0.245, "district": "Craig City School District", "city": "Craig", "ncessch": "020009000160"}, {"name": "Craig Middle School", "lat": 55.475526, "lon": -133.1372, "proficiency": 0.3, "district": "Craig City School District", "city": "Craig", "ncessch": "020009000433"}, {"name": "Gerstle River School", "lat": 63.860488, "lon": -144.860347, "proficiency": -0.03, "district": "Delta/Greely School District", "city": "Delta Junction", "ncessch": "020010000510"}, {"name": "Alaska Homeschool", "lat": 64.043116, "lon": -145.711175, "proficiency": -0.03, "district": "Delta/Greely School District", "city": "Delta Junction", "ncessch": "020010000599"}, {"name": "Delta Junction Junior High School", "lat": 64.042597, "lon": -145.714013, "proficiency": 0.545, "district": "Delta/Greely School District", "city": "Delta Junction", "ncessch": "020010000764"}, {"name": "Dillingham Middle/High School", "lat": 59.042379, "lon": -158.464858, "proficiency": 0.245, "district": "Dillingham City School District", "city": "Dillingham", "ncessch": "020012000634"}, {"name": "Interior Distance Education of Alaska (IDEA)", "lat": 64.81243, "lon": -147.768486, "proficiency": 0.32, "district": "Galena City School District", "city": "Fairbanks", "ncessch": "020013000253"}, {"name": "Sidney C. Huntington Jr/Sr High School", "lat": 64.746135, "lon": -156.878509, "proficiency": -0.03, "district": "Galena City School District", "city": "Galena", "ncessch": "020013000635"}, {"name": "Revilla Jr/Sr High School", "lat": 55.354597, "lon": -131.682928, "proficiency": 0.245, "district": "Ketchikan Gateway Borough School District", "city": "Ketchikan", "ncessch": "020015000048"}, {"name": "Schoenbar Middle School", "lat": 55.344813, "lon": -131.637405, "proficiency": 0.47, "district": "Ketchikan Gateway Borough School District", "city": "Ketchikan", "ncessch": "020015000050"}, {"name": "Ketchikan Charter School", "lat": 55.347575, "lon": -131.640006, "proficiency": 0.3, "district": "Ketchikan Gateway Borough School District", "city": "Ketchikan", "ncessch": "020015000306"}, {"name": "Fast Track", "lat": 55.353558, "lon": -131.677936, "proficiency": -0.03, "district": "Ketchikan Gateway Borough School District", "city": "Ketchikan", "ncessch": "020015000427"}, {"name": "Central Middle School of Science", "lat": 61.208124, "lon": -149.88934, "proficiency": 0.17, "district": "Anchorage School District", "city": "Anchorage", "ncessch": "020018000063"}, {"name": "Clark Middle School", "lat": 61.22296, "lon": -149.811335, "proficiency": 0.1, "district": "Anchorage School District", "city": "Anchorage", "ncessch": "020018000064"}, {"name": "Girdwood School", "lat": 60.968693, "lon": -149.127653, "proficiency": 0.245, "district": "Anchorage School District", "city": "Girdwood", "ncessch": "020018000077"}, {"name": "Northern Lights ABC K-8 School", "lat": 61.165416, "lon": -149.835334, "proficiency": 0.645, "district": "Anchorage School District", "city": "Anchorage", "ncessch": "020018000094"}, {"name": "Polaris K-12 School", "lat": 61.164783, "lon": -149.853932, "proficiency": 0.345, "district": "Anchorage School District", "city": "Anchorage", "ncessch": "020018000101"}, {"name": "Romig Middle School", "lat": 61.19828, "lon": -149.914896, "proficiency": 0.31, "district": "Anchorage School District", "city": "Anchorage", "ncessch": "020018000106"}, {"name": "Benson Secondary/S.E.A.R.C.H.", "lat": 61.179553, "lon": -149.759556, "proficiency": -0.03, "district": "Anchorage School District", "city": "Anchorage", "ncessch": "020018000110"}, {"name": "Steller Secondary School", "lat": 61.197755, "lon": -149.893314, "proficiency": 0.445, "district": "Anchorage School District", "city": "Anchorage", "ncessch": "020018000115"}, {"name": "Wendler Middle School", "lat": 61.193871, "lon": -149.836286, "proficiency": 0.17, "district": "Anchorage School District", "city": "Anchorage", "ncessch": "020018000119"}, {"name": "Whaley School", "lat": 61.200673, "lon": -149.814573, "proficiency": 0.1, "district": "Anchorage School District", "city": "Anchorage", "ncessch": "020018000121"}, {"name": "Family Partnership Charter School", "lat": 61.179836, "lon": -149.889683, "proficiency": 0.345, "district": "Anchorage School District", "city": "Anchorage", "ncessch": "020018000178"}, {"name": "Mirror Lake Middle School", "lat": 61.427207, "lon": -149.424613, "proficiency": 0.42, "district": "Anchorage School District", "city": "Chugiak", "ncessch": "020018000229"}, {"name": "Alaska State School for Deaf and Hard of Hearing", "lat": 61.193958, "lon": -149.775759, "proficiency": -0.03, "district": "Anchorage School District", "city": "Anchorage", "ncessch": "020018000341"}, {"name": "McLaughlin Secondary School", "lat": 61.186973, "lon": -149.833637, "proficiency": -0.03, "district": "Anchorage School District", "city": "Anchorage", "ncessch": "020018000432"}, {"name": "Winterberry School", "lat": 61.194615, "lon": -149.792333, "proficiency": 0.1, "district": "Anchorage School District", "city": "Anchorage", "ncessch": "020018000459"}, {"name": "Gruening Middle School", "lat": 61.306684, "lon": -149.548209, "proficiency": 0.52, "district": "Anchorage School District", "city": "Eagle River", "ncessch": "020018000505"}, {"name": "Frontier Charter School", "lat": 61.194914, "lon": -149.891223, "proficiency": 0.3, "district": "Anchorage School District", "city": "Anchorage", "ncessch": "020018000530"}, {"name": "Hanshew Middle School", "lat": 61.130299, "lon": -149.830446, "proficiency": 0.19, "district": "Anchorage School District", "city": "Anchorage", "ncessch": "020018000534"}, {"name": "Highland Academy Charter", "lat": 61.193958, "lon": -149.775759, "proficiency": 0.345, "district": "Anchorage School District", "city": "Anchorage", "ncessch": "020018000555"}, {"name": "Mears Middle School", "lat": 61.128925, "lon": -149.931428, "proficiency": 0.28, "district": "Anchorage School District", "city": "Anchorage", "ncessch": "020018000562"}, {"name": "AVAIL School", "lat": 61.217957, "lon": -149.887096, "proficiency": 0.245, "district": "Anchorage School District", "city": "Anchorage", "ncessch": "020018000714"}, {"name": "Nicholas J. Begich Middle School", "lat": 61.208203, "lon": -149.743084, "proficiency": 0.1, "district": "Anchorage School District", "city": "Anchorage", "ncessch": "020018000729"}, {"name": "Rilke Schule Charter School", "lat": 61.161904, "lon": -149.848426, "proficiency": 0.495, "district": "Anchorage School District", "city": "Anchorage", "ncessch": "020018000732"}, {"name": "Alaska Native Cultural Charter School", "lat": 61.21766, "lon": -149.810421, "proficiency": 0.3, "district": "Anchorage School District", "city": "Anchorage", "ncessch": "020018000736"}, {"name": "PAIDEIA Cooperative School", "lat": 61.212234, "lon": -149.894307, "proficiency": 0.245, "district": "Anchorage School District", "city": "Anchorage", "ncessch": "020018000756"}, {"name": "Anchorage STrEaM Academy", "lat": 61.192258, "lon": -149.735536, "proficiency": 0.15, "district": "Anchorage School District", "city": "Anchorage", "ncessch": "020018000760"}, {"name": "Goldenview Middle School", "lat": 61.078161, "lon": -149.778446, "proficiency": 0.45, "district": "Anchorage School District", "city": "Anchorage", "ncessch": "020018010162"}, {"name": "HomeBRIDGE", "lat": 58.303484, "lon": -134.42692, "proficiency": 0.245, "district": "Juneau Borough School District", "city": "Juneau", "ncessch": "020021000125"}, {"name": "Floyd Dryden Middle School", "lat": 58.388179, "lon": -134.568169, "proficiency": 0.37, "district": "Juneau Borough School District", "city": "Juneau", "ncessch": "020021000129"}, {"name": "Dzantik'i Heeni Middle School", "lat": 58.363095, "lon": -134.514533, "proficiency": 0.37, "district": "Juneau Borough School District", "city": "Juneau", "ncessch": "020021000134"}, {"name": "Juneau Community Charter School", "lat": 58.305326, "lon": -134.429418, "proficiency": 0.245, "district": "Juneau Borough School District", "city": "Juneau", "ncessch": "020021000268"}, {"name": "Montessori Borealis Public Alternative School", "lat": 58.303484, "lon": -134.42692, "proficiency": 0.695, "district": "Juneau Borough School District", "city": "Juneau", "ncessch": "020021000755"}, {"name": "Blatchley Middle School", "lat": 57.056129, "lon": -135.344794, "proficiency": 0.42, "district": "Sitka School District", "city": "Sitka", "ncessch": "020024000136"}, {"name": "Sitka REACH", "lat": 57.053438, "lon": -135.331056, "proficiency": -0.03, "district": "Sitka School District", "city": "Sitka", "ncessch": "020024000142"}, {"name": "Haines Elementary", "lat": 59.234574, "lon": -135.453573, "proficiency": 0.495, "district": "Haines Borough School District", "city": "Haines", "ncessch": "020027000144"}, {"name": "Hoonah City School", "lat": 58.108798, "lon": -135.442182, "proficiency": 0.245, "district": "Hoonah City School District", "city": "Hoonah", "ncessch": "020030000146"}, {"name": "Hydaburg School", "lat": 55.207545, "lon": -132.825933, "proficiency": -0.03, "district": "Hydaburg City School District", "city": "Hydaburg", "ncessch": "020033000148"}, {"name": "Kake Elementary & High School", "lat": 56.977702, "lon": -133.947065, "proficiency": 0.245, "district": "Kake City School District", "city": "Kake", "ncessch": "020036000150"}, {"name": "Chapman School", "lat": 59.77662, "lon": -151.83394, "proficiency": 0.75, "district": "Kenai Peninsula Borough School District", "city": "Anchor Point", "ncessch": "020039000152"}, {"name": "Tebughna School", "lat": 61.068196, "lon": -151.143478, "proficiency": -0.03, "district": "Kenai Peninsula Borough School District", "city": "Tyonek", "ncessch": "020039000153"}, {"name": "Cooper Landing School", "lat": 60.494995, "lon": -149.806138, "proficiency": -0.03, "district": "Kenai Peninsula Borough School District", "city": "Cooper Landing", "ncessch": "020039000155"}, {"name": "Nanwalek School", "lat": 59.354476, "lon": -151.920352, "proficiency": 0.245, "district": "Kenai Peninsula Borough School District", "city": "Nanwalek", "ncessch": "020039000157"}, {"name": "Hope School", "lat": 60.917853, "lon": -149.622011, "proficiency": -0.03, "district": "Kenai Peninsula Borough School District", "city": "Hope", "ncessch": "020039000159"}, {"name": "Nikolaevsk School", "lat": 59.811384, "lon": -151.612927, "proficiency": 0.245, "district": "Kenai Peninsula Borough School District", "city": "Nikolaevsk", "ncessch": "020039000164"}, {"name": "Ninilchik School", "lat": 60.043358, "lon": -151.675207, "proficiency": 0.245, "district": "Kenai Peninsula Borough School District", "city": "Ninilchik", "ncessch": "020039000165"}, {"name": "Port Graham School", "lat": 59.351643, "lon": -151.83221, "proficiency": -0.03, "district": "Kenai Peninsula Borough School District", "city": "Port Graham", "ncessch": "020039000168"}, {"name": "Susan B English School", "lat": 59.442217, "lon": -151.713651, "proficiency": -0.03, "district": "Kenai Peninsula Borough School District", "city": "Seldovia", "ncessch": "020039000175"}, {"name": "Aurora Borealis Charter School", "lat": 60.554119, "lon": -151.254811, "proficiency": 0.9, "district": "Kenai Peninsula Borough School District", "city": "Kenai", "ncessch": "020039000274"}, {"name": "Connections", "lat": 60.491095, "lon": -151.068076, "proficiency": 0.345, "district": "Kenai Peninsula Borough School District", "city": "Soldotna", "ncessch": "020039000397"}, {"name": "Seward Middle School", "lat": 60.131859, "lon": -149.441788, "proficiency": 0.245, "district": "Kenai Peninsula Borough School District", "city": "Seward", "ncessch": "020039000437"}, {"name": "Marathon School", "lat": 60.567003, "lon": -151.232337, "proficiency": -0.03, "district": "Kenai Peninsula Borough School District", "city": "Kenai", "ncessch": "020039000513"}, {"name": "Razdolna School", "lat": 59.812646, "lon": -151.082691, "proficiency": 0.245, "district": "Kenai Peninsula Borough School District", "city": "Homer", "ncessch": "020039000536"}, {"name": "Kenai Middle School", "lat": 60.562633, "lon": -151.206256, "proficiency": 0.32, "district": "Kenai Peninsula Borough School District", "city": "Kenai", "ncessch": "020039000538"}, {"name": "Skyview Middle School", "lat": 60.458105, "lon": -151.100758, "proficiency": 0.32, "district": "Kenai Peninsula Borough School District", "city": "Soldotna", "ncessch": "020039000541"}, {"name": "Homer Middle School", "lat": 59.643262, "lon": -151.555096, "proficiency": 0.52, "district": "Kenai Peninsula Borough School District", "city": "Homer", "ncessch": "020039000543"}, {"name": "Voznesenka School", "lat": 59.794278, "lon": -151.096546, "proficiency": 0.245, "district": "Kenai Peninsula Borough School District", "city": "Voznesenka", "ncessch": "020039000612"}, {"name": "Nikiski Middle/Senior High School", "lat": 60.734351, "lon": -151.296147, "proficiency": 0.245, "district": "Kenai Peninsula Borough School District", "city": "Nikiski", "ncessch": "020039000645"}, {"name": "Kachemak Selo School", "lat": 59.794733, "lon": -151.073968, "proficiency": -0.03, "district": "Kenai Peninsula Borough School District", "city": "Fritz Creek", "ncessch": "020039000718"}, {"name": "River City Academy", "lat": 60.458105, "lon": -151.100758, "proficiency": 0.245, "district": "Kenai Peninsula Borough School District", "city": "Soldotna", "ncessch": "020039000735"}, {"name": "Klawock City School", "lat": 55.553553, "lon": -133.099033, "proficiency": 0.245, "district": "Klawock City School District", "city": "Klawock", "ncessch": "020045000179"}, {"name": "Akhiok School", "lat": 56.946831, "lon": -154.17326, "proficiency": -0.03, "district": "Kodiak Island Borough School District", "city": "Akhiok", "ncessch": "020048000180"}, {"name": "Kodiak Middle School", "lat": 57.793709, "lon": -152.391497, "proficiency": 0.32, "district": "Kodiak Island Borough School District", "city": "Kodiak", "ncessch": "020048000186"}, {"name": "Old Harbor School", "lat": 57.203488, "lon": -153.306139, "proficiency": -0.03, "district": "Kodiak Island Borough School District", "city": "Old Harbor", "ncessch": "020048000189"}, {"name": "Ouzinkie School", "lat": 57.922609, "lon": -152.507494, "proficiency": -0.03, "district": "Kodiak Island Borough School District", "city": "Ouzinkie", "ncessch": "020048000192"}, {"name": "AKTEACH", "lat": 57.794069, "lon": -152.395226, "proficiency": 0.245, "district": "Kodiak Island Borough School District", "city": "Kodiak", "ncessch": "020048000435"}, {"name": "Chignik Lake School", "lat": 56.253616, "lon": -158.764525, "proficiency": -0.03, "district": "Lake and Peninsula Borough School District", "city": "Chignik Lake", "ncessch": "020048500195"}, {"name": "Igiugig School", "lat": 59.325284, "lon": -155.903355, "proficiency": -0.03, "district": "Lake and Peninsula Borough School District", "city": "Igiugig", "ncessch": "020048500197"}, {"name": "Kokhanok School", "lat": 59.439978, "lon": -154.749078, "proficiency": -0.03, "district": "Lake and Peninsula Borough School District", "city": "Kokhanok", "ncessch": "020048500198"}, {"name": "Newhalen School", "lat": 59.71998, "lon": -154.896197, "proficiency": 0.245, "district": "Lake and Peninsula Borough School District", "city": "Iliamna", "ncessch": "020048500199"}, {"name": "Nondalton School", "lat": 59.966913, "lon": -154.85703, "proficiency": -0.03, "district": "Lake and Peninsula Borough School District", "city": "Nondalton", "ncessch": "020048500200"}, {"name": "Pilot Point School", "lat": 57.564173, "lon": -157.573428, "proficiency": -0.03, "district": "Lake and Peninsula Borough School District", "city": "Pilot Point", "ncessch": "020048500203"}, {"name": "Tanalian School", "lat": 60.196154, "lon": -154.328261, "proficiency": -0.03, "district": "Lake and Peninsula Borough School District", "city": "Port Alsworth", "ncessch": "020048500204"}, {"name": "Meshik School", "lat": 56.924032, "lon": -158.661435, "proficiency": -0.03, "district": "Lake and Peninsula Borough School District", "city": "Port Heiden", "ncessch": "020048500205"}, {"name": "Levelock School", "lat": 59.1128, "lon": -156.857425, "proficiency": -0.03, "district": "Lake and Peninsula Borough School District", "city": "Levelock", "ncessch": "020048500334"}, {"name": "Mat-Su Central School", "lat": 61.579147, "lon": -149.434522, "proficiency": 0.3, "district": "Matanuska-Susitna Borough School District", "city": "Wasilla", "ncessch": "020051000224"}, {"name": "Glacier View School", "lat": 61.793616, "lon": -147.725751, "proficiency": -0.03, "district": "Matanuska-Susitna Borough School District", "city": "Sutton", "ncessch": "020051000225"}, {"name": "Susitna Valley High", "lat": 62.131208, "lon": -150.043869, "proficiency": 0.495, "district": "Matanuska-Susitna Borough School District", "city": "Talkeetna", "ncessch": "020051000232"}, {"name": "Academy Charter School", "lat": 61.607242, "lon": -149.094387, "proficiency": 0.695, "district": "Matanuska-Susitna Borough School District", "city": "Palmer", "ncessch": "020051000311"}, {"name": "Midnight Sun Family Learning Center", "lat": 61.596948, "lon": -149.634682, "proficiency": 0.75, "district": "Matanuska-Susitna Borough School District", "city": "Wasilla", "ncessch": "020051000312"}, {"name": "Mat-Su Youth Facility", "lat": 61.585923, "lon": -149.104279, "proficiency": -0.03, "district": "Matanuska-Susitna Borough School District", "city": "Palmer", "ncessch": "020051000407"}, {"name": "Teeland Middle School", "lat": 61.611821, "lon": -149.363171, "proficiency": 0.42, "district": "Matanuska-Susitna Borough School District", "city": "Wasilla", "ncessch": "020051000444"}, {"name": "Houston Middle School", "lat": 61.586852, "lon": -149.772397, "proficiency": 0.17, "district": "Matanuska-Susitna Borough School District", "city": "Big Lake", "ncessch": "020051000450"}, {"name": "American Charter Academy", "lat": 61.581735, "lon": -149.634213, "proficiency": 0.495, "district": "Matanuska-Susitna Borough School District", "city": "Wasilla", "ncessch": "020051000452"}, {"name": "Twindly Bridge Charter School", "lat": 61.614254, "lon": -149.449683, "proficiency": 0.245, "district": "Matanuska-Susitna Borough School District", "city": "Wasilla", "ncessch": "020051000469"}, {"name": "Palmer Middle School", "lat": 61.593449, "lon": -149.109293, "proficiency": 0.22, "district": "Matanuska-Susitna Borough School District", "city": "Palmer", "ncessch": "020051000544"}, {"name": "Wasilla Middle School", "lat": 61.584582, "lon": -149.433083, "proficiency": 0.17, "district": "Matanuska-Susitna Borough School District", "city": "Wasilla", "ncessch": "020051000545"}, {"name": "Colony Middle School", "lat": 61.608892, "lon": -149.219833, "proficiency": 0.32, "district": "Matanuska-Susitna Borough School District", "city": "Palmer", "ncessch": "020051000719"}, {"name": "Beryozova School", "lat": 61.704341, "lon": -150.138969, "proficiency": -0.03, "district": "Matanuska-Susitna Borough School District", "city": "Willow", "ncessch": "020051000726"}, {"name": "Mat-Su Day School", "lat": 61.6057, "lon": -149.350691, "proficiency": 0.245, "district": "Matanuska-Susitna Borough School District", "city": "Wasilla", "ncessch": "020051000734"}, {"name": "Fronteras Charter School", "lat": 61.605814, "lon": -149.357229, "proficiency": 0.3, "district": "Matanuska-Susitna Borough School District", "city": "Wasilla", "ncessch": "020051000740"}, {"name": "Birchtree Charter School", "lat": 61.598018, "lon": -149.273669, "proficiency": 0.1, "district": "Matanuska-Susitna Borough School District", "city": "Palmer", "ncessch": "020051000744"}, {"name": "Joe Redington Senior Jr/Sr High School", "lat": 61.501287, "lon": -149.702793, "proficiency": 0.075, "district": "Matanuska-Susitna Borough School District", "city": "Wasilla", "ncessch": "020051000758"}, {"name": "Blackwell School", "lat": 62.649062, "lon": -160.194676, "proficiency": -0.03, "district": "Iditarod Area School District", "city": "Anvik", "ncessch": "020052000240"}, {"name": "David Louis Memorial School", "lat": 62.905677, "lon": -160.06631, "proficiency": -0.03, "district": "Iditarod Area School District", "city": "Grayling", "ncessch": "020052000241"}, {"name": "McGrath School", "lat": 62.95352, "lon": -155.59635, "proficiency": -0.03, "district": "Iditarod Area School District", "city": "McGrath", "ncessch": "020052000244"}, {"name": "Innoko River School", "lat": 62.654774, "lon": -159.532853, "proficiency": -0.03, "district": "Iditarod Area School District", "city": "Shageluk", "ncessch": "020052000246"}, {"name": "Takotna Community School", "lat": 62.987986, "lon": -156.061948, "proficiency": -0.03, "district": "Iditarod Area School District", "city": "Takotna", "ncessch": "020052000247"}, {"name": "Charles R. Leask Sr. Middle School", "lat": 55.127346, "lon": -131.577255, "proficiency": 0.1, "district": "Annette Island School District", "city": "Metlakatla", "ncessch": "020052500111"}, {"name": "Nenana City School", "lat": 64.561776, "lon": -149.088866, "proficiency": 0.245, "district": "Nenana City School District", "city": "Nenana", "ncessch": "020054000251"}, {"name": "CyberLynx Correspondence Program", "lat": 64.561784, "lon": -149.086068, "proficiency": 0.3, "district": "Nenana City School District", "city": "Nenana", "ncessch": "020054000321"}, {"name": "Anvil City Science Academy", "lat": 64.542453, "lon": -165.40547, "proficiency": 0.75, "district": "Nome Public Schools", "city": "Nome", "ncessch": "020057000323"}, {"name": "Extensions Correspondence", "lat": 64.542453, "lon": -165.40547, "proficiency": -0.03, "district": "Nome Public Schools", "city": "Nome", "ncessch": "020057000426"}, {"name": "Nome-Beltz Middle/High", "lat": 64.542453, "lon": -165.40547, "proficiency": 0.05, "district": "Nome Public Schools", "city": "Nome", "ncessch": "020057000568"}, {"name": "Golden Heart Academy", "lat": 64.832813, "lon": -147.764598, "proficiency": -0.03, "district": "Fairbanks North Star Borough School District", "city": "Fairbanks", "ncessch": "020060000049"}, {"name": "Chinook Montessori Charter School", "lat": 64.819641, "lon": -147.752261, "proficiency": 0.495, "district": "Fairbanks North Star Borough School District", "city": "Fairbanks", "ncessch": "020060000162"}, {"name": "Barnette Magnet School", "lat": 64.838282, "lon": -147.729991, "proficiency": 0.445, "district": "Fairbanks North Star Borough School District", "city": "Fairbanks", "ncessch": "020060000259"}, {"name": "Ben Eielson Jr/Sr High School", "lat": 64.674796, "lon": -147.074375, "proficiency": 0.345, "district": "Fairbanks North Star Borough School District", "city": "Eielson AFB", "ncessch": "020060000260"}, {"name": "Ryan Middle School", "lat": 64.835785, "lon": -147.734822, "proficiency": 0.27, "district": "Fairbanks North Star Borough School District", "city": "Fairbanks", "ncessch": "020060000275"}, {"name": "Tanana Middle School", "lat": 64.84566, "lon": -147.665956, "proficiency": 0.22, "district": "Fairbanks North Star Borough School District", "city": "Fairbanks", "ncessch": "020060000277"}, {"name": "Two Rivers School", "lat": 64.87727, "lon": -147.038497, "proficiency": -0.03, "district": "Fairbanks North Star Borough School District", "city": "Fairbanks", "ncessch": "020060000279"}, {"name": "Randy Smith Middle School", "lat": 64.855145, "lon": -147.750236, "proficiency": 0.42, "district": "Fairbanks North Star Borough School District", "city": "Fairbanks", "ncessch": "020060000324"}, {"name": "Alternative Learning Systems", "lat": 64.842168, "lon": -147.718047, "proficiency": 0.245, "district": "Fairbanks North Star Borough School District", "city": "Fairbanks", "ncessch": "020060000325"}, {"name": "Star of the North Secondary School", "lat": 64.763962, "lon": -147.347725, "proficiency": 0.245, "district": "Fairbanks North Star Borough School District", "city": "Utqiagvik", "ncessch": "020060000462"}, {"name": "Effie Kokrine Charter School", "lat": 64.847827, "lon": -147.840318, "proficiency": 0.1, "district": "Fairbanks North Star Borough School District", "city": "Fairbanks", "ncessch": "020060000464"}, {"name": "Fairbanks B.E.S.T.", "lat": 64.842168, "lon": -147.718047, "proficiency": 0.245, "district": "Fairbanks North Star Borough School District", "city": "Fairbanks", "ncessch": "020060000587"}, {"name": "North Pole Middle School", "lat": 64.746907, "lon": -147.342566, "proficiency": 0.32, "district": "Fairbanks North Star Borough School District", "city": "North Pole", "ncessch": "020060000652"}, {"name": "Watershed Charter School", "lat": 64.82705, "lon": -147.868291, "proficiency": 0.3, "district": "Fairbanks North Star Borough School District", "city": "Fairbanks", "ncessch": "020060000742"}, {"name": "Boreal Sun Charter School", "lat": 64.8248, "lon": -147.731661, "proficiency": 0.75, "district": "Fairbanks North Star Borough School District", "city": "Fairbanks", "ncessch": "020060000761"}, {"name": "Eben Hopson Middle School", "lat": 71.298478, "lon": -156.743762, "proficiency": 0.12, "district": "North Slope Borough School District", "city": "Utqiagvik", "ncessch": "020061000139"}, {"name": "Nunamiut School", "lat": 68.139781, "lon": -151.738503, "proficiency": 0.245, "district": "North Slope Borough School District", "city": "Anaktuvuk Pass", "ncessch": "020061000283"}, {"name": "Meade River School", "lat": 70.481084, "lon": -157.418635, "proficiency": 0.245, "district": "North Slope Borough School District", "city": "Atqasuk", "ncessch": "020061000284"}, {"name": "Harold Kaveolook School", "lat": 70.127419, "lon": -143.616203, "proficiency": -0.03, "district": "North Slope Borough School District", "city": "Kaktovik", "ncessch": "020061000287"}, {"name": "Nuiqsut Trapper School", "lat": 70.219741, "lon": -150.993417, "proficiency": 0.245, "district": "North Slope Borough School District", "city": "Nuiqsut", "ncessch": "020061000288"}, {"name": "Tikigaq School", "lat": 68.349569, "lon": -166.736003, "proficiency": 0.245, "district": "North Slope Borough School District", "city": "Point Hope", "ncessch": "020061000289"}, {"name": "Kali School", "lat": 69.743012, "lon": -163.00938, "proficiency": -0.03, "district": "North Slope Borough School District", "city": "Point Lay", "ncessch": "020061000290"}, {"name": "Alak School", "lat": 70.635981, "lon": -160.033909, "proficiency": 0.245, "district": "North Slope Borough School District", "city": "Wainwright", "ncessch": "020061000291"}, {"name": "Ambler School", "lat": 67.085664, "lon": -157.859775, "proficiency": -0.03, "district": "Northwest Arctic Borough School District", "city": "Ambler", "ncessch": "020062500292"}, {"name": "Buckland School", "lat": 65.977963, "lon": -161.124947, "proficiency": 0.245, "district": "Northwest Arctic Borough School District", "city": "Buckland", "ncessch": "020062500293"}, {"name": "Deering School", "lat": 66.074834, "lon": -162.719686, "proficiency": -0.03, "district": "Northwest Arctic Borough School District", "city": "Deering", "ncessch": "020062500294"}, {"name": "Kiana School", "lat": 66.971608, "lon": -160.437426, "proficiency": 0.245, "district": "Northwest Arctic Borough School District", "city": "Kiana", "ncessch": "020062500295"}, {"name": "Kobuk School", "lat": 66.908064, "lon": -156.881928, "proficiency": -0.03, "district": "Northwest Arctic Borough School District", "city": "Kobuk", "ncessch": "020062500297"}, {"name": "Kisimgiugtuq School", "lat": 67.725739, "lon": -164.53502, "proficiency": 0.245, "district": "Northwest Arctic Borough School District", "city": "Kivalina", "ncessch": "020062500300"}, {"name": "Napaaqtugmiut School", "lat": 67.57182, "lon": -162.987837, "proficiency": 0.1, "district": "Northwest Arctic Borough School District", "city": "Noatak", "ncessch": "020062500301"}, {"name": "Aqqaluk High/Noorvik Elementary", "lat": 66.833137, "lon": -161.043714, "proficiency": 0.1, "district": "Northwest Arctic Borough School District", "city": "Noorvik", "ncessch": "020062500302"}, {"name": "Shungnak School", "lat": 66.88957, "lon": -157.136697, "proficiency": -0.03, "district": "Northwest Arctic Borough School District", "city": "Shungnak", "ncessch": "020062500303"}, {"name": "Davis-Ramoth School", "lat": 66.604624, "lon": -160.01188, "proficiency": 0.245, "district": "Northwest Arctic Borough School District", "city": "Selawik", "ncessch": "020062500394"}, {"name": "Kotzebue Middle/High School", "lat": 66.902207, "lon": -162.58468, "proficiency": 0.245, "district": "Northwest Arctic Borough School District", "city": "Kotzebue", "ncessch": "020062500569"}, {"name": "NWABSD Home School", "lat": 66.902207, "lon": -162.58468, "proficiency": -0.03, "district": "Northwest Arctic Borough School District", "city": "Kotzebue", "ncessch": "020062500748"}, {"name": "Mitkof Middle School", "lat": 56.81506, "lon": -132.95583, "proficiency": 0.495, "district": "Petersburg Borough School District", "city": "Petersburg", "ncessch": "020066000604"}, {"name": "St Paul School", "lat": 57.120896, "lon": -170.279219, "proficiency": -0.03, "district": "Pribilof School District", "city": "St. Paul", "ncessch": "020067000308"}, {"name": "Saint Mary's School", "lat": 62.052226, "lon": -163.180707, "proficiency": 0.1, "district": "Saint Mary's School District", "city": "Saint Mary's", "ncessch": "020068000659"}, {"name": "Skagway School", "lat": 59.463181, "lon": -135.307408, "proficiency": 0.245, "district": "Skagway School District", "city": "Skagway", "ncessch": "020069000310"}, {"name": "Howard Valentine Coffman Cove School", "lat": 56.015004, "lon": -132.828532, "proficiency": -0.03, "district": "Southeast Island School District", "city": "Coffman Cove", "ncessch": "020070000314"}, {"name": "Barry Craig Stewart Kasaan School", "lat": 55.5389, "lon": -132.400394, "proficiency": -0.03, "district": "Southeast Island School District", "city": "Ketchikan", "ncessch": "020070000319"}, {"name": "Port Alexander School", "lat": 56.249547, "lon": -134.646916, "proficiency": -0.03, "district": "Southeast Island School District", "city": "Port Alexander", "ncessch": "020070000322"}, {"name": "Thorne Bay School", "lat": 55.689263, "lon": -132.524451, "proficiency": -0.03, "district": "Southeast Island School District", "city": "Thorne Bay", "ncessch": "020070000326"}, {"name": "Hyder School", "lat": 55.917982, "lon": -130.028541, "proficiency": -0.03, "district": "Southeast Island School District", "city": "Fort Yukon", "ncessch": "020070000428"}, {"name": "Hollis School", "lat": 55.482206, "lon": -132.649963, "proficiency": -0.03, "district": "Southeast Island School District", "city": "Craig", "ncessch": "020070000484"}, {"name": "Whale Pass School", "lat": 56.117096, "lon": -133.121861, "proficiency": -0.03, "district": "Southeast Island School District", "city": "Whale Pass", "ncessch": "020070000526"}, {"name": "Naukati School", "lat": 55.869043, "lon": -133.202839, "proficiency": -0.03, "district": "Southeast Island School District", "city": "Naukati", "ncessch": "020070000589"}, {"name": "Aleknagik School", "lat": 59.281235, "lon": -158.626406, "proficiency": -0.03, "district": "Southwest Region School District", "city": "Aleknagik", "ncessch": "020071000330"}, {"name": "Clarks Point School", "lat": 58.835283, "lon": -158.544016, "proficiency": -0.03, "district": "Southwest Region School District", "city": "Clarks Point", "ncessch": "020071000331"}, {"name": "Koliganek School", "lat": 59.726411, "lon": -157.285912, "proficiency": -0.03, "district": "Southwest Region School District", "city": "Koliganek", "ncessch": "020071000333"}, {"name": "Manokotak School", "lat": 58.965845, "lon": -158.955297, "proficiency": 0.245, "district": "Southwest Region School District", "city": "Manokotak", "ncessch": "020071000335"}, {"name": "Chief Ivan Blunka School", "lat": 59.450367, "lon": -157.311933, "proficiency": 0.245, "district": "Southwest Region School District", "city": "New Stuyahok", "ncessch": "020071000336"}, {"name": "Togiak School", "lat": 59.055898, "lon": -160.425249, "proficiency": 0.1, "district": "Southwest Region School District", "city": "Togiak", "ncessch": "020071000338"}, {"name": "William Sonny Nelson School", "lat": 59.349757, "lon": -157.476732, "proficiency": -0.03, "district": "Southwest Region School District", "city": "Ekwok", "ncessch": "020071000465"}, {"name": "Twin Hills School", "lat": 59.075118, "lon": -160.280687, "proficiency": -0.03, "district": "Southwest Region School District", "city": "Twin Hills", "ncessch": "020071000573"}, {"name": "Maudrey J. Sommer School", "lat": 65.171308, "lon": -152.087844, "proficiency": -0.03, "district": "Tanana City School District", "city": "Tanana", "ncessch": "020071500488"}, {"name": "Unalaska Jr/Sr High School", "lat": 53.872671, "lon": -166.529624, "proficiency": 0.545, "district": "Unalaska City School District", "city": "Unalaska", "ncessch": "020072000661"}, {"name": "Angoon School", "lat": 57.497734, "lon": -134.584631, "proficiency": 0.245, "district": "Chatham School District", "city": "Angoon", "ncessch": "020073000342"}, {"name": "Gustavus School", "lat": 58.41891, "lon": -135.710452, "proficiency": 0.75, "district": "Chatham School District", "city": "Gustavus", "ncessch": "020073000344"}, {"name": "Crow Village Sam School", "lat": 61.573296, "lon": -159.249298, "proficiency": -0.03, "district": "Kuspuk School District", "city": "Chuathbaluk", "ncessch": "020076000347"}, {"name": "Jack Egnaty Sr. School", "lat": 61.70259, "lon": -157.170756, "proficiency": -0.03, "district": "Kuspuk School District", "city": "Sleetmute", "ncessch": "020076000352"}, {"name": "Aniak Jr/Sr High School", "lat": 61.580187, "lon": -159.551624, "proficiency": 0.245, "district": "Kuspuk School District", "city": "Aniak", "ncessch": "020076000663"}, {"name": "George Morgan Sr. H.S.", "lat": 61.532419, "lon": -160.347052, "proficiency": 0.245, "district": "Kuspuk School District", "city": "Kalskag", "ncessch": "020076000665"}, {"name": "Anderson School", "lat": 64.343044, "lon": -149.188463, "proficiency": -0.03, "district": "Denali Borough School District", "city": "Anderson", "ncessch": "020077000354"}, {"name": "Tri-Valley School", "lat": 63.872984, "lon": -149.013975, "proficiency": 0.245, "district": "Denali Borough School District", "city": "Healy", "ncessch": "020077000357"}, {"name": "Denali PEAK", "lat": 63.872903, "lon": -149.015539, "proficiency": 0.445, "district": "Denali Borough School District", "city": "Healy", "ncessch": "020077000447"}, {"name": "Arctic Village School", "lat": 68.128484, "lon": -145.535471, "proficiency": -0.03, "district": "Yukon Flats School District", "city": "Arctic Village", "ncessch": "020077500358"}, {"name": "Tsuk Taih School", "lat": 66.650379, "lon": -143.727861, "proficiency": -0.03, "district": "Yukon Flats School District", "city": "Chalkyitsik", "ncessch": "020077500360"}, {"name": "Circle School", "lat": 65.826664, "lon": -144.066809, "proficiency": -0.03, "district": "Yukon Flats School District", "city": "Circle", "ncessch": "020077500361"}, {"name": "Fort Yukon School", "lat": 66.564498, "lon": -145.252648, "proficiency": 0.245, "district": "Yukon Flats School District", "city": "Fort Yukon", "ncessch": "020077500362"}, {"name": "John Fredson School", "lat": 67.015535, "lon": -146.414316, "proficiency": -0.03, "district": "Yukon Flats School District", "city": "Venetie", "ncessch": "020077500366"}, {"name": "George H. Gilson Middle School", "lat": 61.13846, "lon": -146.35974, "proficiency": 0.245, "district": "Valdez City School District", "city": "Valdez", "ncessch": "020078000367"}, {"name": "Valdez Home School", "lat": 61.133238, "lon": -146.3762, "proficiency": -0.03, "district": "Valdez City School District", "city": "Valdez", "ncessch": "020078000753"}, {"name": "Tatitlek Community School", "lat": 60.868481, "lon": -146.681802, "proficiency": -0.03, "district": "Chugach School District", "city": "Tatitlek", "ncessch": "020080000371"}, {"name": "Whittier Community School", "lat": 60.771631, "lon": -148.68622, "proficiency": -0.03, "district": "Chugach School District", "city": "Whittier", "ncessch": "020080000372"}, {"name": "FOCUS Homeschool", "lat": 61.1364, "lon": -149.848232, "proficiency": 0.1, "district": "Chugach School District", "city": "Anchorage", "ncessch": "020080000496"}, {"name": "Chenega School", "lat": 60.065632, "lon": -148.012397, "proficiency": -0.03, "district": "Chugach School District", "city": "Chenega Bay", "ncessch": "020080000553"}, {"name": "Stikine Middle School", "lat": 56.47171, "lon": -132.380232, "proficiency": 0.3, "district": "Wrangell Public School District", "city": "Wrangell", "ncessch": "020081000728"}, {"name": "Yakutat School", "lat": 59.546637, "lon": -139.723329, "proficiency": 0.245, "district": "Yakutat School District", "city": "Yakutat", "ncessch": "020084000667"}, {"name": "LEAD Correspondence", "lat": 59.546637, "lon": -139.723329, "proficiency": -0.03, "district": "Yakutat School District", "city": "Yakutat", "ncessch": "020084000749"}, {"name": "Jimmy Huntington School", "lat": 65.701887, "lon": -156.389199, "proficiency": -0.03, "district": "Yukon-Koyukuk School District", "city": "Huslia", "ncessch": "020086200380"}, {"name": "Ella B. Vernetti School", "lat": 64.879254, "lon": -157.706007, "proficiency": -0.03, "district": "Yukon-Koyukuk School District", "city": "Koyukuk", "ncessch": "020086200382"}, {"name": "Minto School", "lat": 65.152117, "lon": -149.347787, "proficiency": -0.03, "district": "Yukon-Koyukuk School District", "city": "Minto", "ncessch": "020086200384"}, {"name": "Andrew K. Demoski School", "lat": 64.717856, "lon": -158.108929, "proficiency": -0.03, "district": "Yukon-Koyukuk School District", "city": "Nulato", "ncessch": "020086200385"}, {"name": "Merreline A Kangas School", "lat": 64.741313, "lon": -155.466983, "proficiency": -0.03, "district": "Yukon-Koyukuk School District", "city": "Ruby", "ncessch": "020086200386"}, {"name": "Raven School", "lat": 64.83593, "lon": -147.826946, "proficiency": 0.17, "district": "Yukon-Koyukuk School District", "city": "Fairbanks", "ncessch": "020086200453"}, {"name": "Rampart School", "lat": 65.50336, "lon": -150.171896, "proficiency": -0.03, "district": "Yukon-Koyukuk School District", "city": "Rampart", "ncessch": "020086200757"}], "districts": [{"name": "Lower Kuskokwim School District", "lat": 60.371909217391305, "lon": -162.98875252173914, "proficiency": 0.175, "schoolCount": 23}, {"name": "Lower Yukon School District", "lat": 62.2078102, "lon": -163.9297329, "proficiency": 0.1835, "schoolCount": 10}, {"name": "Yupiit School District", "lat": 60.973249, "lon": -161.21171366666667, "proficiency": 0.245, "schoolCount": 3}, {"name": "Kashunamiut School District", "lat": 61.531048, "lon": -165.585866, "proficiency": 0.1, "schoolCount": 1}, {"name": "Aleutians East Borough School District", "lat": 55.08399633333334, "lon": -162.06333133333334, "proficiency": 0.1533, "schoolCount": 3}, {"name": "Aleutian Region School District", "lat": 51.868164, "lon": -176.640331, "proficiency": -0.03, "schoolCount": 1}, {"name": "Bering Strait School District", "lat": 64.6458114, "lon": -164.95541886666666, "proficiency": 0.1523, "schoolCount": 15}, {"name": "Bristol Bay Borough School District", "lat": 58.733307, "lon": -157.004582, "proficiency": -0.03, "schoolCount": 1}, {"name": "Alaska Gateway School District", "lat": 63.475895, "lon": -142.6547592, "proficiency": 0.025, "schoolCount": 5}, {"name": "Cordova City School District", "lat": 60.540335, "lon": -145.758854, "proficiency": 0.3, "schoolCount": 1}, {"name": "Copper River School District", "lat": 62.16442725, "lon": -145.004829, "proficiency": 0.1212, "schoolCount": 4}, {"name": "Craig City School District", "lat": 55.475526, "lon": -133.1372, "proficiency": 0.2725, "schoolCount": 2}, {"name": "Delta/Greely School District", "lat": 63.982067, "lon": -145.42851166666665, "proficiency": 0.1617, "schoolCount": 3}, {"name": "Dillingham City School District", "lat": 59.042379, "lon": -158.464858, "proficiency": 0.245, "schoolCount": 1}, {"name": "Galena City School District", "lat": 64.7792825, "lon": -152.3234975, "proficiency": 0.145, "schoolCount": 2}, {"name": "Ketchikan Gateway Borough School District", "lat": 55.35013575, "lon": -131.65956875, "proficiency": 0.2462, "schoolCount": 4}, {"name": "Anchorage School District", "lat": 61.18984644444445, "lon": -149.78246759259258, "proficiency": 0.2565, "schoolCount": 27}, {"name": "Juneau Borough School District", "lat": 58.3327136, "lon": -134.47319199999998, "proficiency": 0.385, "schoolCount": 5}, {"name": "Sitka School District", "lat": 57.0547835, "lon": -135.33792499999998, "proficiency": 0.195, "schoolCount": 2}, {"name": "Haines Borough School District", "lat": 59.234574, "lon": -135.453573, "proficiency": 0.495, "schoolCount": 1}, {"name": "Hoonah City School District", "lat": 58.108798, "lon": -135.442182, "proficiency": 0.245, "schoolCount": 1}, {"name": "Hydaburg City School District", "lat": 55.207545, "lon": -132.825933, "proficiency": -0.03, "schoolCount": 1}, {"name": "Kake City School District", "lat": 56.977702, "lon": -133.947065, "proficiency": 0.245, "schoolCount": 1}, {"name": "Kenai Peninsula Borough School District", "lat": 60.155377666666666, "lon": -151.1271021904762, "proficiency": 0.2336, "schoolCount": 21}, {"name": "Klawock City School District", "lat": 55.553553, "lon": -133.099033, "proficiency": 0.245, "schoolCount": 1}, {"name": "Kodiak Island Borough School District", "lat": 57.5321412, "lon": -152.9547232, "proficiency": 0.095, "schoolCount": 5}, {"name": "Lake and Peninsula Borough School District", "lat": 58.72254777777778, "lon": -156.28785933333336, "proficiency": 0.0006, "schoolCount": 9}, {"name": "Matanuska-Susitna Borough School District", "lat": 61.63837938888889, "lon": -149.38013966666665, "proficiency": 0.2728, "schoolCount": 18}, {"name": "Iditarod Area School District", "lat": 62.83020380000001, "lon": -158.2904274, "proficiency": -0.03, "schoolCount": 5}, {"name": "Annette Island School District", "lat": 55.127346, "lon": -131.577255, "proficiency": 0.1, "schoolCount": 1}, {"name": "Nenana City School District", "lat": 64.56178, "lon": -149.087467, "proficiency": 0.2725, "schoolCount": 2}, {"name": "Nome Public Schools", "lat": 64.542453, "lon": -165.40547, "proficiency": 0.2567, "schoolCount": 3}, {"name": "Fairbanks North Star Borough School District", "lat": 64.81828493333333, "lon": -147.60515940000002, "proficiency": 0.2893, "schoolCount": 15}, {"name": "North Slope Borough School District", "lat": 69.874383125, "lon": -156.2862265, "proficiency": 0.1606, "schoolCount": 8}, {"name": "Northwest Arctic Borough School District", "lat": 66.87061975, "lon": -160.82568916666665, "proficiency": 0.1062, "schoolCount": 12}, {"name": "Petersburg Borough School District", "lat": 56.81506, "lon": -132.95583, "proficiency": 0.495, "schoolCount": 1}, {"name": "Pribilof School District", "lat": 57.120896, "lon": -170.279219, "proficiency": -0.03, "schoolCount": 1}, {"name": "Saint Mary's School District", "lat": 62.052226, "lon": -163.180707, "proficiency": 0.1, "schoolCount": 1}, {"name": "Skagway School District", "lat": 59.463181, "lon": -135.307408, "proficiency": 0.245, "schoolCount": 1}, {"name": "Southeast Island School District", "lat": 55.859880125, "lon": -132.675437125, "proficiency": -0.03, "schoolCount": 8}, {"name": "Southwest Region School District", "lat": 59.21748925, "lon": -158.613279, "proficiency": 0.055, "schoolCount": 8}, {"name": "Tanana City School District", "lat": 65.171308, "lon": -152.087844, "proficiency": -0.03, "schoolCount": 1}, {"name": "Unalaska City School District", "lat": 53.872671, "lon": -166.529624, "proficiency": 0.545, "schoolCount": 1}, {"name": "Chatham School District", "lat": 57.958321999999995, "lon": -135.1475415, "proficiency": 0.4975, "schoolCount": 2}, {"name": "Kuspuk School District", "lat": 61.597122999999996, "lon": -159.0796825, "proficiency": 0.1075, "schoolCount": 4}, {"name": "Denali Borough School District", "lat": 64.02964366666667, "lon": -149.07265900000002, "proficiency": 0.22, "schoolCount": 3}, {"name": "Yukon Flats School District", "lat": 66.837112, "lon": -144.999421, "proficiency": 0.025, "schoolCount": 5}, {"name": "Valdez City School District", "lat": 61.135849, "lon": -146.36797, "proficiency": 0.1075, "schoolCount": 2}, {"name": "Chugach School District", "lat": 60.710536000000005, "lon": -148.30716275, "proficiency": 0.0025, "schoolCount": 4}, {"name": "Wrangell Public School District", "lat": 56.47171, "lon": -132.380232, "proficiency": 0.3, "schoolCount": 1}, {"name": "Yakutat School District", "lat": 59.546637, "lon": -139.723329, "proficiency": 0.1075, "schoolCount": 2}, {"name": "Yukon-Koyukuk School District", "lat": 65.07595957142857, "lon": -153.57396385714284, "proficiency": -0.0014, "schoolCount": 7}], "cities": [{"name": "Atmautluak", "lat": 60.857371, "lon": -162.276467, "proficiency": 0.245, "schoolCount": 1}, {"name": "Bethel", "lat": 60.802584, "lon": -161.770398, "proficiency": 0.17, "schoolCount": 1}, {"name": "Chefornak", "lat": 60.157612, "lon": -164.282245, "proficiency": 0.245, "schoolCount": 1}, {"name": "Kipnuk", "lat": 59.936533, "lon": -164.038046, "proficiency": 0.1, "schoolCount": 1}, {"name": "Kongiganak", "lat": 59.959437, "lon": -162.887161, "proficiency": 0.245, "schoolCount": 1}, {"name": "Kwigillingok", "lat": 59.877153, "lon": -163.157701, "proficiency": 0.245, "schoolCount": 1}, {"name": "Toksook Bay", "lat": 60.533031, "lon": -165.109016, "proficiency": 0.245, "schoolCount": 1}, {"name": "Nunapitchuk", "lat": 60.896508, "lon": -162.456382, "proficiency": 0.245, "schoolCount": 1}, {"name": "Platinum", "lat": 59.011976, "lon": -161.817408, "proficiency": -0.03, "schoolCount": 1}, {"name": "Tununak", "lat": 60.586072, "lon": -165.251625, "proficiency": 0.245, "schoolCount": 1}, {"name": "Kasigluk", "lat": 60.883742, "lon": -162.517699, "proficiency": 0.1075, "schoolCount": 2}, {"name": "Eek", "lat": 60.215856, "lon": -162.025873, "proficiency": 0.245, "schoolCount": 1}, {"name": "Tuntutuliak", "lat": 60.342864, "lon": -162.676324, "proficiency": 0.245, "schoolCount": 1}, {"name": "Mekoryuk", "lat": 60.386521, "lon": -166.189218, "proficiency": -0.03, "schoolCount": 1}, {"name": "Napakiak", "lat": 60.694191, "lon": -161.97091, "proficiency": 0.245, "schoolCount": 1}, {"name": "Kwethluk", "lat": 60.810742, "lon": -161.423994, "proficiency": 0.1, "schoolCount": 1}, {"name": "Napaskiak", "lat": 60.7152605, "lon": -161.7659035, "proficiency": 0.1075, "schoolCount": 2}, {"name": "Newtok", "lat": 60.936833, "lon": -164.629312, "proficiency": 0.245, "schoolCount": 1}, {"name": "Quinhagak", "lat": 59.751599, "lon": -161.897479, "proficiency": 0.1, "schoolCount": 1}, {"name": "Nightmute", "lat": 60.476896, "lon": -164.722417, "proficiency": 0.245, "schoolCount": 1}, {"name": "Goodnews Bay", "lat": 59.122128, "lon": -161.592127, "proficiency": 0.245, "schoolCount": 1}, {"name": "Alakanuk", "lat": 62.684937, "lon": -164.669268, "proficiency": 0.245, "schoolCount": 1}, {"name": "Emmonak", "lat": 62.778473, "lon": -164.528906, "proficiency": 0.245, "schoolCount": 1}, {"name": "Marshall", "lat": 61.879179, "lon": -162.087128, "proficiency": 0.245, "schoolCount": 1}, {"name": "Hooper Bay", "lat": 61.521812, "lon": -166.096304, "proficiency": 0.05, "schoolCount": 1}, {"name": "Mountain Village", "lat": 62.089064, "lon": -163.728135, "proficiency": 0.1, "schoolCount": 1}, {"name": "Russian Mission", "lat": 61.786345, "lon": -161.325695, "proficiency": 0.245, "schoolCount": 1}, {"name": "Pilot Station", "lat": 61.93608, "lon": -162.892124, "proficiency": 0.245, "schoolCount": 1}, {"name": "Kotlik", "lat": 63.031678, "lon": -163.554855, "proficiency": 0.245, "schoolCount": 1}, {"name": "Scammon Bay", "lat": 61.838761, "lon": -165.566778, "proficiency": 0.245, "schoolCount": 1}, {"name": "Nunam Iqua", "lat": 62.531773, "lon": -164.848136, "proficiency": -0.03, "schoolCount": 1}, {"name": "Akiachak", "lat": 60.913883, "lon": -161.448992, "proficiency": 0.245, "schoolCount": 1}, {"name": "Tuluksak", "lat": 61.098677, "lon": -160.956438, "proficiency": 0.245, "schoolCount": 1}, {"name": "Akiak", "lat": 60.907187, "lon": -161.229711, "proficiency": 0.245, "schoolCount": 1}, {"name": "Chevak", "lat": 61.531048, "lon": -165.585866, "proficiency": 0.1, "schoolCount": 1}, {"name": "False Pass", "lat": 54.853163, "lon": -163.418383, "proficiency": -0.03, "schoolCount": 1}, {"name": "King Cove", "lat": 55.04728, "lon": -162.29577, "proficiency": 0.245, "schoolCount": 1}, {"name": "Sand Point", "lat": 55.351546, "lon": -160.475841, "proficiency": 0.245, "schoolCount": 1}, {"name": "Adak", "lat": 51.868164, "lon": -176.640331, "proficiency": -0.03, "schoolCount": 1}, {"name": "Gambell", "lat": 63.776842, "lon": -171.715402, "proficiency": 0.1, "schoolCount": 1}, {"name": "Koyuk", "lat": 64.932066, "lon": -161.15727, "proficiency": 0.245, "schoolCount": 1}, {"name": "Savoonga", "lat": 63.692377, "lon": -170.491327, "proficiency": 0.245, "schoolCount": 1}, {"name": "Shishmaref", "lat": 66.255768, "lon": -166.072675, "proficiency": 0.245, "schoolCount": 1}, {"name": "Teller", "lat": 65.263624, "lon": -166.366659, "proficiency": 0.245, "schoolCount": 1}, {"name": "Unalakleet", "lat": 63.87652, "lon": -160.795158, "proficiency": 0.245, "schoolCount": 1}, {"name": "Wales", "lat": 65.605098, "lon": -168.085971, "proficiency": -0.03, "schoolCount": 1}, {"name": "White Mountain", "lat": 64.678363, "lon": -163.396679, "proficiency": -0.03, "schoolCount": 1}, {"name": "Elim", "lat": 64.615987, "lon": -162.264729, "proficiency": 0.245, "schoolCount": 1}, {"name": "Golovin", "lat": 64.542917, "lon": -163.03506, "proficiency": -0.03, "schoolCount": 1}, {"name": "Brevig Mission", "lat": 65.333225, "lon": -166.487804, "proficiency": 0.245, "schoolCount": 1}, {"name": "Shaktoolik", "lat": 64.353789, "lon": -161.194283, "proficiency": 0.245, "schoolCount": 1}, {"name": "St. Michael", "lat": 63.482262, "lon": -162.02919, "proficiency": 0.245, "schoolCount": 1}, {"name": "Stebbins", "lat": 63.519426, "lon": -162.287615, "proficiency": 0.1, "schoolCount": 1}, {"name": "Diomede", "lat": 65.758907, "lon": -168.951461, "proficiency": -0.03, "schoolCount": 1}, {"name": "Naknek", "lat": 58.733307, "lon": -157.004582, "proficiency": -0.03, "schoolCount": 1}, {"name": "Eagle", "lat": 64.784368, "lon": -141.206094, "proficiency": -0.03, "schoolCount": 1}, {"name": "Mentasta Lake", "lat": 62.929428, "lon": -143.797882, "proficiency": -0.03, "schoolCount": 1}, {"name": "Northway", "lat": 62.961784, "lon": -141.934161, "proficiency": -0.03, "schoolCount": 1}, {"name": "Tok", "lat": 63.327597, "lon": -142.979692, "proficiency": 0.245, "schoolCount": 1}, {"name": "Tanacross", "lat": 63.376298, "lon": -143.355967, "proficiency": -0.03, "schoolCount": 1}, {"name": "Cordova", "lat": 60.540335, "lon": -145.758854, "proficiency": 0.3, "schoolCount": 1}, {"name": "Copper Center", "lat": 61.726731, "lon": -145.008097, "proficiency": -0.03, "schoolCount": 1}, {"name": "Glennallen", "lat": 62.11293, "lon": -145.526532, "proficiency": 0.2725, "schoolCount": 2}, {"name": "Slana", "lat": 62.705118, "lon": -143.958155, "proficiency": -0.03, "schoolCount": 1}, {"name": "Craig", "lat": 55.47775266666667, "lon": -132.97478766666669, "proficiency": 0.1717, "schoolCount": 3}, {"name": "Delta Junction", "lat": 63.982067, "lon": -145.42851166666665, "proficiency": 0.1617, "schoolCount": 3}, {"name": "Dillingham", "lat": 59.042379, "lon": -158.464858, "proficiency": 0.245, "schoolCount": 1}, {"name": "Fairbanks", "lat": 64.83835492857143, "lon": -147.70772549999998, "proficiency": 0.28, "schoolCount": 14}, {"name": "Galena", "lat": 64.746135, "lon": -156.878509, "proficiency": -0.03, "schoolCount": 1}, {"name": "Ketchikan", "lat": 55.3878886, "lon": -131.8077338, "proficiency": 0.191, "schoolCount": 5}, {"name": "Anchorage", "lat": 61.1823868, "lon": -149.83497528, "proficiency": 0.2336, "schoolCount": 25}, {"name": "Girdwood", "lat": 60.968693, "lon": -149.127653, "proficiency": 0.245, "schoolCount": 1}, {"name": "Chugiak", "lat": 61.427207, "lon": -149.424613, "proficiency": 0.42, "schoolCount": 1}, {"name": "Eagle River", "lat": 61.306684, "lon": -149.548209, "proficiency": 0.52, "schoolCount": 1}, {"name": "Juneau", "lat": 58.3327136, "lon": -134.47319199999998, "proficiency": 0.385, "schoolCount": 5}, {"name": "Sitka", "lat": 57.0547835, "lon": -135.33792499999998, "proficiency": 0.195, "schoolCount": 2}, {"name": "Haines", "lat": 59.234574, "lon": -135.453573, "proficiency": 0.495, "schoolCount": 1}, {"name": "Hoonah", "lat": 58.108798, "lon": -135.442182, "proficiency": 0.245, "schoolCount": 1}, {"name": "Hydaburg", "lat": 55.207545, "lon": -132.825933, "proficiency": -0.03, "schoolCount": 1}, {"name": "Kake", "lat": 56.977702, "lon": -133.947065, "proficiency": 0.245, "schoolCount": 1}, {"name": "Anchor Point", "lat": 59.77662, "lon": -151.83394, "proficiency": 0.75, "schoolCount": 1}, {"name": "Tyonek", "lat": 61.068196, "lon": -151.143478, "proficiency": -0.03, "schoolCount": 1}, {"name": "Cooper Landing", "lat": 60.494995, "lon": -149.806138, "proficiency": -0.03, "schoolCount": 1}, {"name": "Nanwalek", "lat": 59.354476, "lon": -151.920352, "proficiency": 0.245, "schoolCount": 1}, {"name": "Hope", "lat": 60.917853, "lon": -149.622011, "proficiency": -0.03, "schoolCount": 1}, {"name": "Nikolaevsk", "lat": 59.811384, "lon": -151.612927, "proficiency": 0.245, "schoolCount": 1}, {"name": "Ninilchik", "lat": 60.043358, "lon": -151.675207, "proficiency": 0.245, "schoolCount": 1}, {"name": "Port Graham", "lat": 59.351643, "lon": -151.83221, "proficiency": -0.03, "schoolCount": 1}, {"name": "Seldovia", "lat": 59.442217, "lon": -151.713651, "proficiency": -0.03, "schoolCount": 1}, {"name": "Kenai", "lat": 60.561251666666664, "lon": -151.23113466666666, "proficiency": 0.3967, "schoolCount": 3}, {"name": "Soldotna", "lat": 60.46910166666667, "lon": -151.089864, "proficiency": 0.3033, "schoolCount": 3}, {"name": "Seward", "lat": 60.131859, "lon": -149.441788, "proficiency": 0.245, "schoolCount": 1}, {"name": "Homer", "lat": 59.727954, "lon": -151.3188935, "proficiency": 0.3825, "schoolCount": 2}, {"name": "Voznesenka", "lat": 59.794278, "lon": -151.096546, "proficiency": 0.245, "schoolCount": 1}, {"name": "Nikiski", "lat": 60.734351, "lon": -151.296147, "proficiency": 0.245, "schoolCount": 1}, {"name": "Fritz Creek", "lat": 59.794733, "lon": -151.073968, "proficiency": -0.03, "schoolCount": 1}, {"name": "Klawock", "lat": 55.553553, "lon": -133.099033, "proficiency": 0.245, "schoolCount": 1}, {"name": "Akhiok", "lat": 56.946831, "lon": -154.17326, "proficiency": -0.03, "schoolCount": 1}, {"name": "Kodiak", "lat": 57.793889, "lon": -152.3933615, "proficiency": 0.2825, "schoolCount": 2}, {"name": "Old Harbor", "lat": 57.203488, "lon": -153.306139, "proficiency": -0.03, "schoolCount": 1}, {"name": "Ouzinkie", "lat": 57.922609, "lon": -152.507494, "proficiency": -0.03, "schoolCount": 1}, {"name": "Chignik Lake", "lat": 56.253616, "lon": -158.764525, "proficiency": -0.03, "schoolCount": 1}, {"name": "Igiugig", "lat": 59.325284, "lon": -155.903355, "proficiency": -0.03, "schoolCount": 1}, {"name": "Kokhanok", "lat": 59.439978, "lon": -154.749078, "proficiency": -0.03, "schoolCount": 1}, {"name": "Iliamna", "lat": 59.71998, "lon": -154.896197, "proficiency": 0.245, "schoolCount": 1}, {"name": "Nondalton", "lat": 59.966913, "lon": -154.85703, "proficiency": -0.03, "schoolCount": 1}, {"name": "Pilot Point", "lat": 57.564173, "lon": -157.573428, "proficiency": -0.03, "schoolCount": 1}, {"name": "Port Alsworth", "lat": 60.196154, "lon": -154.328261, "proficiency": -0.03, "schoolCount": 1}, {"name": "Port Heiden", "lat": 56.924032, "lon": -158.661435, "proficiency": -0.03, "schoolCount": 1}, {"name": "Levelock", "lat": 59.1128, "lon": -156.857425, "proficiency": -0.03, "schoolCount": 1}, {"name": "Wasilla", "lat": 61.58680977777778, "lon": -149.48445188888888, "proficiency": 0.3333, "schoolCount": 9}, {"name": "Sutton", "lat": 61.793616, "lon": -147.725751, "proficiency": -0.03, "schoolCount": 1}, {"name": "Talkeetna", "lat": 62.131208, "lon": -150.043869, "proficiency": 0.495, "schoolCount": 1}, {"name": "Palmer", "lat": 61.59870479999999, "lon": -149.16029220000001, "proficiency": 0.261, "schoolCount": 5}, {"name": "Big Lake", "lat": 61.586852, "lon": -149.772397, "proficiency": 0.17, "schoolCount": 1}, {"name": "Willow", "lat": 61.704341, "lon": -150.138969, "proficiency": -0.03, "schoolCount": 1}, {"name": "Anvik", "lat": 62.649062, "lon": -160.194676, "proficiency": -0.03, "schoolCount": 1}, {"name": "Grayling", "lat": 62.905677, "lon": -160.06631, "proficiency": -0.03, "schoolCount": 1}, {"name": "McGrath", "lat": 62.95352, "lon": -155.59635, "proficiency": -0.03, "schoolCount": 1}, {"name": "Shageluk", "lat": 62.654774, "lon": -159.532853, "proficiency": -0.03, "schoolCount": 1}, {"name": "Takotna", "lat": 62.987986, "lon": -156.061948, "proficiency": -0.03, "schoolCount": 1}, {"name": "Metlakatla", "lat": 55.127346, "lon": -131.577255, "proficiency": 0.1, "schoolCount": 1}, {"name": "Nenana", "lat": 64.56178, "lon": -149.087467, "proficiency": 0.2725, "schoolCount": 2}, {"name": "Nome", "lat": 64.542453, "lon": -165.40547, "proficiency": 0.2567, "schoolCount": 3}, {"name": "Eielson AFB", "lat": 64.674796, "lon": -147.074375, "proficiency": 0.345, "schoolCount": 1}, {"name": "Utqiagvik", "lat": 68.03122, "lon": -152.04574350000001, "proficiency": 0.1825, "schoolCount": 2}, {"name": "North Pole", "lat": 64.746907, "lon": -147.342566, "proficiency": 0.32, "schoolCount": 1}, {"name": "Anaktuvuk Pass", "lat": 68.139781, "lon": -151.738503, "proficiency": 0.245, "schoolCount": 1}, {"name": "Atqasuk", "lat": 70.481084, "lon": -157.418635, "proficiency": 0.245, "schoolCount": 1}, {"name": "Kaktovik", "lat": 70.127419, "lon": -143.616203, "proficiency": -0.03, "schoolCount": 1}, {"name": "Nuiqsut", "lat": 70.219741, "lon": -150.993417, "proficiency": 0.245, "schoolCount": 1}, {"name": "Point Hope", "lat": 68.349569, "lon": -166.736003, "proficiency": 0.245, "schoolCount": 1}, {"name": "Point Lay", "lat": 69.743012, "lon": -163.00938, "proficiency": -0.03, "schoolCount": 1}, {"name": "Wainwright", "lat": 70.635981, "lon": -160.033909, "proficiency": 0.245, "schoolCount": 1}, {"name": "Ambler", "lat": 67.085664, "lon": -157.859775, "proficiency": -0.03, "schoolCount": 1}, {"name": "Buckland", "lat": 65.977963, "lon": -161.124947, "proficiency": 0.245, "schoolCount": 1}, {"name": "Deering", "lat": 66.074834, "lon": -162.719686, "proficiency": -0.03, "schoolCount": 1}, {"name": "Kiana", "lat": 66.971608, "lon": -160.437426, "proficiency": 0.245, "schoolCount": 1}, {"name": "Kobuk", "lat": 66.908064, "lon": -156.881928, "proficiency": -0.03, "schoolCount": 1}, {"name": "Kivalina", "lat": 67.725739, "lon": -164.53502, "proficiency": 0.245, "schoolCount": 1}, {"name": "Noatak", "lat": 67.57182, "lon": -162.987837, "proficiency": 0.1, "schoolCount": 1}, {"name": "Noorvik", "lat": 66.833137, "lon": -161.043714, "proficiency": 0.1, "schoolCount": 1}, {"name": "Shungnak", "lat": 66.88957, "lon": -157.136697, "proficiency": -0.03, "schoolCount": 1}, {"name": "Selawik", "lat": 66.604624, "lon": -160.01188, "proficiency": 0.245, "schoolCount": 1}, {"name": "Kotzebue", "lat": 66.902207, "lon": -162.58468, "proficiency": 0.1075, "schoolCount": 2}, {"name": "Petersburg", "lat": 56.81506, "lon": -132.95583, "proficiency": 0.495, "schoolCount": 1}, {"name": "St. Paul", "lat": 57.120896, "lon": -170.279219, "proficiency": -0.03, "schoolCount": 1}, {"name": "Saint Mary's", "lat": 62.052226, "lon": -163.180707, "proficiency": 0.1, "schoolCount": 1}, {"name": "Skagway", "lat": 59.463181, "lon": -135.307408, "proficiency": 0.245, "schoolCount": 1}, {"name": "Coffman Cove", "lat": 56.015004, "lon": -132.828532, "proficiency": -0.03, "schoolCount": 1}, {"name": "Port Alexander", "lat": 56.249547, "lon": -134.646916, "proficiency": -0.03, "schoolCount": 1}, {"name": "Thorne Bay", "lat": 55.689263, "lon": -132.524451, "proficiency": -0.03, "schoolCount": 1}, {"name": "Fort Yukon", "lat": 61.241240000000005, "lon": -137.6405945, "proficiency": 0.1075, "schoolCount": 2}, {"name": "Whale Pass", "lat": 56.117096, "lon": -133.121861, "proficiency": -0.03, "schoolCount": 1}, {"name": "Naukati", "lat": 55.869043, "lon": -133.202839, "proficiency": -0.03, "schoolCount": 1}, {"name": "Aleknagik", "lat": 59.281235, "lon": -158.626406, "proficiency": -0.03, "schoolCount": 1}, {"name": "Clarks Point", "lat": 58.835283, "lon": -158.544016, "proficiency": -0.03, "schoolCount": 1}, {"name": "Koliganek", "lat": 59.726411, "lon": -157.285912, "proficiency": -0.03, "schoolCount": 1}, {"name": "Manokotak", "lat": 58.965845, "lon": -158.955297, "proficiency": 0.245, "schoolCount": 1}, {"name": "New Stuyahok", "lat": 59.450367, "lon": -157.311933, "proficiency": 0.245, "schoolCount": 1}, {"name": "Togiak", "lat": 59.055898, "lon": -160.425249, "proficiency": 0.1, "schoolCount": 1}, {"name": "Ekwok", "lat": 59.349757, "lon": -157.476732, "proficiency": -0.03, "schoolCount": 1}, {"name": "Twin Hills", "lat": 59.075118, "lon": -160.280687, "proficiency": -0.03, "schoolCount": 1}, {"name": "Tanana", "lat": 65.171308, "lon": -152.087844, "proficiency": -0.03, "schoolCount": 1}, {"name": "Unalaska", "lat": 53.872671, "lon": -166.529624, "proficiency": 0.545, "schoolCount": 1}, {"name": "Angoon", "lat": 57.497734, "lon": -134.584631, "proficiency": 0.245, "schoolCount": 1}, {"name": "Gustavus", "lat": 58.41891, "lon": -135.710452, "proficiency": 0.75, "schoolCount": 1}, {"name": "Chuathbaluk", "lat": 61.573296, "lon": -159.249298, "proficiency": -0.03, "schoolCount": 1}, {"name": "Sleetmute", "lat": 61.70259, "lon": -157.170756, "proficiency": -0.03, "schoolCount": 1}, {"name": "Aniak", "lat": 61.580187, "lon": -159.551624, "proficiency": 0.245, "schoolCount": 1}, {"name": "Kalskag", "lat": 61.532419, "lon": -160.347052, "proficiency": 0.245, "schoolCount": 1}, {"name": "Anderson", "lat": 64.343044, "lon": -149.188463, "proficiency": -0.03, "schoolCount": 1}, {"name": "Healy", "lat": 63.872943500000005, "lon": -149.01475699999997, "proficiency": 0.345, "schoolCount": 2}, {"name": "Arctic Village", "lat": 68.128484, "lon": -145.535471, "proficiency": -0.03, "schoolCount": 1}, {"name": "Chalkyitsik", "lat": 66.650379, "lon": -143.727861, "proficiency": -0.03, "schoolCount": 1}, {"name": "Circle", "lat": 65.826664, "lon": -144.066809, "proficiency": -0.03, "schoolCount": 1}, {"name": "Venetie", "lat": 67.015535, "lon": -146.414316, "proficiency": -0.03, "schoolCount": 1}, {"name": "Valdez", "lat": 61.135849, "lon": -146.36797, "proficiency": 0.1075, "schoolCount": 2}, {"name": "Tatitlek", "lat": 60.868481, "lon": -146.681802, "proficiency": -0.03, "schoolCount": 1}, {"name": "Whittier", "lat": 60.771631, "lon": -148.68622, "proficiency": -0.03, "schoolCount": 1}, {"name": "Chenega Bay", "lat": 60.065632, "lon": -148.012397, "proficiency": -0.03, "schoolCount": 1}, {"name": "Wrangell", "lat": 56.47171, "lon": -132.380232, "proficiency": 0.3, "schoolCount": 1}, {"name": "Yakutat", "lat": 59.546637, "lon": -139.723329, "proficiency": 0.1075, "schoolCount": 2}, {"name": "Huslia", "lat": 65.701887, "lon": -156.389199, "proficiency": -0.03, "schoolCount": 1}, {"name": "Koyukuk", "lat": 64.879254, "lon": -157.706007, "proficiency": -0.03, "schoolCount": 1}, {"name": "Minto", "lat": 65.152117, "lon": -149.347787, "proficiency": -0.03, "schoolCount": 1}, {"name": "Nulato", "lat": 64.717856, "lon": -158.108929, "proficiency": -0.03, "schoolCount": 1}, {"name": "Ruby", "lat": 64.741313, "lon": -155.466983, "proficiency": -0.03, "schoolCount": 1}, {"name": "Rampart", "lat": 65.50336, "lon": -150.171896, "proficiency": -0.03, "schoolCount": 1}]}