{"state": "AL", "stateName": "Alabama", "year": 2018, "naep": {"text": "8 out of 10", "numerator": 8, "denominator": 10}, "schools": [{"name": "Albertville Middle School", "lat": 34.2602, "lon": -86.2062, "proficiency": 0.5, "district": "Albertville City", "city": "Albertville", "ncessch": "010000500870"}, {"name": "Kate Duncan Smith DAR Middle", "lat": 34.53375, "lon": -86.254153, "proficiency": 0.42, "district": "Marshall County", "city": "Grant", "ncessch": "010000600193"}, {"name": "Asbury High School", "lat": 34.3625, "lon": -86.142, "proficiency": 0.32, "district": "Marshall County", "city": "Albertville", "ncessch": "010000600872"}, {"name": "Brindlee Mountain High School", "lat": 34.3764, "lon": -86.4219, "proficiency": 0.22, "district": "Marshall County", "city": "Guntersville", "ncessch": "010000601585"}, {"name": "Douglas Middle School", "lat": 34.177536, "lon": -86.320895, "proficiency": 0.42, "district": "Marshall County", "city": "Douglas", "ncessch": "010000601812"}, {"name": "Berry Middle School", "lat": 33.3956, "lon": -86.7322, "proficiency": 0.7, "district": "Hoover City", "city": "Hoover", "ncessch": "010000700337"}, {"name": "Robert F Bumpus Middle School", "lat": 33.330923, "lon": -86.854796, "proficiency": 0.8, "district": "Hoover City", "city": "Hoover", "ncessch": "010000701422"}, {"name": "Ira F Simmons Middle School", "lat": 33.3879, "lon": -86.8337, "proficiency": 0.69, "district": "Hoover City", "city": "Hoover", "ncessch": "010000701741"}, {"name": "Discovery Middle School", "lat": 34.7408, "lon": -86.7427, "proficiency": 0.75, "district": "Madison City", "city": "Madison", "ncessch": "010000800495"}, {"name": "Liberty Middle School", "lat": 34.7337, "lon": -86.7792, "proficiency": 0.74, "district": "Madison City", "city": "Madison", "ncessch": "010000801798"}, {"name": "Leeds Middle School", "lat": 33.54936, "lon": -86.536894, "proficiency": 0.57, "district": "Leeds City", "city": "Leeds", "ncessch": "010001102095"}, {"name": "Boaz Middle School", "lat": 34.213512, "lon": -86.161369, "proficiency": 0.37, "district": "Boaz City", "city": "Boaz", "ncessch": "010001200123"}, {"name": "HewittTrussville Middle School", "lat": 33.655829, "lon": -86.593651, "proficiency": 0.7, "district": "Trussville City", "city": "Trussville", "ncessch": "010001300714"}, {"name": "Alexander City Middle School", "lat": 32.9451, "lon": -85.9488, "proficiency": 0.47, "district": "Alexander City", "city": "Alexander City", "ncessch": "010003000001"}, {"name": "Andalusia Junior High", "lat": 31.314977, "lon": -86.470935, "proficiency": 0.52, "district": "Andalusia City", "city": "Andalusia", "ncessch": "010006000008"}, {"name": "Anniston Middle School", "lat": 33.708165, "lon": -85.822863, "proficiency": 0.22, "district": "Anniston City", "city": "Anniston", "ncessch": "010009001725"}, {"name": "Arab Junior High School", "lat": 34.3124, "lon": -86.5105, "proficiency": 0.72, "district": "Arab City", "city": "Arab", "ncessch": "010010000027"}, {"name": "Athens Middle School", "lat": 34.803346, "lon": -86.949838, "proficiency": 0.52, "district": "Athens City", "city": "Athens", "ncessch": "010012001473"}, {"name": "Athens Renaissance School", "lat": 34.800179, "lon": -86.964919, "proficiency": 0.445, "district": "Athens City", "city": "Athens", "ncessch": "010012002417"}, {"name": "Etowah Middle School", "lat": 33.995704, "lon": -86.112782, "proficiency": 0.42, "district": "Attalla City", "city": "Attalla", "ncessch": "010018000034"}, {"name": "Saraland Middle SchoolAdams Campus", "lat": 30.8313, "lon": -88.065367, "proficiency": 0.72, "district": "Saraland City", "city": "Saraland", "ncessch": "010018500893"}, {"name": "Chickasaw Middle School", "lat": 30.757103, "lon": -88.078474, "proficiency": 0.12, "district": "Chickasaw City", "city": "Chickasaw", "ncessch": "010018802428"}, {"name": "Satsuma High School", "lat": 30.8471, "lon": -88.0569, "proficiency": 0.47, "district": "Satsuma City", "city": "Satsuma", "ncessch": "010018902195"}, {"name": "Thompson Middle School", "lat": 33.220563, "lon": -86.833045, "proficiency": 0.63, "district": "Alabaster City", "city": "Alabaster", "ncessch": "010019001184"}, {"name": "Pelham Park Middle School", "lat": 33.30662, "lon": -86.808097, "proficiency": 0.47, "district": "Pelham City", "city": "Pelham", "ncessch": "010019402398"}, {"name": "Pike Road High School", "lat": 32.355003, "lon": -86.102682, "proficiency": 0.42, "district": "Pike Road City", "city": "Pike Road", "ncessch": "010019502441"}, {"name": "University Charter School  Elementary", "lat": 32.586288, "lon": -88.189067, "proficiency": 0.75, "district": "University Charter School", "city": "Livingston", "ncessch": "010019902452"}, {"name": "Auburn Junior High School", "lat": 32.596469, "lon": -85.463119, "proficiency": 0.74, "district": "Auburn City", "city": "Auburn", "ncessch": "010021000037"}, {"name": "Billingsley High School", "lat": 32.663571, "lon": -86.700747, "proficiency": 0.345, "district": "Autauga County", "city": "Billingsley", "ncessch": "010024000045"}, {"name": "Prattville Junior High School", "lat": 32.4849, "lon": -86.4706, "proficiency": 0.71, "district": "Autauga County", "city": "Prattville", "ncessch": "010024000049"}, {"name": "Autaugaville School", "lat": 32.433931, "lon": -86.659977, "proficiency": 0.1, "district": "Autauga County", "city": "Autaugaville", "ncessch": "010024001408"}, {"name": "Marbury Middle School", "lat": 32.700293, "lon": -86.474055, "proficiency": 0.42, "district": "Autauga County", "city": "Marbury", "ncessch": "010024002159"}, {"name": "Daphne Middle School", "lat": 30.6173, "lon": -87.8701, "proficiency": 0.66, "district": "Baldwin County", "city": "Daphne", "ncessch": "010027000013"}, {"name": "Elberta High School", "lat": 30.4198, "lon": -87.5998, "proficiency": 0.52, "district": "Baldwin County", "city": "Elberta", "ncessch": "010027000057"}, {"name": "Fairhope Middle School", "lat": 30.495443, "lon": -87.881755, "proficiency": 0.75, "district": "Baldwin County", "city": "Fairhope", "ncessch": "010027000059"}, {"name": "Foley Middle School", "lat": 30.407235, "lon": -87.688472, "proficiency": 0.42, "district": "Baldwin County", "city": "Foley", "ncessch": "010027000060"}, {"name": "Perdido Elementary School", "lat": 31.00521, "lon": -87.622619, "proficiency": 0.545, "district": "Baldwin County", "city": "Perdido", "ncessch": "010027000062"}, {"name": "Summerdale School", "lat": 30.488992, "lon": -87.695046, "proficiency": 0.545, "district": "Baldwin County", "city": "Summerdale", "ncessch": "010027000069"}, {"name": "Central Baldwin Middle School", "lat": 30.582716, "lon": -87.727747, "proficiency": 0.46, "district": "Baldwin County", "city": "Robertsdale", "ncessch": "010027000162"}, {"name": "Bay Minette Middle School", "lat": 30.8938, "lon": -87.7807, "proficiency": 0.37, "district": "Baldwin County", "city": "Bay Minette", "ncessch": "010027001859"}, {"name": "Spanish Fort Middle School", "lat": 30.71514, "lon": -87.853961, "proficiency": 0.69, "district": "Baldwin County", "city": "Spanish Fort", "ncessch": "010027001888"}, {"name": "Baldwin County Virtual School", "lat": 30.584455, "lon": -87.899726, "proficiency": 0.645, "district": "Baldwin County", "city": "Daphne", "ncessch": "010027002443"}, {"name": "Barbour County High School", "lat": 31.868278, "lon": -85.44613, "proficiency": 0.05, "district": "Barbour County", "city": "Clayton", "ncessch": "010030000074"}, {"name": "Bessemer City Middle School", "lat": 33.368618, "lon": -86.985203, "proficiency": 0.17, "district": "Bessemer City", "city": "Bessemer", "ncessch": "010033000086"}, {"name": "Centreville Middle School", "lat": 32.943214, "lon": -87.115079, "proficiency": 0.37, "district": "Bibb County", "city": "Centreville", "ncessch": "010036000094"}, {"name": "West Blocton Middle School", "lat": 33.1127, "lon": -87.1313, "proficiency": 0.37, "district": "Bibb County", "city": "West Blocton", "ncessch": "010036001426"}, {"name": "Christian School", "lat": 33.5805, "lon": -86.6903, "proficiency": 0.72, "district": "Birmingham City", "city": "Birmingham", "ncessch": "010039000113"}, {"name": "Green Acres Middle School", "lat": 33.4707, "lon": -86.8971, "proficiency": 0.075, "district": "Birmingham City", "city": "Birmingham", "ncessch": "010039000133"}, {"name": "Hudson KEight School", "lat": 33.556521, "lon": -86.805707, "proficiency": 0.17, "district": "Birmingham City", "city": "Birmingham", "ncessch": "010039000139"}, {"name": "Huffman Middle School", "lat": 33.595, "lon": -86.6928, "proficiency": 0.12, "district": "Birmingham City", "city": "Birmingham", "ncessch": "010039000140"}, {"name": "Inglenook School", "lat": 33.5639, "lon": -86.780651, "proficiency": 0.15, "district": "Birmingham City", "city": "Birmingham", "ncessch": "010039000142"}, {"name": "WE Putnam Middle SchoolMagnet", "lat": 33.528, "lon": -86.7141, "proficiency": 0.17, "district": "Birmingham City", "city": "Irondale", "ncessch": "010039000175"}, {"name": "Smith Middle School", "lat": 33.6104, "lon": -86.701, "proficiency": 0.025, "district": "Birmingham City", "city": "Birmingham", "ncessch": "010039000184"}, {"name": "Washington K8", "lat": 33.496044, "lon": -86.828323, "proficiency": 0.15, "district": "Birmingham City", "city": "Birmingham", "ncessch": "010039000190"}, {"name": "Jones Valley Middle School", "lat": 33.464299, "lon": -86.881987, "proficiency": 0.025, "district": "Birmingham City", "city": "Birmingham", "ncessch": "010039000191"}, {"name": "Wilkerson Middle School", "lat": 33.5231, "lon": -86.8387, "proficiency": 0.22, "district": "Birmingham City", "city": "Birmingham", "ncessch": "010039000196"}, {"name": "Wylam Elementary School", "lat": 33.504843, "lon": -86.916764, "proficiency": 0.05, "district": "Birmingham City", "city": "Birmingham", "ncessch": "010039000201"}, {"name": "South Hampton K8", "lat": 33.5427, "lon": -86.8924, "proficiency": 0.05, "district": "Birmingham City", "city": "Birmingham", "ncessch": "010039001421"}, {"name": "Ossie Ware Mitchell Middle School", "lat": 33.5658, "lon": -86.7173, "proficiency": 0.12, "district": "Birmingham City", "city": "Birmingham", "ncessch": "010039001823"}, {"name": "Phillips Academy", "lat": 33.5232, "lon": -86.8051, "proficiency": 0.57, "district": "Birmingham City", "city": "Birmingham", "ncessch": "010039001878"}, {"name": "Bush Hills STEAM Academy", "lat": 33.516, "lon": -86.8649, "proficiency": 0.075, "district": "Birmingham City", "city": "Birmingham", "ncessch": "010039002204"}, {"name": "Hayes K8", "lat": 33.532064, "lon": -86.771079, "proficiency": 0.025, "district": "Birmingham City", "city": "Birmingham", "ncessch": "010039002206"}, {"name": "Appalachian  School", "lat": 33.8879, "lon": -86.3971, "proficiency": 0.245, "district": "Blount County", "city": "Oneonta", "ncessch": "010042000203"}, {"name": "Cleveland High School", "lat": 33.9932, "lon": -86.5736, "proficiency": 0.32, "district": "Blount County", "city": "Cleveland", "ncessch": "010042000206"}, {"name": "Hayden High School", "lat": 33.8869, "lon": -86.7681, "proficiency": 0.52, "district": "Blount County", "city": "Hayden", "ncessch": "010042000208"}, {"name": "JB Pennington High School", "lat": 34.0858, "lon": -86.5888, "proficiency": 0.32, "district": "Blount County", "city": "Blountsville", "ncessch": "010042000209"}, {"name": "Locust Fork High School", "lat": 33.9084, "lon": -86.6179, "proficiency": 0.42, "district": "Blount County", "city": "Locust Fork", "ncessch": "010042000210"}, {"name": "Southeastern School", "lat": 33.830801, "lon": -86.58307, "proficiency": 0.52, "district": "Blount County", "city": "Remlap", "ncessch": "010042000211"}, {"name": "Susan Moore High School", "lat": 34.0828, "lon": -86.4303, "proficiency": 0.12, "district": "Blount County", "city": "Blountsville", "ncessch": "010042000213"}, {"name": "Brewton Middle School", "lat": 31.154287, "lon": -87.058574, "proficiency": 0.72, "district": "Brewton City", "city": "Brewton", "ncessch": "010045000215"}, {"name": "South Highlands Middle School", "lat": 32.132765, "lon": -85.720119, "proficiency": 0.12, "district": "Bullock County", "city": "Union Springs", "ncessch": "010048000221"}, {"name": "Greenville Middle School", "lat": 31.8381, "lon": -86.6253, "proficiency": 0.17, "district": "Butler County", "city": "Greenville", "ncessch": "010051000228"}, {"name": "McKenzie High School", "lat": 31.545343, "lon": -86.715153, "proficiency": 0.3, "district": "Butler County", "city": "McKenzie", "ncessch": "010051000229"}, {"name": "Georgiana School", "lat": 31.628096, "lon": -86.728948, "proficiency": 0.3, "district": "Butler County", "city": "Georgiana", "ncessch": "010051002144"}, {"name": "Ohatchee High School", "lat": 33.786, "lon": -86.0014, "proficiency": 0.42, "district": "Calhoun County", "city": "Ohatchee", "ncessch": "010054000240"}, {"name": "Saks Middle School", "lat": 33.7012, "lon": -85.8342, "proficiency": 0.22, "district": "Calhoun County", "city": "Anniston", "ncessch": "010054000244"}, {"name": "Weaver High School", "lat": 33.7471, "lon": -85.8309, "proficiency": 0.32, "district": "Calhoun County", "city": "Weaver", "ncessch": "010054000247"}, {"name": "Pleasant Valley High School", "lat": 33.885484, "lon": -85.816324, "proficiency": 0.62, "district": "Calhoun County", "city": "Jacksonville", "ncessch": "010054001488"}, {"name": "Wellborn High School", "lat": 33.6525, "lon": -85.882, "proficiency": 0.32, "district": "Calhoun County", "city": "Anniston", "ncessch": "010054001489"}, {"name": "White Plains Middle School", "lat": 33.723721, "lon": -85.671905, "proficiency": 0.47, "district": "Calhoun County", "city": "Anniston", "ncessch": "010054001884"}, {"name": "Alexandria Middle School", "lat": 33.773599, "lon": -85.88708, "proficiency": 0.27, "district": "Calhoun County", "city": "Alexandria", "ncessch": "010054002429"}, {"name": "Five Points Elementary School", "lat": 33.017341, "lon": -85.34369, "proficiency": 0.245, "district": "Chambers County", "city": "Five Points", "ncessch": "010060000259"}, {"name": "John P Powell Middle School", "lat": 32.897981, "lon": -85.393991, "proficiency": 0.15, "district": "Chambers County", "city": "Lafayette", "ncessch": "010060000269"}, {"name": "W F Burns Middle School", "lat": 32.8064, "lon": -85.1964, "proficiency": 0.32, "district": "Chambers County", "city": "Valley", "ncessch": "010060000272"}, {"name": "Cedar Bluff High School", "lat": 34.2198, "lon": -85.6045, "proficiency": 0.845, "district": "Cherokee County", "city": "Cedar Bluff", "ncessch": "010063000274"}, {"name": "Centre Middle School", "lat": 34.135634, "lon": -85.651107, "proficiency": 0.47, "district": "Cherokee County", "city": "Centre", "ncessch": "010063000276"}, {"name": "Gaylesville High School", "lat": 34.2711, "lon": -85.56, "proficiency": 0.345, "district": "Cherokee County", "city": "Gaylesville", "ncessch": "010063000279"}, {"name": "Sand Rock High School", "lat": 34.241, "lon": -85.7674, "proficiency": 0.62, "district": "Cherokee County", "city": "Sand Rock", "ncessch": "010063000282"}, {"name": "Spring Garden High School", "lat": 33.985365, "lon": -85.542865, "proficiency": 0.445, "district": "Cherokee County", "city": "Spring Garden", "ncessch": "010063000283"}, {"name": "Isabella High School", "lat": 32.8287, "lon": -86.7856, "proficiency": 0.445, "district": "Chilton County", "city": "Maplesville", "ncessch": "010066000261"}, {"name": "Maplesville High School", "lat": 32.8031, "lon": -86.8784, "proficiency": 0.345, "district": "Chilton County", "city": "Maplesville", "ncessch": "010066000265"}, {"name": "Thorsby High School", "lat": 32.9136, "lon": -86.7163, "proficiency": 0.245, "district": "Chilton County", "city": "Thorsby", "ncessch": "010066000270"}, {"name": "Clanton Middle School", "lat": 32.8262, "lon": -86.6132, "proficiency": 0.47, "district": "Chilton County", "city": "Clanton", "ncessch": "010066000287"}, {"name": "Verbena High School", "lat": 32.749, "lon": -86.5088, "proficiency": 0.15, "district": "Chilton County", "city": "Verbena", "ncessch": "010066000288"}, {"name": "Jemison Middle School", "lat": 32.964356, "lon": -86.747493, "proficiency": 0.32, "district": "Chilton County", "city": "Jemison", "ncessch": "010066000745"}, {"name": "Choctaw County High School", "lat": 32.0798, "lon": -88.2332, "proficiency": 0.05, "district": "Choctaw County", "city": "Butler", "ncessch": "010069000291"}, {"name": "Southern Choctaw High School", "lat": 31.8429, "lon": -88.3193, "proficiency": 0.05, "district": "Choctaw County", "city": "Gilbertown", "ncessch": "010069000297"}, {"name": "Jackson Middle School", "lat": 31.5129, "lon": -87.8947, "proficiency": 0.37, "district": "Clarke County", "city": "Jackson", "ncessch": "010072000304"}, {"name": "Wilson Hall Middle School", "lat": 31.703243, "lon": -87.764353, "proficiency": 0.345, "district": "Clarke County", "city": "Grove Hill", "ncessch": "010072000306"}, {"name": "Central Jr High School of Clay County", "lat": 33.290823, "lon": -85.787937, "proficiency": 0.32, "district": "Clay County", "city": "Lineville", "ncessch": "010075002205"}, {"name": "Cleburne County High School", "lat": 33.648138, "lon": -85.571924, "proficiency": 0.37, "district": "Cleburne County", "city": "Heflin", "ncessch": "010078000318"}, {"name": "Ranburne High School", "lat": 33.523373, "lon": -85.346519, "proficiency": 0.52, "district": "Cleburne County", "city": "Ranburne", "ncessch": "010078000321"}, {"name": "Kinston School", "lat": 31.221294, "lon": -86.169864, "proficiency": 0.445, "district": "Coffee County", "city": "Kinston", "ncessch": "010081000323"}, {"name": "Zion Chapel High School", "lat": 31.566525, "lon": -86.010259, "proficiency": 0.645, "district": "Coffee County", "city": "Jack", "ncessch": "010081000327"}, {"name": "New Brockton High School", "lat": 31.380382, "lon": -85.935457, "proficiency": 0.42, "district": "Coffee County", "city": "New Brockton", "ncessch": "010081001494"}, {"name": "Cherokee High School", "lat": 34.7657, "lon": -87.9633, "proficiency": 0.345, "district": "Colbert County", "city": "Cherokee", "ncessch": "010084000333"}, {"name": "Colbert County High School", "lat": 34.6955, "lon": -87.5244, "proficiency": 0.32, "district": "Colbert County", "city": "Leighton", "ncessch": "010084000334"}, {"name": "Colbert Heights High School", "lat": 34.669434, "lon": -87.700833, "proficiency": 0.37, "district": "Colbert County", "city": "Tuscumbia", "ncessch": "010084000335"}, {"name": "Conecuh County Junior High School", "lat": 31.2972, "lon": -87.0313, "proficiency": 0.245, "district": "Conecuh County", "city": "Castleberry", "ncessch": "010087000344"}, {"name": "Lyeffion Junior High School", "lat": 31.541683, "lon": -86.987452, "proficiency": 0.245, "district": "Conecuh County", "city": "Evergreen", "ncessch": "010087000347"}, {"name": "Thurgood Marshall Middle School", "lat": 31.4233, "lon": -86.9515, "proficiency": 0.345, "district": "Conecuh County", "city": "Evergreen", "ncessch": "010087000348"}, {"name": "Repton Junior High School", "lat": 31.4115, "lon": -87.2345, "proficiency": 0.245, "district": "Conecuh County", "city": "Repton", "ncessch": "010087000350"}, {"name": "Genesis Innovative School", "lat": 31.431297, "lon": -86.937172, "proficiency": 0.495, "district": "Conecuh County", "city": "Evergreen", "ncessch": "010087002442"}, {"name": "Central High School", "lat": 33.006452, "lon": -86.201187, "proficiency": 0.17, "district": "Coosa County", "city": "Rockford", "ncessch": "010090001749"}, {"name": "Fleeta School", "lat": 31.3297, "lon": -86.245, "proficiency": 0.3, "district": "Covington County", "city": "Opp", "ncessch": "010093000359"}, {"name": "Florala High School", "lat": 31.0028, "lon": -86.3368, "proficiency": 0.15, "district": "Covington County", "city": "Florala", "ncessch": "010093000360"}, {"name": "Pleasant Home School", "lat": 31.1584, "lon": -86.6128, "proficiency": 0.445, "district": "Covington County", "city": "Andalusia", "ncessch": "010093000361"}, {"name": "Straughn Middle School", "lat": 31.388162, "lon": -86.416727, "proficiency": 0.62, "district": "Covington County", "city": "Andalusia", "ncessch": "010093001672"}, {"name": "Brantley High School", "lat": 31.590445, "lon": -86.255144, "proficiency": 0.345, "district": "Crenshaw County", "city": "Brantley", "ncessch": "010096000365"}, {"name": "Highland Home School", "lat": 31.953, "lon": -86.3135, "proficiency": 0.345, "district": "Crenshaw County", "city": "Highland Home", "ncessch": "010096000367"}, {"name": "Luverne High School", "lat": 31.7132, "lon": -86.2754, "proficiency": 0.345, "district": "Crenshaw County", "city": "Luverne", "ncessch": "010096000368"}, {"name": "Cullman Middle School", "lat": 34.185, "lon": -86.8444, "proficiency": 0.82, "district": "Cullman City", "city": "Cullman", "ncessch": "010099000369"}, {"name": "Parkside Elementary School", "lat": 34.2681, "lon": -86.6104, "proficiency": 0.495, "district": "Cullman County", "city": "Baileyton", "ncessch": "010102000373"}, {"name": "Cold Springs Elementary School", "lat": 33.981296, "lon": -87.032279, "proficiency": 0.57, "district": "Cullman County", "city": "Bremen", "ncessch": "010102000375"}, {"name": "Fairview Middle School", "lat": 34.255046, "lon": -86.687902, "proficiency": 0.47, "district": "Cullman County", "city": "Cullman", "ncessch": "010102000400"}, {"name": "Good Hope Middle School", "lat": 34.1027, "lon": -86.8811, "proficiency": 0.57, "district": "Cullman County", "city": "Cullman", "ncessch": "010102000413"}, {"name": "Hanceville Middle School", "lat": 34.0611, "lon": -86.7614, "proficiency": 0.52, "district": "Cullman County", "city": "Hanceville", "ncessch": "010102000420"}, {"name": "Vinemont Middle School", "lat": 34.242421, "lon": -86.863807, "proficiency": 0.62, "district": "Cullman County", "city": "Vinemont", "ncessch": "010102000453"}, {"name": "West Point Middle School", "lat": 34.2326, "lon": -86.965, "proficiency": 0.47, "district": "Cullman County", "city": "Vinemont", "ncessch": "010102000459"}, {"name": "Cullman Child Development Center", "lat": 34.2216, "lon": -86.8577, "proficiency": 0.245, "district": "Cullman County", "city": "Cullman", "ncessch": "010102001497"}, {"name": "Harmony School", "lat": 34.1426, "lon": -87.0685, "proficiency": 0.495, "district": "Cullman County", "city": "Logan", "ncessch": "010102001676"}, {"name": "Ariton School", "lat": 31.602171, "lon": -85.721035, "proficiency": 0.82, "district": "Dale County", "city": "Ariton", "ncessch": "010105000388"}, {"name": "George W Long High School", "lat": 31.559, "lon": -85.5509, "proficiency": 0.92, "district": "Dale County", "city": "Skipperville", "ncessch": "010105000390"}, {"name": "South Dale Middle School", "lat": 31.316538, "lon": -85.547018, "proficiency": 0.57, "district": "Dale County", "city": "Pinckard", "ncessch": "010105000393"}, {"name": "Daleville High School", "lat": 31.316204, "lon": -85.709728, "proficiency": 0.27, "district": "Daleville City", "city": "Daleville", "ncessch": "010108000394"}, {"name": "Keith MiddleHigh School", "lat": 32.292538, "lon": -87.235715, "proficiency": 0.1, "district": "Dallas County", "city": "Orrville", "ncessch": "010111000402"}, {"name": "Tipton Durant Middle School", "lat": 32.370884, "lon": -87.016155, "proficiency": 0.025, "district": "Dallas County", "city": "Selma", "ncessch": "010111000408"}, {"name": "William R Martin Middle School", "lat": 32.498767, "lon": -86.98365, "proficiency": 0.37, "district": "Dallas County", "city": "Valley Grande", "ncessch": "010111000814"}, {"name": "Collinsville High School", "lat": 34.254667, "lon": -85.868708, "proficiency": 0.27, "district": "DeKalb County", "city": "Collinsville", "ncessch": "010114000411"}, {"name": "Fyffe High School", "lat": 34.449581, "lon": -85.90418, "proficiency": 0.47, "district": "DeKalb County", "city": "Fyffe", "ncessch": "010114000415"}, {"name": "Geraldine School", "lat": 34.351037, "lon": -86.003186, "proficiency": 0.22, "district": "DeKalb County", "city": "Geraldine", "ncessch": "010114000416"}, {"name": "Henagar Junior High School", "lat": 34.634207, "lon": -85.768495, "proficiency": 0.75, "district": "DeKalb County", "city": "Henagar", "ncessch": "010114000418"}, {"name": "Ider School", "lat": 34.712183, "lon": -85.675401, "proficiency": 0.37, "district": "DeKalb County", "city": "Ider", "ncessch": "010114000419"}, {"name": "Plainview School", "lat": 34.482932, "lon": -85.822258, "proficiency": 0.47, "district": "DeKalb County", "city": "Rainsville", "ncessch": "010114000422"}, {"name": "Ruhuma Junior High School", "lat": 34.354421, "lon": -85.737725, "proficiency": 0.245, "district": "DeKalb County", "city": "Fort Payne", "ncessch": "010114000423"}, {"name": "Sylvania School", "lat": 34.564558, "lon": -85.814556, "proficiency": 0.67, "district": "DeKalb County", "city": "Sylvania", "ncessch": "010114000424"}, {"name": "Valley Head High School", "lat": 34.564117, "lon": -85.614128, "proficiency": 0.645, "district": "DeKalb County", "city": "Valley Head", "ncessch": "010114000425"}, {"name": "Crossville Middle School", "lat": 34.288709, "lon": -85.995136, "proficiency": 0.37, "district": "DeKalb County", "city": "Crossville", "ncessch": "010114002357"}, {"name": "Decatur Middle School", "lat": 34.594774, "lon": -86.974021, "proficiency": 0.47, "district": "Decatur City", "city": "Decatur", "ncessch": "010117000433"}, {"name": "Austin Junior High School", "lat": 34.57954, "lon": -87.007634, "proficiency": 0.49, "district": "Decatur City", "city": "Decatur", "ncessch": "010117002456"}, {"name": "Demopolis Middle School", "lat": 32.5097, "lon": -87.8337, "proficiency": 0.32, "district": "Demopolis City", "city": "Demopolis", "ncessch": "010120000439"}, {"name": "Carver School of Mathematics Science and Technology", "lat": 31.197391, "lon": -85.391887, "proficiency": 0.87, "district": "Dothan City", "city": "Dothan", "ncessch": "010123000443"}, {"name": "Girard Intermediate School", "lat": 31.2421, "lon": -85.4208, "proficiency": 0.17, "district": "Dothan City", "city": "Dothan", "ncessch": "010123000447"}, {"name": "Beverlye Intermediate School", "lat": 31.194437, "lon": -85.353124, "proficiency": 0.72, "district": "Dothan City", "city": "Dothan", "ncessch": "010123001499"}, {"name": "Elba High School", "lat": 31.427146, "lon": -86.10309, "proficiency": 0.345, "district": "Elba City", "city": "Elba", "ncessch": "010126000461"}, {"name": "Wetumpka Middle School", "lat": 32.547487, "lon": -86.221644, "proficiency": 0.42, "district": "Elmore County", "city": "Wetumpka", "ncessch": "010129000102"}, {"name": "Eclectic Middle School", "lat": 32.6343, "lon": -86.0254, "proficiency": 0.42, "district": "Elmore County", "city": "Eclectic", "ncessch": "010129001432"}, {"name": "Holtville Middle School", "lat": 32.6302, "lon": -86.3249, "proficiency": 0.52, "district": "Elmore County", "city": "Deatsville", "ncessch": "010129001451"}, {"name": "Millbrook Middle School", "lat": 32.4984, "lon": -86.362, "proficiency": 0.52, "district": "Elmore County", "city": "Millbrook", "ncessch": "010129001660"}, {"name": "Coppinville School", "lat": 31.297101, "lon": -85.873488, "proficiency": 0.52, "district": "Enterprise City", "city": "Enterprise", "ncessch": "010132000474"}, {"name": "Dauphin Junior High School", "lat": 31.336664, "lon": -85.853451, "proficiency": 0.62, "district": "Enterprise City", "city": "Enterprise", "ncessch": "010132000475"}, {"name": "Escambia County Middle School", "lat": 31.045897, "lon": -87.494653, "proficiency": 0.42, "district": "Escambia County", "city": "Atmore", "ncessch": "010135000485"}, {"name": "Flomaton High School", "lat": 31.006, "lon": -87.2699, "proficiency": 0.645, "district": "Escambia County", "city": "Flomaton", "ncessch": "010135000487"}, {"name": "PollardMcCall Junior High School", "lat": 31.060087, "lon": -87.170727, "proficiency": 0.495, "district": "Escambia County", "city": "Brewton", "ncessch": "010135000489"}, {"name": "W S Neal Middle School", "lat": 31.0845, "lon": -87.0661, "proficiency": 0.42, "district": "Escambia County", "city": "East Brewton", "ncessch": "010135001506"}, {"name": "Gaston High School", "lat": 34.068314, "lon": -85.92684, "proficiency": 0.245, "district": "Etowah County", "city": "Gadsden", "ncessch": "010138000496"}, {"name": "Hokes Bluff Middle School", "lat": 33.995284, "lon": -85.870337, "proficiency": 0.32, "district": "Etowah County", "city": "Hokes Bluff", "ncessch": "010138000500"}, {"name": "West End High School", "lat": 34.0638, "lon": -86.3025, "proficiency": 0.445, "district": "Etowah County", "city": "Walnut Grove", "ncessch": "010138000507"}, {"name": "Glencoe Middle School", "lat": 33.9687, "lon": -85.9353, "proficiency": 0.47, "district": "Etowah County", "city": "Glencoe", "ncessch": "010138001507"}, {"name": "Rainbow Middle School", "lat": 33.9472, "lon": -86.0621, "proficiency": 0.57, "district": "Etowah County", "city": "Rainbow City", "ncessch": "010138001508"}, {"name": "Sardis Middle School", "lat": 34.176744, "lon": -86.118641, "proficiency": 0.37, "district": "Etowah County", "city": "Sardis City", "ncessch": "010138002351"}, {"name": "Moorer Middle School", "lat": 31.914297, "lon": -85.140271, "proficiency": 0.32, "district": "Eufaula City", "city": "Eufaula", "ncessch": "010141000513"}, {"name": "Alabama Virtual Academy at Eufaula City Schools", "lat": 31.8876, "lon": -85.1577, "proficiency": 0.17, "district": "Eufaula City", "city": "Eufaula", "ncessch": "010141002439"}, {"name": "Fairfield High Preparatory School", "lat": 33.491187, "lon": -86.908318, "proficiency": 0.12, "district": "Fairfield City", "city": "Fairfield", "ncessch": "010144000516"}, {"name": "Berry High School", "lat": 33.663, "lon": -87.599, "proficiency": 0.545, "district": "Fayette County", "city": "Berry", "ncessch": "010147000521"}, {"name": "Fayette Middle School", "lat": 33.689, "lon": -87.8264, "proficiency": 0.27, "district": "Fayette County", "city": "Fayette", "ncessch": "010147000523"}, {"name": "Hubbertville School", "lat": 33.8295, "lon": -87.7423, "proficiency": 0.3, "district": "Fayette County", "city": "Fayette", "ncessch": "010147000525"}, {"name": "Florence Middle School", "lat": 34.810501, "lon": -87.672245, "proficiency": 0.57, "district": "Florence City", "city": "Florence", "ncessch": "010153000536"}, {"name": "Fort Payne Middle School", "lat": 34.4913, "lon": -85.6685, "proficiency": 0.42, "district": "Fort Payne City", "city": "Fort Payne", "ncessch": "010156001750"}, {"name": "Belgreen High School", "lat": 34.4749, "lon": -87.8653, "proficiency": 0.445, "district": "Franklin County", "city": "Russellville", "ncessch": "010159000541"}, {"name": "East Franklin Junior High School", "lat": 34.3842, "lon": -87.599, "proficiency": 0.75, "district": "Franklin County", "city": "Phil Campbell", "ncessch": "010159000542"}, {"name": "Phil Campbell High School", "lat": 34.349411, "lon": -87.706847, "proficiency": 0.22, "district": "Franklin County", "city": "Phil Campbell", "ncessch": "010159000544"}, {"name": "Red Bay High School", "lat": 34.4354, "lon": -88.1381, "proficiency": 0.545, "district": "Franklin County", "city": "Red Bay", "ncessch": "010159000545"}, {"name": "Vina High School", "lat": 34.378516, "lon": -88.056168, "proficiency": 0.1, "district": "Franklin County", "city": "Vina", "ncessch": "010159000548"}, {"name": "Tharptown High School", "lat": 34.525786, "lon": -87.619756, "proficiency": 0.15, "district": "Franklin County", "city": "Russellville", "ncessch": "010159001869"}, {"name": "Litchfield Middle School", "lat": 34.002, "lon": -85.9653, "proficiency": 0.27, "district": "Gadsden City", "city": "Gadsden", "ncessch": "010162000552"}, {"name": "Gadsden Middle School", "lat": 34.005938, "lon": -86.010986, "proficiency": 0.57, "district": "Gadsden City", "city": "Gadsden", "ncessch": "010162000553"}, {"name": "Sansom Middle School", "lat": 34.0231, "lon": -86.0371, "proficiency": 0.37, "district": "Gadsden City", "city": "Gadsden", "ncessch": "010162000559"}, {"name": "Geneva Middle School", "lat": 31.0426, "lon": -85.8798, "proficiency": 0.57, "district": "Geneva City", "city": "Geneva", "ncessch": "010164001788"}, {"name": "Samson Middle School", "lat": 31.117792, "lon": -86.049316, "proficiency": 0.445, "district": "Geneva County", "city": "Samson", "ncessch": "010166001772"}, {"name": "Geneva County Middle School", "lat": 31.095832, "lon": -85.700153, "proficiency": 0.47, "district": "Geneva County", "city": "Hartford", "ncessch": "010166001792"}, {"name": "Slocomb Middle School", "lat": 31.098483, "lon": -85.601606, "proficiency": 0.42, "district": "Geneva County", "city": "Slocomb", "ncessch": "010166001794"}, {"name": "Robert Brown Middle School", "lat": 32.848018, "lon": -87.900021, "proficiency": 0.025, "district": "Greene County", "city": "Eutaw", "ncessch": "010168001520"}, {"name": "Guntersville Middle School", "lat": 34.3586, "lon": -86.3125, "proficiency": 0.52, "district": "Guntersville City", "city": "Guntersville", "ncessch": "010169000579"}, {"name": "Greensboro Middle School", "lat": 32.707676, "lon": -87.587697, "proficiency": 0.22, "district": "Hale County", "city": "Greensboro", "ncessch": "010171002156"}, {"name": "Hale County Middle School", "lat": 32.999815, "lon": -87.620254, "proficiency": 0.32, "district": "Hale County", "city": "Moundville", "ncessch": "010171002411"}, {"name": "Haleyville Middle School", "lat": 34.227271, "lon": -87.609357, "proficiency": 0.52, "district": "Haleyville City", "city": "Haleyville", "ncessch": "010172001885"}, {"name": "Hartselle Junior High School", "lat": 34.435714, "lon": -86.932817, "proficiency": 0.72, "district": "Hartselle City", "city": "Hartselle", "ncessch": "010173000598"}, {"name": "Abbeville High School", "lat": 31.5821, "lon": -85.2782, "proficiency": 0.345, "district": "Henry County", "city": "Abbeville", "ncessch": "010174000600"}, {"name": "Headland Middle School", "lat": 31.35737, "lon": -85.337655, "proficiency": 0.32, "district": "Henry County", "city": "Headland", "ncessch": "010174000605"}, {"name": "Homewood Middle School", "lat": 33.4777, "lon": -86.8115, "proficiency": 0.75, "district": "Homewood City", "city": "Homewood", "ncessch": "010176000609"}, {"name": "Ashford High School", "lat": 31.183743, "lon": -85.23222, "proficiency": 0.47, "district": "Houston County", "city": "Ashford", "ncessch": "010177000611"}, {"name": "Cottonwood High School", "lat": 31.056759, "lon": -85.301665, "proficiency": 0.57, "district": "Houston County", "city": "Cottonwood", "ncessch": "010177000612"}, {"name": "Houston County High School", "lat": 31.293671, "lon": -85.113249, "proficiency": 0.545, "district": "Houston County", "city": "Columbia", "ncessch": "010177000614"}, {"name": "Wicksburg High School", "lat": 31.2256, "lon": -85.6333, "proficiency": 0.67, "district": "Houston County", "city": "Newton", "ncessch": "010177000617"}, {"name": "Rehobeth Middle School", "lat": 31.125539, "lon": -85.447815, "proficiency": 0.57, "district": "Houston County", "city": "Rehobeth", "ncessch": "010177002077"}, {"name": "Academy For Academics  Arts Elementary School", "lat": 34.759865, "lon": -86.63639, "proficiency": 0.345, "district": "Huntsville City", "city": "Huntsville", "ncessch": "010180000620"}, {"name": "Chapman Elementary School", "lat": 34.751596, "lon": -86.558816, "proficiency": 0.12, "district": "Huntsville City", "city": "Huntsville", "ncessch": "010180000622"}, {"name": "Academy For Science  Foreign Language", "lat": 34.770301, "lon": -86.60843, "proficiency": 0.57, "district": "Huntsville City", "city": "Huntsville", "ncessch": "010180000624"}, {"name": "Huntsville Junior High School", "lat": 34.7237, "lon": -86.575, "proficiency": 0.42, "district": "Huntsville City", "city": "Huntsville", "ncessch": "010180000632"}, {"name": "Morris Elementary School", "lat": 34.712023, "lon": -86.6349, "proficiency": 0.17, "district": "Huntsville City", "city": "Huntsville", "ncessch": "010180001529"}, {"name": "Mountain Gap Middle School", "lat": 34.625624, "lon": -86.547243, "proficiency": 0.62, "district": "Huntsville City", "city": "Huntsville", "ncessch": "010180001530"}, {"name": "Whitesburg Middle School", "lat": 34.673411, "lon": -86.568672, "proficiency": 0.32, "district": "Huntsville City", "city": "Huntsville", "ncessch": "010180001531"}, {"name": "Challenger Middle School", "lat": 34.610836, "lon": -86.547893, "proficiency": 0.57, "district": "Huntsville City", "city": "Huntsville", "ncessch": "010180001774"}, {"name": "Hampton Cove Middle School", "lat": 34.662478, "lon": -86.478307, "proficiency": 0.77, "district": "Huntsville City", "city": "Hampton Cove", "ncessch": "010180002093"}, {"name": "Williams Middle School", "lat": 34.629288, "lon": -86.726926, "proficiency": 0.37, "district": "Huntsville City", "city": "Huntsville", "ncessch": "010180002146"}, {"name": "Ronald McNair 78", "lat": 34.787064, "lon": -86.614937, "proficiency": 0.075, "district": "Huntsville City", "city": "Huntsville", "ncessch": "010180002379"}, {"name": "Bridgeport Middle School", "lat": 34.9442, "lon": -85.7146, "proficiency": 0.495, "district": "Jackson County", "city": "Bridgeport", "ncessch": "010183000655"}, {"name": "Bryant School", "lat": 34.9386, "lon": -85.627, "proficiency": 0.695, "district": "Jackson County", "city": "Bryant", "ncessch": "010183000656"}, {"name": "Dutton Elementary School", "lat": 34.6084, "lon": -85.9172, "proficiency": 0.695, "district": "Jackson County", "city": "Dutton", "ncessch": "010183000657"}, {"name": "Flat Rock School", "lat": 34.7691, "lon": -85.6945, "proficiency": 0.75, "district": "Jackson County", "city": "Flat Rock", "ncessch": "010183000658"}, {"name": "Hollywood Elementary School", "lat": 34.7223, "lon": -85.9691, "proficiency": 0.75, "district": "Jackson County", "city": "Hollywood", "ncessch": "010183000659"}, {"name": "North Sand Mountain School", "lat": 34.848784, "lon": -85.624029, "proficiency": 0.645, "district": "Jackson County", "city": "Higdon", "ncessch": "010183000662"}, {"name": "Rosalie Elementary School", "lat": 34.7006, "lon": -85.7639, "proficiency": 0.3, "district": "Jackson County", "city": "Pisgah", "ncessch": "010183000666"}, {"name": "Section High School", "lat": 34.581721, "lon": -85.979924, "proficiency": 0.645, "district": "Jackson County", "city": "Section", "ncessch": "010183000667"}, {"name": "Skyline High School", "lat": 34.815029, "lon": -86.125013, "proficiency": 0.495, "district": "Jackson County", "city": "Scottsboro", "ncessch": "010183000668"}, {"name": "Woodville High School", "lat": 34.62291, "lon": -86.272311, "proficiency": 0.445, "district": "Jackson County", "city": "Woodville", "ncessch": "010183000671"}, {"name": "Pisgah High School", "lat": 34.6819, "lon": -85.8441, "proficiency": 0.545, "district": "Jackson County", "city": "Pisgah", "ncessch": "010183001532"}, {"name": "Stevenson Middle School", "lat": 34.8629, "lon": -85.8346, "proficiency": 0.32, "district": "Jackson County", "city": "Stevenson", "ncessch": "010183001534"}, {"name": "Macedonia School", "lat": 34.516953, "lon": -86.000853, "proficiency": 0.495, "district": "Jackson County", "city": "Section", "ncessch": "010183001674"}, {"name": "Jacksonville High School", "lat": 33.7881, "lon": -85.7784, "proficiency": 0.62, "district": "Jacksonville City", "city": "Jacksonville", "ncessch": "010186000673"}, {"name": "Jasper Junior High School", "lat": 33.83423, "lon": -87.257907, "proficiency": 0.42, "district": "Jasper City", "city": "Jasper", "ncessch": "010189002434"}, {"name": "ClayChalkville Middle School", "lat": 33.695851, "lon": -86.597863, "proficiency": 0.19, "district": "Jefferson County", "city": "Trussville", "ncessch": "010192000472"}, {"name": "Minor Middle School", "lat": 33.5945, "lon": -86.9329, "proficiency": 0.12, "district": "Jefferson County", "city": "Adamsville", "ncessch": "010192000687"}, {"name": "Bragg Middle School", "lat": 33.646431, "lon": -86.816807, "proficiency": 0.47, "district": "Jefferson County", "city": "Gardendale", "ncessch": "010192000689"}, {"name": "Fultondale High School", "lat": 33.627221, "lon": -86.775905, "proficiency": 0.17, "district": "Jefferson County", "city": "Warrior", "ncessch": "010192000704"}, {"name": "Oak Grove High School", "lat": 33.469711, "lon": -87.159713, "proficiency": 0.27, "district": "Jefferson County", "city": "Bessemer", "ncessch": "010192000732"}, {"name": "Hueytown Middle School", "lat": 33.4371, "lon": -86.9871, "proficiency": 0.15, "district": "Jefferson County", "city": "Hueytown", "ncessch": "010192000735"}, {"name": "Pleasant Grove High School", "lat": 33.497501, "lon": -86.997203, "proficiency": 0.12, "district": "Jefferson County", "city": "Pleasant Grove", "ncessch": "010192000737"}, {"name": "Rudd Middle School", "lat": 33.7017, "lon": -86.6804, "proficiency": 0.17, "district": "Jefferson County", "city": "Pinson", "ncessch": "010192001543"}, {"name": "William E Burkett MultiHandicapped Center", "lat": 33.758045, "lon": -86.811093, "proficiency": 0.245, "district": "Jefferson County", "city": "Morris", "ncessch": "010192001680"}, {"name": "North Jefferson Middle School", "lat": 33.7797, "lon": -86.8046, "proficiency": 0.52, "district": "Jefferson County", "city": "Kimberly", "ncessch": "010192002079"}, {"name": "Irondale Middle School", "lat": 33.544436, "lon": -86.664658, "proficiency": 0.22, "district": "Jefferson County", "city": "Irondale", "ncessch": "010192002117"}, {"name": "McAdory Middle School", "lat": 33.328033, "lon": -87.002845, "proficiency": 0.32, "district": "Jefferson County", "city": "McCalla", "ncessch": "010192002166"}, {"name": "Corner Middle School", "lat": 33.80141, "lon": -86.941003, "proficiency": 0.47, "district": "Jefferson County", "city": "Warrior", "ncessch": "010192002174"}, {"name": "Erwin Middle School", "lat": 33.645044, "lon": -86.699344, "proficiency": 0.12, "district": "Jefferson County", "city": "Center Point", "ncessch": "010192002182"}, {"name": "Jefferson County International Baccalaureate School", "lat": 33.488132, "lon": -86.972784, "proficiency": 0.82, "district": "Jefferson County", "city": "Pleasant Grove", "ncessch": "010192002421"}, {"name": "Sulligent School", "lat": 33.8983, "lon": -88.1298, "proficiency": 0.32, "district": "Lamar County", "city": "Sulligent", "ncessch": "010195000756"}, {"name": "Lamar County HighIntermediate", "lat": 33.748591, "lon": -88.123202, "proficiency": 0.27, "district": "Lamar County", "city": "Vernon", "ncessch": "010195001511"}, {"name": "South Lamar School", "lat": 33.5621, "lon": -88.0374, "proficiency": 0.645, "district": "Lamar County", "city": "Millport", "ncessch": "010195001720"}, {"name": "Lanett Junior High School", "lat": 32.8566, "lon": -85.197, "proficiency": 0.345, "district": "Lanett City", "city": "Lanett", "ncessch": "010198000760"}, {"name": "Brooks High School", "lat": 34.8579, "lon": -87.494, "proficiency": 0.52, "district": "Lauderdale County", "city": "Killen", "ncessch": "010201000764"}, {"name": "Central High School", "lat": 34.896864, "lon": -87.796059, "proficiency": 0.72, "district": "Lauderdale County", "city": "Florrence", "ncessch": "010201000765"}, {"name": "Lauderdale County High School", "lat": 34.828233, "lon": -87.290232, "proficiency": 0.57, "district": "Lauderdale County", "city": "Rogersville", "ncessch": "010201000767"}, {"name": "Lexington High School", "lat": 34.967822, "lon": -87.374157, "proficiency": 0.345, "district": "Lauderdale County", "city": "Lexington", "ncessch": "010201000770"}, {"name": "Rogers High School", "lat": 34.962905, "lon": -87.522186, "proficiency": 0.67, "district": "Lauderdale County", "city": "Florence", "ncessch": "010201000772"}, {"name": "Waterloo High School", "lat": 34.918576, "lon": -88.064495, "proficiency": 0.245, "district": "Lauderdale County", "city": "Waterloo", "ncessch": "010201000774"}, {"name": "Wilson High School", "lat": 34.926442, "lon": -87.670626, "proficiency": 0.42, "district": "Lauderdale County", "city": "Florence", "ncessch": "010201000775"}, {"name": "R A Hubbard High School", "lat": 34.6815, "lon": -87.3096, "proficiency": 0.1, "district": "Lawrence County", "city": "Courtland", "ncessch": "010204000776"}, {"name": "East Lawrence Middle School", "lat": 34.5675, "lon": -87.1731, "proficiency": 0.32, "district": "Lawrence County", "city": "Trinity", "ncessch": "010204000778"}, {"name": "Hatton High School", "lat": 34.561365, "lon": -87.415366, "proficiency": 0.47, "district": "Lawrence County", "city": "Town Creek", "ncessch": "010204000780"}, {"name": "Moulton Middle School", "lat": 34.475594, "lon": -87.290467, "proficiency": 0.37, "district": "Lawrence County", "city": "Moulton", "ncessch": "010204000786"}, {"name": "Beulah High School", "lat": 32.7108, "lon": -85.1882, "proficiency": 0.42, "district": "Lee County", "city": "Valley", "ncessch": "010207000791"}, {"name": "Loachapoka High School", "lat": 32.589056, "lon": -85.579499, "proficiency": 0.245, "district": "Lee County", "city": "Loachapoka", "ncessch": "010207000792"}, {"name": "Sanford Middle School", "lat": 32.4964, "lon": -85.3967, "proficiency": 0.62, "district": "Lee County", "city": "Opelika", "ncessch": "010207000793"}, {"name": "Smiths Station Junior High School", "lat": 32.535084, "lon": -85.09977, "proficiency": 0.51, "district": "Lee County", "city": "Smiths Station", "ncessch": "010207000796"}, {"name": "Ardmore High School", "lat": 34.9881, "lon": -86.8478, "proficiency": 0.42, "district": "Limestone County", "city": "Ardmore", "ncessch": "010210000797"}, {"name": "Clements High School", "lat": 34.802, "lon": -87.1838, "proficiency": 0.42, "district": "Limestone County", "city": "Athens", "ncessch": "010210000799"}, {"name": "East Limestone High School", "lat": 34.783, "lon": -86.8334, "proficiency": 0.47, "district": "Limestone County", "city": "Athens", "ncessch": "010210000800"}, {"name": "Tanner High School", "lat": 34.7327, "lon": -86.9743, "proficiency": 0.345, "district": "Limestone County", "city": "Tanner", "ncessch": "010210000808"}, {"name": "West Limestone High School", "lat": 34.9396, "lon": -87.1238, "proficiency": 0.42, "district": "Limestone County", "city": "Lester", "ncessch": "010210000810"}, {"name": "Elkmont High School", "lat": 34.931313, "lon": -86.969672, "proficiency": 0.32, "district": "Limestone County", "city": "Elkmont", "ncessch": "010210001549"}, {"name": "Alabama Connections Academy", "lat": 34.855644, "lon": -87.045847, "proficiency": 0.22, "district": "Limestone County", "city": "Athens", "ncessch": "010210002436"}, {"name": "George P Austin Junior High School", "lat": 32.302028, "lon": -87.786982, "proficiency": 0.15, "district": "Linden City", "city": "Linden", "ncessch": "010213000811"}, {"name": "Hayneville Middle School", "lat": 32.182873, "lon": -86.578561, "proficiency": 0.05, "district": "Lowndes County", "city": "Hayneville", "ncessch": "010216001636"}, {"name": "Lowndes County Middle School", "lat": 31.984766, "lon": -86.571261, "proficiency": 0.15, "district": "Lowndes County", "city": "Fort Deposit", "ncessch": "010216001637"}, {"name": "Notasulga High School", "lat": 32.559773, "lon": -85.662485, "proficiency": 0.1, "district": "Macon County", "city": "Notasulga", "ncessch": "010219000824"}, {"name": "Tuskegee Institute Middle School", "lat": 32.4318, "lon": -85.7184, "proficiency": 0.27, "district": "Macon County", "city": "Tuskegee Institute", "ncessch": "010219000826"}, {"name": "Monrovia Middle School", "lat": 34.7914, "lon": -86.7154, "proficiency": 0.6, "district": "Madison County", "city": "Huntsville", "ncessch": "010222000560"}, {"name": "New Hope Elementary School", "lat": 34.5398, "lon": -86.401, "proficiency": 0.62, "district": "Madison County", "city": "New Hope", "ncessch": "010222000566"}, {"name": "Madison County Elementary School", "lat": 34.70267, "lon": -86.375209, "proficiency": 0.645, "district": "Madison County", "city": "Gurley", "ncessch": "010222000837"}, {"name": "Meridianville Middle School", "lat": 34.8923, "lon": -86.5744, "proficiency": 0.62, "district": "Madison County", "city": "Hazel Green", "ncessch": "010222001411"}, {"name": "Sparkman Middle School", "lat": 34.868, "lon": -86.7132, "proficiency": 0.42, "district": "Madison County", "city": "Toney", "ncessch": "010222001412"}, {"name": "Central School", "lat": 34.7654, "lon": -86.4548, "proficiency": 0.72, "district": "Madison County", "city": "Huntsville", "ncessch": "010222001684"}, {"name": "Buckhorn Middle School", "lat": 34.872121, "lon": -86.45435, "proficiency": 0.61, "district": "Madison County", "city": "New Market", "ncessch": "010222002163"}, {"name": "Amelia L Johnson High School", "lat": 32.279591, "lon": -87.631964, "proficiency": 0.1, "district": "Marengo County", "city": "Thomaston", "ncessch": "010225000852"}, {"name": "Marengo High School", "lat": 32.05074, "lon": -87.80225, "proficiency": 0.1, "district": "Marengo County", "city": "Dixons Mills", "ncessch": "010225000856"}, {"name": "Sweet Water High School", "lat": 32.097794, "lon": -87.865686, "proficiency": 0.845, "district": "Marengo County", "city": "Sweet Water", "ncessch": "010225000857"}, {"name": "Brilliant School", "lat": 34.02702, "lon": -87.762709, "proficiency": 0.3, "district": "Marion County", "city": "Brilliant", "ncessch": "010231000861"}, {"name": "Marion County High School", "lat": 33.97409, "lon": -87.915616, "proficiency": 0.645, "district": "Marion County", "city": "Guin", "ncessch": "010231000863"}, {"name": "Hackleburg High School", "lat": 34.280192, "lon": -87.833809, "proficiency": 0.445, "district": "Marion County", "city": "Hackleburg", "ncessch": "010231000866"}, {"name": "Hamilton Middle School", "lat": 34.1386, "lon": -87.9913, "proficiency": 0.42, "district": "Marion County", "city": "Hamilton", "ncessch": "010231000867"}, {"name": "Phillips High School", "lat": 34.2793, "lon": -87.6974, "proficiency": 0.245, "district": "Marion County", "city": "Bear Creek", "ncessch": "010231000869"}, {"name": "Rutledge School", "lat": 33.4494, "lon": -86.9422, "proficiency": 0.17, "district": "Midfield City", "city": "Midfield", "ncessch": "010235000892"}, {"name": "Peter F Alba Middle School", "lat": 30.3961, "lon": -88.2473, "proficiency": 0.37, "district": "Mobile County", "city": "Bayou La Batre", "ncessch": "010237000895"}, {"name": "Denton Magnet School of Technology", "lat": 30.6622, "lon": -88.1489, "proficiency": 0.67, "district": "Mobile County", "city": "Mobile", "ncessch": "010237000897"}, {"name": "Booker T Washington Middle School", "lat": 30.7028, "lon": -88.0847, "proficiency": 0.32, "district": "Mobile County", "city": "Mobile", "ncessch": "010237000901"}, {"name": "Dunbar Creative Performing Arts", "lat": 30.6932, "lon": -88.05, "proficiency": 0.52, "district": "Mobile County", "city": "Mobile", "ncessch": "010237000916"}, {"name": "ClarkShaw Magnet School", "lat": 30.716985, "lon": -88.183137, "proficiency": 0.87, "district": "Mobile County", "city": "Mobile", "ncessch": "010237000931"}, {"name": "Grand Bay Middle School", "lat": 30.4804, "lon": -88.3456, "proficiency": 0.42, "district": "Mobile County", "city": "Grand Bay", "ncessch": "010237000938"}, {"name": "Mobile County Training Middle School", "lat": 30.7389, "lon": -88.0566, "proficiency": 0.245, "district": "Mobile County", "city": "Mobile", "ncessch": "010237000939"}, {"name": "Pillans Middle School", "lat": 30.628199, "lon": -88.085556, "proficiency": 0.17, "district": "Mobile County", "city": "Mobile", "ncessch": "010237000946"}, {"name": "Phillips Preparatory Middle School", "lat": 30.6969, "lon": -88.1203, "proficiency": 0.82, "district": "Mobile County", "city": "Mobile", "ncessch": "010237000947"}, {"name": "CL Scarborough Model Middle School", "lat": 30.7265, "lon": -88.1433, "proficiency": 0.27, "district": "Mobile County", "city": "Mobile", "ncessch": "010237000954"}, {"name": "Semmes Middle School", "lat": 30.7863, "lon": -88.2904, "proficiency": 0.36, "district": "Mobile County", "city": "Semmes", "ncessch": "010237000955"}, {"name": "Katherine H Hankins Middle School", "lat": 30.5526, "lon": -88.1751, "proficiency": 0.27, "district": "Mobile County", "city": "Theodore", "ncessch": "010237000961"}, {"name": "ChastangFournier Middle School", "lat": 30.733187, "lon": -88.115107, "proficiency": 0.075, "district": "Mobile County", "city": "Mobile", "ncessch": "010237000963"}, {"name": "Lillie B Williamson High School", "lat": 30.669379, "lon": -88.074318, "proficiency": 0.075, "district": "Mobile County", "city": "Mobile", "ncessch": "010237000969"}, {"name": "Burns Middle School", "lat": 30.6169, "lon": -88.1838, "proficiency": 0.22, "district": "Mobile County", "city": "Mobile", "ncessch": "010237000990"}, {"name": "Calloway Smith Middle School", "lat": 30.697429, "lon": -88.049924, "proficiency": 0.17, "district": "Mobile County", "city": "Mobile", "ncessch": "010237000992"}, {"name": "The Pathway", "lat": 30.731822, "lon": -88.11734, "proficiency": 0.1, "district": "Mobile County", "city": "Mobile", "ncessch": "010237001038"}, {"name": "Bernice J Causey Middle School", "lat": 30.646048, "lon": -88.2565, "proficiency": 0.45, "district": "Mobile County", "city": "Mobile", "ncessch": "010237001435"}, {"name": "Lott Middle School", "lat": 31.0608, "lon": -88.2318, "proficiency": 0.47, "district": "Mobile County", "city": "Citronelle", "ncessch": "010237001438"}, {"name": "Augusta Evans School", "lat": 30.70455, "lon": -88.202067, "proficiency": 0.1, "district": "Mobile County", "city": "Mobile", "ncessch": "010237001618"}, {"name": "North Mobile County Middle School", "lat": 30.957714, "lon": -88.085012, "proficiency": 0.345, "district": "Mobile County", "city": "Axis", "ncessch": "010237002136"}, {"name": "Excel High School", "lat": 31.431873, "lon": -87.341907, "proficiency": 0.42, "district": "Monroe County", "city": "Excel", "ncessch": "010240000975"}, {"name": "J F Shields High School", "lat": 31.7331, "lon": -87.1968, "proficiency": 0.245, "district": "Monroe County", "city": "Beatrice", "ncessch": "010240000979"}, {"name": "J U Blacksher School", "lat": 31.3014, "lon": -87.501171, "proficiency": 0.27, "district": "Monroe County", "city": "Uriah", "ncessch": "010240000980"}, {"name": "Monroe Intermediate School", "lat": 31.77332, "lon": -87.485795, "proficiency": 0.245, "district": "Monroe County", "city": "Lower Peach Tree", "ncessch": "010240000981"}, {"name": "Monroeville Middle School", "lat": 31.523983, "lon": -87.330045, "proficiency": 0.17, "district": "Monroe County", "city": "Monroeville", "ncessch": "010240000983"}, {"name": "Bellingrath Middle School", "lat": 32.347335, "lon": -86.309977, "proficiency": 0.025, "district": "Montgomery County", "city": "Montgomery", "ncessch": "010243000993"}, {"name": "Capitol Heights Middle School", "lat": 32.3826, "lon": -86.2715, "proficiency": 0.075, "district": "Montgomery County", "city": "Montgomery", "ncessch": "010243000995"}, {"name": "DunbarRamer School", "lat": 32.0466, "lon": -86.2237, "proficiency": 0.1, "district": "Montgomery County", "city": "Ramer", "ncessch": "010243001010"}, {"name": "McIntyre Comprehensive Academy", "lat": 32.36091, "lon": -86.331981, "proficiency": 0.05, "district": "Montgomery County", "city": "Montgomery", "ncessch": "010243001011"}, {"name": "Floyd Middle School", "lat": 32.3412, "lon": -86.296, "proficiency": 0.72, "district": "Montgomery County", "city": "Montgomery", "ncessch": "010243001013"}, {"name": "Goodwyn Middle School", "lat": 32.3801, "lon": -86.2456, "proficiency": 0.075, "district": "Montgomery County", "city": "Montgomery", "ncessch": "010243001017"}, {"name": "Southlawn Middle School", "lat": 32.301646, "lon": -86.348718, "proficiency": 0.12, "district": "Montgomery County", "city": "Montgomery", "ncessch": "010243001111"}, {"name": "McKee Middle School", "lat": 32.2941, "lon": -86.2522, "proficiency": 0.22, "district": "Montgomery County", "city": "Montgomery", "ncessch": "010243001524"}, {"name": "Brewbaker Middle School", "lat": 32.3213, "lon": -86.2187, "proficiency": 0.17, "district": "Montgomery County", "city": "Montgomery", "ncessch": "010243001563"}, {"name": "Childrens Center", "lat": 32.384605, "lon": -86.282772, "proficiency": 0.245, "district": "Montgomery County", "city": "Montgomery", "ncessch": "010243001691"}, {"name": "Baldwin Art And Academics Magnet", "lat": 32.373315, "lon": -86.305463, "proficiency": 0.82, "district": "Montgomery County", "city": "Montgomery", "ncessch": "010243001776"}, {"name": "Carr Middle School", "lat": 32.312153, "lon": -86.134483, "proficiency": 0.32, "district": "Montgomery County", "city": "Montgomery", "ncessch": "010243002152"}, {"name": "Danville Middle School", "lat": 34.4157, "lon": -87.0937, "proficiency": 0.47, "district": "Morgan County", "city": "Danville", "ncessch": "010248000574"}, {"name": "Cotaco School", "lat": 34.4745, "lon": -86.6981, "proficiency": 0.245, "district": "Morgan County", "city": "Somerville", "ncessch": "010248001041"}, {"name": "Eva School", "lat": 34.3339, "lon": -86.764, "proficiency": 0.545, "district": "Morgan County", "city": "Eva", "ncessch": "010248001043"}, {"name": "Falkville High School", "lat": 34.3663, "lon": -86.9123, "proficiency": 0.32, "district": "Morgan County", "city": "Falkville", "ncessch": "010248001044"}, {"name": "Laceys Spring Elementary School", "lat": 34.5331, "lon": -86.6055, "proficiency": 0.545, "district": "Morgan County", "city": "Laceys Spring", "ncessch": "010248001046"}, {"name": "Sparkman Elementary School", "lat": 34.4487, "lon": -86.8432, "proficiency": 0.1, "district": "Morgan County", "city": "Hartselle", "ncessch": "010248001050"}, {"name": "Union Hill School", "lat": 34.4727, "lon": -86.6224, "proficiency": 0.345, "district": "Morgan County", "city": "Somerville", "ncessch": "010248001051"}, {"name": "West Morgan Middle School", "lat": 34.5854, "lon": -87.0787, "proficiency": 0.32, "district": "Morgan County", "city": "Trinity", "ncessch": "010248001864"}, {"name": "Priceville Junior High School", "lat": 34.527605, "lon": -86.89941, "proficiency": 0.62, "district": "Morgan County", "city": "Decatur", "ncessch": "010248001871"}, {"name": "Mountain Brook Junior High School", "lat": 33.4933, "lon": -86.756, "proficiency": 0.89, "district": "Mountain Brook City", "city": "Mountain Brk", "ncessch": "010249001057"}, {"name": "Muscle Shoals Middle School", "lat": 34.742884, "lon": -87.650306, "proficiency": 0.72, "district": "Muscle Shoals City", "city": "Muscle Shoals", "ncessch": "010252001059"}, {"name": "Oneonta Middle School", "lat": 33.933883, "lon": -86.497175, "proficiency": 0.62, "district": "Oneonta City", "city": "Oneonta", "ncessch": "010255002355"}, {"name": "Opelika Middle School", "lat": 32.6599, "lon": -85.3848, "proficiency": 0.5, "district": "Opelika City", "city": "Opelika", "ncessch": "010258001071"}, {"name": "Opp Middle School", "lat": 31.287, "lon": -86.2519, "proficiency": 0.37, "district": "Opp City", "city": "Opp", "ncessch": "010261001074"}, {"name": "Oxford Middle School", "lat": 33.5965, "lon": -85.8762, "proficiency": 0.48, "district": "Oxford City", "city": "Oxford", "ncessch": "010263501383"}, {"name": "D A Smith Middle School", "lat": 31.453126, "lon": -85.653486, "proficiency": 0.37, "district": "Ozark City", "city": "Ozark", "ncessch": "010264001081"}, {"name": "Duran Junior High School", "lat": 33.583875, "lon": -86.294403, "proficiency": 0.52, "district": "Pell City", "city": "Pell City", "ncessch": "010265001570"}, {"name": "Robert C Hatch High School", "lat": 32.444751, "lon": -87.517523, "proficiency": 0.15, "district": "Perry County", "city": "Uniontown", "ncessch": "010267001577"}, {"name": "Francis Marion School", "lat": 32.629126, "lon": -87.336619, "proficiency": 0.05, "district": "Perry County", "city": "Marion", "ncessch": "010267001734"}, {"name": "South Girard School", "lat": 32.4369, "lon": -85.0014, "proficiency": 0.45, "district": "Phenix City", "city": "Phenix City", "ncessch": "010270001092"}, {"name": "Pickens County High School", "lat": 33.375263, "lon": -88.014678, "proficiency": 0.3, "district": "Pickens County", "city": "Reform", "ncessch": "010273001102"}, {"name": "Gordo High School", "lat": 33.325, "lon": -87.9067, "proficiency": 0.17, "district": "Pickens County", "city": "Gordo", "ncessch": "010273001104"}, {"name": "Piedmont Middle School", "lat": 33.92748, "lon": -85.61436, "proficiency": 0.42, "district": "Piedmont City", "city": "Piedmont", "ncessch": "010276001818"}, {"name": "Banks School", "lat": 31.8179, "lon": -85.8386, "proficiency": 0.445, "district": "Pike County", "city": "Banks", "ncessch": "010279001110"}, {"name": "Pike County High School", "lat": 31.7112, "lon": -85.8179, "proficiency": 0.47, "district": "Pike County", "city": "Brundidge", "ncessch": "010279001112"}, {"name": "Goshen High School", "lat": 31.722991, "lon": -86.123928, "proficiency": 0.42, "district": "Pike County", "city": "Goshen", "ncessch": "010279001114"}, {"name": "Randolph County High School", "lat": 33.311588, "lon": -85.478044, "proficiency": 0.37, "district": "Randolph County", "city": "Wedowee", "ncessch": "010282001119"}, {"name": "Rock Mills Junior High School", "lat": 33.153344, "lon": -85.293224, "proficiency": 0.245, "district": "Randolph County", "city": "Roanoke", "ncessch": "010282001122"}, {"name": "Wadley High School", "lat": 33.1235, "lon": -85.5761, "proficiency": 0.245, "district": "Randolph County", "city": "Wadley", "ncessch": "010282001123"}, {"name": "Woodland High School", "lat": 33.373704, "lon": -85.39296, "proficiency": 0.445, "district": "Randolph County", "city": "Woodland", "ncessch": "010282001125"}, {"name": "Handley Middle School", "lat": 33.14823, "lon": -85.350879, "proficiency": 0.37, "district": "Roanoke City", "city": "Roanoke", "ncessch": "010285001127"}, {"name": "Russell County Middle School", "lat": 32.331138, "lon": -85.155867, "proficiency": 0.42, "district": "Russell County", "city": "Seale", "ncessch": "010288001441"}, {"name": "Russellville Middle School", "lat": 34.5287, "lon": -87.74, "proficiency": 0.42, "district": "Russellville City", "city": "Russellville", "ncessch": "010291001141"}, {"name": "Scottsboro Junior High School", "lat": 34.6544, "lon": -86.0403, "proficiency": 0.52, "district": "Scottsboro City", "city": "Scottsboro", "ncessch": "010294001148"}, {"name": "The RBHudson STEAM Academy", "lat": 32.422673, "lon": -87.032152, "proficiency": 0.12, "district": "Selma City", "city": "Selma", "ncessch": "010297001161"}, {"name": "Sheffield Junior High School", "lat": 34.7702, "lon": -87.6896, "proficiency": 0.52, "district": "Sheffield City", "city": "Sheffield", "ncessch": "010300000160"}, {"name": "Chelsea Middle School", "lat": 33.334, "lon": -86.636, "proficiency": 0.64, "district": "Shelby County", "city": "Chelsea", "ncessch": "010303000031"}, {"name": "Oak Mountain Middle School", "lat": 33.36989, "lon": -86.712831, "proficiency": 0.74, "district": "Shelby County", "city": "Birmingham", "ncessch": "010303000124"}, {"name": "Columbiana Middle School", "lat": 33.1853, "lon": -86.6158, "proficiency": 0.57, "district": "Shelby County", "city": "Columbiana", "ncessch": "010303001173"}, {"name": "Montevallo Middle School", "lat": 33.0947, "lon": -86.867, "proficiency": 0.52, "district": "Shelby County", "city": "Montevallo", "ncessch": "010303001178"}, {"name": "Vincent Middle High School", "lat": 33.383227, "lon": -86.414454, "proficiency": 0.27, "district": "Shelby County", "city": "Vincent", "ncessch": "010303001187"}, {"name": "Calera Middle", "lat": 33.143516, "lon": -86.786987, "proficiency": 0.42, "district": "Shelby County", "city": "Montevallo", "ncessch": "010303001868"}, {"name": "Helena Middle", "lat": 33.275912, "lon": -86.87253, "proficiency": 0.67, "district": "Shelby County", "city": "Helena", "ncessch": "010303002128"}, {"name": "Ashville Middle School", "lat": 33.819686, "lon": -86.265761, "proficiency": 0.47, "district": "St Clair County", "city": "Ashville", "ncessch": "010306200322"}, {"name": "Springville Middle School", "lat": 33.7779, "lon": -86.468, "proficiency": 0.57, "district": "St Clair County", "city": "Springville", "ncessch": "010306200520"}, {"name": "Odenville Middle School", "lat": 33.677669, "lon": -86.397981, "proficiency": 0.57, "district": "St Clair County", "city": "Odenville", "ncessch": "010306201172"}, {"name": "Ragland High School", "lat": 33.7422, "lon": -86.1518, "proficiency": 0.245, "district": "St Clair County", "city": "Ragland", "ncessch": "010306201376"}, {"name": "Steele Elementary School", "lat": 33.9413, "lon": -86.2025, "proficiency": 0.75, "district": "St Clair County", "city": "Steele", "ncessch": "010306201378"}, {"name": "Moody Junior High School", "lat": 33.6097, "lon": -86.4594, "proficiency": 0.62, "district": "St Clair County", "city": "Moody", "ncessch": "010306201537"}, {"name": "Livingston Junior High School", "lat": 32.611232, "lon": -88.184274, "proficiency": 0.15, "district": "Sumter County", "city": "Livingston", "ncessch": "010309001192"}, {"name": "York West End Junior High School", "lat": 32.488332, "lon": -88.314667, "proficiency": 0.3, "district": "Sumter County", "city": "Livingston", "ncessch": "010309001195"}, {"name": "Kinterbish Junior High School", "lat": 32.3918, "lon": -88.3624, "proficiency": 0.245, "district": "Sumter County", "city": "Cuba", "ncessch": "010309001592"}, {"name": "NicholsLawson Middle School", "lat": 33.1877, "lon": -86.2401, "proficiency": 0.42, "district": "Sylacauga City", "city": "Sylacauga", "ncessch": "010312002100"}, {"name": "Zora Ellis Junior High School", "lat": 33.4327, "lon": -86.0933, "proficiency": 0.17, "district": "Talladega City", "city": "Talladega", "ncessch": "010315001208"}, {"name": "BB Comer Memorial High School", "lat": 33.178673, "lon": -86.258055, "proficiency": 0.15, "district": "Talladega County", "city": "Sylacauga", "ncessch": "010318001210"}, {"name": "Charles R Drew Middle School", "lat": 33.637246, "lon": -86.101626, "proficiency": 0.47, "district": "Talladega County", "city": "Lincoln", "ncessch": "010318001211"}, {"name": "Talladega County Central High", "lat": 33.4915, "lon": -86.1602, "proficiency": 0.1, "district": "Talladega County", "city": "Talladega", "ncessch": "010318001215"}, {"name": "Fayetteville High School", "lat": 33.1462, "lon": -86.4095, "proficiency": 0.645, "district": "Talladega County", "city": "Sylacauga", "ncessch": "010318001216"}, {"name": "Winterboro High School", "lat": 33.321311, "lon": -86.197331, "proficiency": 0.245, "district": "Talladega County", "city": "Alpine", "ncessch": "010318001226"}, {"name": "Childersburg Middle School", "lat": 33.2747, "lon": -86.3423, "proficiency": 0.37, "district": "Talladega County", "city": "Childersburg", "ncessch": "010318001756"}, {"name": "Munford Middle School", "lat": 33.5247, "lon": -85.9485, "proficiency": 0.42, "district": "Talladega County", "city": "Munford", "ncessch": "010318002086"}, {"name": "Horseshoe Bend High School", "lat": 33.014564, "lon": -85.80403, "proficiency": 0.32, "district": "Tallapoosa County", "city": "New Site", "ncessch": "010321000038"}, {"name": "Dadeville High School", "lat": 32.8296, "lon": -85.7545, "proficiency": 0.47, "district": "Tallapoosa County", "city": "Dadeville", "ncessch": "010321001229"}, {"name": "Reeltown High School", "lat": 32.603005, "lon": -85.802592, "proficiency": 0.47, "district": "Tallapoosa County", "city": "Notasulga", "ncessch": "010321001234"}, {"name": "Southside Middle School", "lat": 32.5266, "lon": -85.8942, "proficiency": 0.32, "district": "Tallassee City", "city": "Tallassee", "ncessch": "010324001236"}, {"name": "Tarrant High School", "lat": 33.614075, "lon": -86.773092, "proficiency": 0.12, "district": "Tarrant City", "city": "Tarrant", "ncessch": "010327001240"}, {"name": "Thomasville High School", "lat": 31.8857, "lon": -87.7367, "proficiency": 0.22, "district": "Thomasville City", "city": "Thomasville", "ncessch": "010330001248"}, {"name": "Charles Henderson Middle", "lat": 31.8094, "lon": -85.9523, "proficiency": 0.32, "district": "Troy City", "city": "Troy", "ncessch": "010333001603"}, {"name": "The Alberta School of Performing Arts", "lat": 33.208538, "lon": -87.502731, "proficiency": 0.445, "district": "Tuscaloosa City", "city": "Tuscaloosa", "ncessch": "010336001250"}, {"name": "Eastwood Middle School", "lat": 33.1602, "lon": -87.4538, "proficiency": 0.22, "district": "Tuscaloosa City", "city": "Cottondale", "ncessch": "010336001255"}, {"name": "Westlawn Middle School", "lat": 33.19809, "lon": -87.576351, "proficiency": 0.075, "district": "Tuscaloosa City", "city": "Tuscaloosa", "ncessch": "010336001268"}, {"name": "Northridge Middle School", "lat": 33.252035, "lon": -87.528128, "proficiency": 0.62, "district": "Tuscaloosa City", "city": "Tuscaloosa", "ncessch": "010336001889"}, {"name": "Tuscaloosa Magnet School  Middle", "lat": 33.2148, "lon": -87.5241, "proficiency": 0.95, "district": "Tuscaloosa City", "city": "Tuscaloosa", "ncessch": "010336002143"}, {"name": "Hillcrest Middle School", "lat": 33.1324, "lon": -87.5398, "proficiency": 0.37, "district": "Tuscaloosa County", "city": "Tuscaloosa", "ncessch": "010339001280"}, {"name": "CollinsRiverside Middle School", "lat": 33.219, "lon": -87.5706, "proficiency": 0.27, "district": "Tuscaloosa County", "city": "Northport", "ncessch": "010339001289"}, {"name": "Echols Middle School", "lat": 33.233794, "lon": -87.579618, "proficiency": 0.57, "district": "Tuscaloosa County", "city": "Northport", "ncessch": "010339001462"}, {"name": "Brookwood Middle School", "lat": 33.212078, "lon": -87.282403, "proficiency": 0.42, "district": "Tuscaloosa County", "city": "Vance", "ncessch": "010339001540"}, {"name": "Duncanville Middle School", "lat": 33.093579, "lon": -87.481083, "proficiency": 0.47, "district": "Tuscaloosa County", "city": "Duncanville", "ncessch": "010339001882"}, {"name": "Northside Middle School", "lat": 33.466, "lon": -87.6298, "proficiency": 0.57, "district": "Tuscaloosa County", "city": "Northport", "ncessch": "010339002087"}, {"name": "DavisEmerson Middle School", "lat": 33.1953, "lon": -87.4548, "proficiency": 0.27, "district": "Tuscaloosa County", "city": "Cottondale", "ncessch": "010339002088"}, {"name": "Sipsey Valley Middle School", "lat": 33.193099, "lon": -87.731187, "proficiency": 0.57, "district": "Tuscaloosa County", "city": "Buhl", "ncessch": "010339002154"}, {"name": "Deshler Middle School", "lat": 34.7388, "lon": -87.6969, "proficiency": 0.37, "district": "Tuscumbia City", "city": "Tuscumbia", "ncessch": "010342001298"}, {"name": "Pizitz Middle School", "lat": 33.423021, "lon": -86.809496, "proficiency": 0.83, "district": "Vestavia Hills City", "city": "Vestavia", "ncessch": "010343001301"}, {"name": "Liberty Park Middle School", "lat": 33.478489, "lon": -86.673321, "proficiency": 0.82, "district": "Vestavia Hills City", "city": "Vestavia", "ncessch": "010343002135"}, {"name": "Carbon Hill ElementaryJunior High School", "lat": 33.90368, "lon": -87.505311, "proficiency": 0.545, "district": "Walker County", "city": "Carbon Hill", "ncessch": "010345000131"}, {"name": "Bankhead Middle School", "lat": 33.7691, "lon": -87.1839, "proficiency": 0.37, "district": "Walker County", "city": "Cordova", "ncessch": "010345001305"}, {"name": "Lupton Junior High School", "lat": 33.926023, "lon": -87.412447, "proficiency": 0.445, "district": "Walker County", "city": "Nauvoo", "ncessch": "010345001317"}, {"name": "Oakman Middle School", "lat": 33.721321, "lon": -87.386856, "proficiency": 0.17, "district": "Walker County", "city": "Oakman", "ncessch": "010345001319"}, {"name": "Sumiton Middle School", "lat": 33.7554, "lon": -87.058, "proficiency": 0.22, "district": "Walker County", "city": "Sumiton", "ncessch": "010345001325"}, {"name": "Valley Junior High School", "lat": 33.8269, "lon": -87.1773, "proficiency": 0.52, "district": "Walker County", "city": "Jasper", "ncessch": "010345001611"}, {"name": "Curry Middle School", "lat": 33.957082, "lon": -87.216559, "proficiency": 0.52, "district": "Walker County", "city": "Jasper", "ncessch": "010345001703"}, {"name": "Washington County High School", "lat": 31.46182, "lon": -88.251362, "proficiency": 0.37, "district": "Washington County", "city": "Chatom", "ncessch": "010348001335"}, {"name": "Fruitdale High School", "lat": 31.344188, "lon": -88.405727, "proficiency": 0.3, "district": "Washington County", "city": "Fruitdale", "ncessch": "010348001336"}, {"name": "Leroy High School", "lat": 31.502278, "lon": -87.970589, "proficiency": 0.245, "district": "Washington County", "city": "Leroy", "ncessch": "010348001337"}, {"name": "McIntosh High School", "lat": 31.254091, "lon": -88.024996, "proficiency": 0.345, "district": "Washington County", "city": "Mc Intosh", "ncessch": "010348001338"}, {"name": "Millry High School", "lat": 31.640138, "lon": -88.314976, "proficiency": 0.545, "district": "Washington County", "city": "Millry", "ncessch": "010348001339"}, {"name": "Camden School Of Arts  Technology", "lat": 31.99494, "lon": -87.294977, "proficiency": 0.12, "district": "Wilcox County", "city": "Camden", "ncessch": "010351001809"}, {"name": "Winfield Middle School", "lat": 33.933197, "lon": -87.811801, "proficiency": 0.47, "district": "Winfield City", "city": "Winfield", "ncessch": "010354000343"}, {"name": "Addison High School", "lat": 34.205237, "lon": -87.182667, "proficiency": 0.445, "district": "Winston County", "city": "Addison", "ncessch": "010358001356"}, {"name": "Lynn High School", "lat": 34.045134, "lon": -87.547244, "proficiency": 0.645, "district": "Winston County", "city": "Lynn", "ncessch": "010358001359"}, {"name": "Meek High School", "lat": 34.079762, "lon": -87.213166, "proficiency": 0.3, "district": "Winston County", "city": "Arley", "ncessch": "010358001360"}, {"name": "Double Springs Middle School", "lat": 34.165375, "lon": -87.398021, "proficiency": 0.62, "district": "Winston County", "city": "Double Springs", "ncessch": "010358001464"}], "districts": [{"name": "Albertville City", "lat": 34.2602, "lon": -86.2062, "proficiency": 0.5, "schoolCount": 1}, {"name": "Marshall County", "lat": 34.3625465, "lon": -86.28473699999999, "proficiency": 0.345, "schoolCount": 4}, {"name": "Hoover City", "lat": 33.37147433333333, "lon": -86.80689866666667, "proficiency": 0.73, "schoolCount": 3}, {"name": "Madison City", "lat": 34.73725, "lon": -86.76095000000001, "proficiency": 0.745, "schoolCount": 2}, {"name": "Leeds City", "lat": 33.54936, "lon": -86.536894, "proficiency": 0.57, "schoolCount": 1}, {"name": "Boaz City", "lat": 34.213512, "lon": -86.161369, "proficiency": 0.37, "schoolCount": 1}, {"name": "Trussville City", "lat": 33.655829, "lon": -86.593651, "proficiency": 0.7, "schoolCount": 1}, {"name": "Alexander City", "lat": 32.9451, "lon": -85.9488, "proficiency": 0.47, "schoolCount": 1}, {"name": "Andalusia City", "lat": 31.314977, "lon": -86.470935, "proficiency": 0.52, "schoolCount": 1}, {"name": "Anniston City", "lat": 33.708165, "lon": -85.822863, "proficiency": 0.22, "schoolCount": 1}, {"name": "Arab City", "lat": 34.3124, "lon": -86.5105, "proficiency": 0.72, "schoolCount": 1}, {"name": "Athens City", "lat": 34.801762499999995, "lon": -86.9573785, "proficiency": 0.4825, "schoolCount": 2}, {"name": "Attalla City", "lat": 33.995704, "lon": -86.112782, "proficiency": 0.42, "schoolCount": 1}, {"name": "Saraland City", "lat": 30.8313, "lon": -88.065367, "proficiency": 0.72, "schoolCount": 1}, {"name": "Chickasaw City", "lat": 30.757103, "lon": -88.078474, "proficiency": 0.12, "schoolCount": 1}, {"name": "Satsuma City", "lat": 30.8471, "lon": -88.0569, "proficiency": 0.47, "schoolCount": 1}, {"name": "Alabaster City", "lat": 33.220563, "lon": -86.833045, "proficiency": 0.63, "schoolCount": 1}, {"name": "Pelham City", "lat": 33.30662, "lon": -86.808097, "proficiency": 0.47, "schoolCount": 1}, {"name": "Pike Road City", "lat": 32.355003, "lon": -86.102682, "proficiency": 0.42, "schoolCount": 1}, {"name": "University Charter School", "lat": 32.586288, "lon": -88.189067, "proficiency": 0.75, "schoolCount": 1}, {"name": "Auburn City", "lat": 32.596469, "lon": -85.463119, "proficiency": 0.74, "schoolCount": 1}, {"name": "Autauga County", "lat": 32.57067375, "lon": -86.57634475, "proficiency": 0.3937, "schoolCount": 4}, {"name": "Baldwin County", "lat": 30.6210091, "lon": -87.7619926, "proficiency": 0.5605, "schoolCount": 10}, {"name": "Barbour County", "lat": 31.868278, "lon": -85.44613, "proficiency": 0.05, "schoolCount": 1}, {"name": "Bessemer City", "lat": 33.368618, "lon": -86.985203, "proficiency": 0.17, "schoolCount": 1}, {"name": "Bibb County", "lat": 33.027957, "lon": -87.1231895, "proficiency": 0.37, "schoolCount": 2}, {"name": "Birmingham City", "lat": 33.5358169375, "lon": -86.7998881875, "proficiency": 0.1697, "schoolCount": 16}, {"name": "Blount County", "lat": 33.95368585714286, "lon": -86.56555285714286, "proficiency": 0.3521, "schoolCount": 7}, {"name": "Brewton City", "lat": 31.154287, "lon": -87.058574, "proficiency": 0.72, "schoolCount": 1}, {"name": "Bullock County", "lat": 32.132765, "lon": -85.720119, "proficiency": 0.12, "schoolCount": 1}, {"name": "Butler County", "lat": 31.670513, "lon": -86.68980033333332, "proficiency": 0.2567, "schoolCount": 3}, {"name": "Calhoun County", "lat": 33.75280057142857, "lon": -85.84625842857143, "proficiency": 0.3771, "schoolCount": 7}, {"name": "Chambers County", "lat": 32.90724066666667, "lon": -85.31136033333333, "proficiency": 0.2383, "schoolCount": 3}, {"name": "Cherokee County", "lat": 34.1705798, "lon": -85.6251744, "proficiency": 0.545, "schoolCount": 5}, {"name": "Chilton County", "lat": 32.84749266666667, "lon": -86.70829883333333, "proficiency": 0.3292, "schoolCount": 6}, {"name": "Choctaw County", "lat": 31.96135, "lon": -88.27625, "proficiency": 0.05, "schoolCount": 2}, {"name": "Clarke County", "lat": 31.6080715, "lon": -87.8295265, "proficiency": 0.3575, "schoolCount": 2}, {"name": "Clay County", "lat": 33.290823, "lon": -85.787937, "proficiency": 0.32, "schoolCount": 1}, {"name": "Cleburne County", "lat": 33.585755500000005, "lon": -85.4592215, "proficiency": 0.445, "schoolCount": 2}, {"name": "Coffee County", "lat": 31.38940033333333, "lon": -86.03852666666667, "proficiency": 0.5033, "schoolCount": 3}, {"name": "Colbert County", "lat": 34.71021133333334, "lon": -87.729511, "proficiency": 0.345, "schoolCount": 3}, {"name": "Conecuh County", "lat": 31.420996000000002, "lon": -87.0283848, "proficiency": 0.315, "schoolCount": 5}, {"name": "Coosa County", "lat": 33.006452, "lon": -86.201187, "proficiency": 0.17, "schoolCount": 1}, {"name": "Covington County", "lat": 31.2197655, "lon": -86.40283174999999, "proficiency": 0.3787, "schoolCount": 4}, {"name": "Crenshaw County", "lat": 31.752214999999996, "lon": -86.281348, "proficiency": 0.345, "schoolCount": 3}, {"name": "Cullman City", "lat": 34.185, "lon": -86.8444, "proficiency": 0.82, "schoolCount": 1}, {"name": "Cullman County", "lat": 34.167495888888894, "lon": -86.85867644444444, "proficiency": 0.495, "schoolCount": 9}, {"name": "Dale County", "lat": 31.492569666666668, "lon": -85.60631766666665, "proficiency": 0.77, "schoolCount": 3}, {"name": "Daleville City", "lat": 31.316204, "lon": -85.709728, "proficiency": 0.27, "schoolCount": 1}, {"name": "Dallas County", "lat": 32.387396333333335, "lon": -87.07850666666667, "proficiency": 0.165, "schoolCount": 3}, {"name": "DeKalb County", "lat": 34.4656412, "lon": -85.82037729999999, "proficiency": 0.448, "schoolCount": 10}, {"name": "Decatur City", "lat": 34.587157000000005, "lon": -86.9908275, "proficiency": 0.48, "schoolCount": 2}, {"name": "Demopolis City", "lat": 32.5097, "lon": -87.8337, "proficiency": 0.32, "schoolCount": 1}, {"name": "Dothan City", "lat": 31.211309333333332, "lon": -85.38860366666665, "proficiency": 0.5867, "schoolCount": 3}, {"name": "Elba City", "lat": 31.427146, "lon": -86.10309, "proficiency": 0.345, "schoolCount": 1}, {"name": "Elmore County", "lat": 32.57759675, "lon": -86.233486, "proficiency": 0.47, "schoolCount": 4}, {"name": "Enterprise City", "lat": 31.3168825, "lon": -85.86346950000001, "proficiency": 0.57, "schoolCount": 2}, {"name": "Escambia County", "lat": 31.049121, "lon": -87.25034500000001, "proficiency": 0.495, "schoolCount": 4}, {"name": "Etowah County", "lat": 34.036673666666665, "lon": -86.035953, "proficiency": 0.4033, "schoolCount": 6}, {"name": "Eufaula City", "lat": 31.9009485, "lon": -85.14898550000001, "proficiency": 0.245, "schoolCount": 2}, {"name": "Fairfield City", "lat": 33.491187, "lon": -86.908318, "proficiency": 0.12, "schoolCount": 1}, {"name": "Fayette County", "lat": 33.72716666666667, "lon": -87.72256666666668, "proficiency": 0.3717, "schoolCount": 3}, {"name": "Florence City", "lat": 34.810501, "lon": -87.672245, "proficiency": 0.57, "schoolCount": 1}, {"name": "Fort Payne City", "lat": 34.4913, "lon": -85.6685, "proficiency": 0.42, "schoolCount": 1}, {"name": "Franklin County", "lat": 34.42470216666667, "lon": -87.83086183333334, "proficiency": 0.3683, "schoolCount": 6}, {"name": "Gadsden City", "lat": 34.010346, "lon": -86.00446199999999, "proficiency": 0.4033, "schoolCount": 3}, {"name": "Geneva City", "lat": 31.0426, "lon": -85.8798, "proficiency": 0.57, "schoolCount": 1}, {"name": "Geneva County", "lat": 31.104035666666665, "lon": -85.78369166666668, "proficiency": 0.445, "schoolCount": 3}, {"name": "Greene County", "lat": 32.848018, "lon": -87.900021, "proficiency": 0.025, "schoolCount": 1}, {"name": "Guntersville City", "lat": 34.3586, "lon": -86.3125, "proficiency": 0.52, "schoolCount": 1}, {"name": "Hale County", "lat": 32.8537455, "lon": -87.6039755, "proficiency": 0.27, "schoolCount": 2}, {"name": "Haleyville City", "lat": 34.227271, "lon": -87.609357, "proficiency": 0.52, "schoolCount": 1}, {"name": "Hartselle City", "lat": 34.435714, "lon": -86.932817, "proficiency": 0.72, "schoolCount": 1}, {"name": "Henry County", "lat": 31.469735, "lon": -85.3079275, "proficiency": 0.3325, "schoolCount": 2}, {"name": "Homewood City", "lat": 33.4777, "lon": -86.8115, "proficiency": 0.75, "schoolCount": 1}, {"name": "Houston County", "lat": 31.1770624, "lon": -85.3456498, "proficiency": 0.565, "schoolCount": 5}, {"name": "Huntsville City", "lat": 34.700562363636365, "lon": -86.5906830909091, "proficiency": 0.3955, "schoolCount": 11}, {"name": "Jackson County", "lat": 34.73949207692308, "lon": -85.87439461538462, "proficiency": 0.5596, "schoolCount": 13}, {"name": "Jacksonville City", "lat": 33.7881, "lon": -85.7784, "proficiency": 0.62, "schoolCount": 1}, {"name": "Jasper City", "lat": 33.83423, "lon": -87.257907, "proficiency": 0.42, "schoolCount": 1}, {"name": "Jefferson County", "lat": 33.60098766666667, "lon": -86.8562812, "proficiency": 0.2917, "schoolCount": 15}, {"name": "Lamar County", "lat": 33.736330333333335, "lon": -88.09680066666668, "proficiency": 0.4117, "schoolCount": 3}, {"name": "Lanett City", "lat": 32.8566, "lon": -85.197, "proficiency": 0.345, "schoolCount": 1}, {"name": "Lauderdale County", "lat": 34.90839171428571, "lon": -87.6016792857143, "proficiency": 0.4986, "schoolCount": 7}, {"name": "Lawrence County", "lat": 34.57148975, "lon": -87.29713325, "proficiency": 0.315, "schoolCount": 4}, {"name": "Lee County", "lat": 32.582835, "lon": -85.31604225, "proficiency": 0.4487, "schoolCount": 4}, {"name": "Limestone County", "lat": 34.861765285714284, "lon": -86.99694557142857, "proficiency": 0.3736, "schoolCount": 7}, {"name": "Linden City", "lat": 32.302028, "lon": -87.786982, "proficiency": 0.15, "schoolCount": 1}, {"name": "Lowndes County", "lat": 32.083819500000004, "lon": -86.574911, "proficiency": 0.1, "schoolCount": 2}, {"name": "Macon County", "lat": 32.4957865, "lon": -85.6904425, "proficiency": 0.185, "schoolCount": 2}, {"name": "Madison County", "lat": 34.775955857142854, "lon": -86.52690842857143, "proficiency": 0.605, "schoolCount": 7}, {"name": "Marengo County", "lat": 32.14270833333333, "lon": -87.76663333333333, "proficiency": 0.3483, "schoolCount": 3}, {"name": "Marion County", "lat": 34.1398404, "lon": -87.84016679999999, "proficiency": 0.411, "schoolCount": 5}, {"name": "Midfield City", "lat": 33.4494, "lon": -86.9422, "proficiency": 0.17, "schoolCount": 1}, {"name": "Mobile County", "lat": 30.695186333333336, "lon": -88.15460766666668, "proficiency": 0.3481, "schoolCount": 21}, {"name": "Monroe County", "lat": 31.5527352, "lon": -87.37114360000001, "proficiency": 0.27, "schoolCount": 5}, {"name": "Montgomery County", "lat": 32.32048866666667, "lon": -86.2684245, "proficiency": 0.245, "schoolCount": 12}, {"name": "Morgan County", "lat": 34.46198944444445, "lon": -86.83525666666667, "proficiency": 0.39, "schoolCount": 9}, {"name": "Mountain Brook City", "lat": 33.4933, "lon": -86.756, "proficiency": 0.89, "schoolCount": 1}, {"name": "Muscle Shoals City", "lat": 34.742884, "lon": -87.650306, "proficiency": 0.72, "schoolCount": 1}, {"name": "Oneonta City", "lat": 33.933883, "lon": -86.497175, "proficiency": 0.62, "schoolCount": 1}, {"name": "Opelika City", "lat": 32.6599, "lon": -85.3848, "proficiency": 0.5, "schoolCount": 1}, {"name": "Opp City", "lat": 31.287, "lon": -86.2519, "proficiency": 0.37, "schoolCount": 1}, {"name": "Oxford City", "lat": 33.5965, "lon": -85.8762, "proficiency": 0.48, "schoolCount": 1}, {"name": "Ozark City", "lat": 31.453126, "lon": -85.653486, "proficiency": 0.37, "schoolCount": 1}, {"name": "Pell City", "lat": 33.583875, "lon": -86.294403, "proficiency": 0.52, "schoolCount": 1}, {"name": "Perry County", "lat": 32.5369385, "lon": -87.427071, "proficiency": 0.1, "schoolCount": 2}, {"name": "Phenix City", "lat": 32.4369, "lon": -85.0014, "proficiency": 0.45, "schoolCount": 1}, {"name": "Pickens County", "lat": 33.3501315, "lon": -87.960689, "proficiency": 0.235, "schoolCount": 2}, {"name": "Piedmont City", "lat": 33.92748, "lon": -85.61436, "proficiency": 0.42, "schoolCount": 1}, {"name": "Pike County", "lat": 31.750697000000002, "lon": -85.92680933333334, "proficiency": 0.445, "schoolCount": 3}, {"name": "Randolph County", "lat": 33.240534, "lon": -85.435082, "proficiency": 0.3262, "schoolCount": 4}, {"name": "Roanoke City", "lat": 33.14823, "lon": -85.350879, "proficiency": 0.37, "schoolCount": 1}, {"name": "Russell County", "lat": 32.331138, "lon": -85.155867, "proficiency": 0.42, "schoolCount": 1}, {"name": "Russellville City", "lat": 34.5287, "lon": -87.74, "proficiency": 0.42, "schoolCount": 1}, {"name": "Scottsboro City", "lat": 34.6544, "lon": -86.0403, "proficiency": 0.52, "schoolCount": 1}, {"name": "Selma City", "lat": 32.422673, "lon": -87.032152, "proficiency": 0.12, "schoolCount": 1}, {"name": "Sheffield City", "lat": 34.7702, "lon": -87.6896, "proficiency": 0.52, "schoolCount": 1}, {"name": "Shelby County", "lat": 33.25522071428571, "lon": -86.7008002857143, "proficiency": 0.5471, "schoolCount": 7}, {"name": "St Clair County", "lat": 33.76140916666667, "lon": -86.32424033333332, "proficiency": 0.5375, "schoolCount": 6}, {"name": "Sumter County", "lat": 32.49712133333333, "lon": -88.28711366666666, "proficiency": 0.2317, "schoolCount": 3}, {"name": "Sylacauga City", "lat": 33.1877, "lon": -86.2401, "proficiency": 0.42, "schoolCount": 1}, {"name": "Talladega City", "lat": 33.4327, "lon": -86.0933, "proficiency": 0.17, "schoolCount": 1}, {"name": "Talladega County", "lat": 33.36776142857143, "lon": -86.20250171428572, "proficiency": 0.3429, "schoolCount": 7}, {"name": "Tallapoosa County", "lat": 32.815723, "lon": -85.78704066666667, "proficiency": 0.42, "schoolCount": 3}, {"name": "Tallassee City", "lat": 32.5266, "lon": -85.8942, "proficiency": 0.32, "schoolCount": 1}, {"name": "Tarrant City", "lat": 33.614075, "lon": -86.773092, "proficiency": 0.12, "schoolCount": 1}, {"name": "Thomasville City", "lat": 31.8857, "lon": -87.7367, "proficiency": 0.22, "schoolCount": 1}, {"name": "Troy City", "lat": 31.8094, "lon": -85.9523, "proficiency": 0.32, "schoolCount": 1}, {"name": "Tuscaloosa City", "lat": 33.206732599999995, "lon": -87.517022, "proficiency": 0.462, "schoolCount": 5}, {"name": "Tuscaloosa County", "lat": 33.21815625, "lon": -87.53366137500001, "proficiency": 0.4387, "schoolCount": 8}, {"name": "Tuscumbia City", "lat": 34.7388, "lon": -87.6969, "proficiency": 0.37, "schoolCount": 1}, {"name": "Vestavia Hills City", "lat": 33.450755, "lon": -86.7414085, "proficiency": 0.825, "schoolCount": 2}, {"name": "Walker County", "lat": 33.837072285714285, "lon": -87.27719614285715, "proficiency": 0.3986, "schoolCount": 7}, {"name": "Washington County", "lat": 31.440503, "lon": -88.19353, "proficiency": 0.361, "schoolCount": 5}, {"name": "Wilcox County", "lat": 31.99494, "lon": -87.294977, "proficiency": 0.12, "schoolCount": 1}, {"name": "Winfield City", "lat": 33.933197, "lon": -87.811801, "proficiency": 0.47, "schoolCount": 1}, {"name": "Winston County", "lat": 34.123877, "lon": -87.3352745, "proficiency": 0.5025, "schoolCount": 4}], "cities": [{"name": "Albertville", "lat": 34.31135, "lon": -86.1741, "proficiency": 0.41, "schoolCount": 2}, {"name": "Grant", "lat": 34.53375, "lon": -86.254153, "proficiency": 0.42, "schoolCount": 1}, {"name": "Guntersville", "lat": 34.3675, "lon": -86.3672, "proficiency": 0.37, "schoolCount": 2}, {"name": "Douglas", "lat": 34.177536, "lon": -86.320895, "proficiency": 0.42, "schoolCount": 1}, {"name": "Hoover", "lat": 33.37147433333333, "lon": -86.80689866666667, "proficiency": 0.73, "schoolCount": 3}, {"name": "Madison", "lat": 34.73725, "lon": -86.76095000000001, "proficiency": 0.745, "schoolCount": 2}, {"name": "Leeds", "lat": 33.54936, "lon": -86.536894, "proficiency": 0.57, "schoolCount": 1}, {"name": "Boaz", "lat": 34.213512, "lon": -86.161369, "proficiency": 0.37, "schoolCount": 1}, {"name": "Trussville", "lat": 33.675839999999994, "lon": -86.59575699999999, "proficiency": 0.445, "schoolCount": 2}, {"name": "Alexander City", "lat": 32.9451, "lon": -85.9488, "proficiency": 0.47, "schoolCount": 1}, {"name": "Andalusia", "lat": 31.287179666666663, "lon": -86.500154, "proficiency": 0.5283, "schoolCount": 3}, {"name": "Anniston", "lat": 33.6963965, "lon": -85.802742, "proficiency": 0.3075, "schoolCount": 4}, {"name": "Arab", "lat": 34.3124, "lon": -86.5105, "proficiency": 0.72, "schoolCount": 1}, {"name": "Athens", "lat": 34.8088338, "lon": -86.99556079999999, "proficiency": 0.415, "schoolCount": 5}, {"name": "Attalla", "lat": 33.995704, "lon": -86.112782, "proficiency": 0.42, "schoolCount": 1}, {"name": "Saraland", "lat": 30.8313, "lon": -88.065367, "proficiency": 0.72, "schoolCount": 1}, {"name": "Chickasaw", "lat": 30.757103, "lon": -88.078474, "proficiency": 0.12, "schoolCount": 1}, {"name": "Satsuma", "lat": 30.8471, "lon": -88.0569, "proficiency": 0.47, "schoolCount": 1}, {"name": "Alabaster", "lat": 33.220563, "lon": -86.833045, "proficiency": 0.63, "schoolCount": 1}, {"name": "Pelham", "lat": 33.30662, "lon": -86.808097, "proficiency": 0.47, "schoolCount": 1}, {"name": "Pike Road", "lat": 32.355003, "lon": -86.102682, "proficiency": 0.42, "schoolCount": 1}, {"name": "Livingston", "lat": 32.56195066666667, "lon": -88.22933599999999, "proficiency": 0.4, "schoolCount": 3}, {"name": "Auburn", "lat": 32.596469, "lon": -85.463119, "proficiency": 0.74, "schoolCount": 1}, {"name": "Billingsley", "lat": 32.663571, "lon": -86.700747, "proficiency": 0.345, "schoolCount": 1}, {"name": "Prattville", "lat": 32.4849, "lon": -86.4706, "proficiency": 0.71, "schoolCount": 1}, {"name": "Autaugaville", "lat": 32.433931, "lon": -86.659977, "proficiency": 0.1, "schoolCount": 1}, {"name": "Marbury", "lat": 32.700293, "lon": -86.474055, "proficiency": 0.42, "schoolCount": 1}, {"name": "Daphne", "lat": 30.6008775, "lon": -87.884913, "proficiency": 0.6525, "schoolCount": 2}, {"name": "Elberta", "lat": 30.4198, "lon": -87.5998, "proficiency": 0.52, "schoolCount": 1}, {"name": "Fairhope", "lat": 30.495443, "lon": -87.881755, "proficiency": 0.75, "schoolCount": 1}, {"name": "Foley", "lat": 30.407235, "lon": -87.688472, "proficiency": 0.42, "schoolCount": 1}, {"name": "Perdido", "lat": 31.00521, "lon": -87.622619, "proficiency": 0.545, "schoolCount": 1}, {"name": "Summerdale", "lat": 30.488992, "lon": -87.695046, "proficiency": 0.545, "schoolCount": 1}, {"name": "Robertsdale", "lat": 30.582716, "lon": -87.727747, "proficiency": 0.46, "schoolCount": 1}, {"name": "Bay Minette", "lat": 30.8938, "lon": -87.7807, "proficiency": 0.37, "schoolCount": 1}, {"name": "Spanish Fort", "lat": 30.71514, "lon": -87.853961, "proficiency": 0.69, "schoolCount": 1}, {"name": "Clayton", "lat": 31.868278, "lon": -85.44613, "proficiency": 0.05, "schoolCount": 1}, {"name": "Bessemer", "lat": 33.419164499999994, "lon": -87.072458, "proficiency": 0.22, "schoolCount": 2}, {"name": "Centreville", "lat": 32.943214, "lon": -87.115079, "proficiency": 0.37, "schoolCount": 1}, {"name": "West Blocton", "lat": 33.1127, "lon": -87.1313, "proficiency": 0.37, "schoolCount": 1}, {"name": "Birmingham", "lat": 33.5259350625, "lon": -86.799808875, "proficiency": 0.2053, "schoolCount": 16}, {"name": "Irondale", "lat": 33.536218, "lon": -86.689379, "proficiency": 0.195, "schoolCount": 2}, {"name": "Oneonta", "lat": 33.910891500000005, "lon": -86.4471375, "proficiency": 0.4325, "schoolCount": 2}, {"name": "Cleveland", "lat": 33.9932, "lon": -86.5736, "proficiency": 0.32, "schoolCount": 1}, {"name": "Hayden", "lat": 33.8869, "lon": -86.7681, "proficiency": 0.52, "schoolCount": 1}, {"name": "Blountsville", "lat": 34.0843, "lon": -86.50955, "proficiency": 0.22, "schoolCount": 2}, {"name": "Locust Fork", "lat": 33.9084, "lon": -86.6179, "proficiency": 0.42, "schoolCount": 1}, {"name": "Remlap", "lat": 33.830801, "lon": -86.58307, "proficiency": 0.52, "schoolCount": 1}, {"name": "Brewton", "lat": 31.107187, "lon": -87.1146505, "proficiency": 0.6075, "schoolCount": 2}, {"name": "Union Springs", "lat": 32.132765, "lon": -85.720119, "proficiency": 0.12, "schoolCount": 1}, {"name": "Greenville", "lat": 31.8381, "lon": -86.6253, "proficiency": 0.17, "schoolCount": 1}, {"name": "McKenzie", "lat": 31.545343, "lon": -86.715153, "proficiency": 0.3, "schoolCount": 1}, {"name": "Georgiana", "lat": 31.628096, "lon": -86.728948, "proficiency": 0.3, "schoolCount": 1}, {"name": "Ohatchee", "lat": 33.786, "lon": -86.0014, "proficiency": 0.42, "schoolCount": 1}, {"name": "Weaver", "lat": 33.7471, "lon": -85.8309, "proficiency": 0.32, "schoolCount": 1}, {"name": "Jacksonville", "lat": 33.836792, "lon": -85.79736199999999, "proficiency": 0.62, "schoolCount": 2}, {"name": "Alexandria", "lat": 33.773599, "lon": -85.88708, "proficiency": 0.27, "schoolCount": 1}, {"name": "Five Points", "lat": 33.017341, "lon": -85.34369, "proficiency": 0.245, "schoolCount": 1}, {"name": "Lafayette", "lat": 32.897981, "lon": -85.393991, "proficiency": 0.15, "schoolCount": 1}, {"name": "Valley", "lat": 32.7586, "lon": -85.19229999999999, "proficiency": 0.37, "schoolCount": 2}, {"name": "Cedar Bluff", "lat": 34.2198, "lon": -85.6045, "proficiency": 0.845, "schoolCount": 1}, {"name": "Centre", "lat": 34.135634, "lon": -85.651107, "proficiency": 0.47, "schoolCount": 1}, {"name": "Gaylesville", "lat": 34.2711, "lon": -85.56, "proficiency": 0.345, "schoolCount": 1}, {"name": "Sand Rock", "lat": 34.241, "lon": -85.7674, "proficiency": 0.62, "schoolCount": 1}, {"name": "Spring Garden", "lat": 33.985365, "lon": -85.542865, "proficiency": 0.445, "schoolCount": 1}, {"name": "Maplesville", "lat": 32.8159, "lon": -86.832, "proficiency": 0.395, "schoolCount": 2}, {"name": "Thorsby", "lat": 32.9136, "lon": -86.7163, "proficiency": 0.245, "schoolCount": 1}, {"name": "Clanton", "lat": 32.8262, "lon": -86.6132, "proficiency": 0.47, "schoolCount": 1}, {"name": "Verbena", "lat": 32.749, "lon": -86.5088, "proficiency": 0.15, "schoolCount": 1}, {"name": "Jemison", "lat": 32.964356, "lon": -86.747493, "proficiency": 0.32, "schoolCount": 1}, {"name": "Butler", "lat": 32.0798, "lon": -88.2332, "proficiency": 0.05, "schoolCount": 1}, {"name": "Gilbertown", "lat": 31.8429, "lon": -88.3193, "proficiency": 0.05, "schoolCount": 1}, {"name": "Jackson", "lat": 31.5129, "lon": -87.8947, "proficiency": 0.37, "schoolCount": 1}, {"name": "Grove Hill", "lat": 31.703243, "lon": -87.764353, "proficiency": 0.345, "schoolCount": 1}, {"name": "Lineville", "lat": 33.290823, "lon": -85.787937, "proficiency": 0.32, "schoolCount": 1}, {"name": "Heflin", "lat": 33.648138, "lon": -85.571924, "proficiency": 0.37, "schoolCount": 1}, {"name": "Ranburne", "lat": 33.523373, "lon": -85.346519, "proficiency": 0.52, "schoolCount": 1}, {"name": "Kinston", "lat": 31.221294, "lon": -86.169864, "proficiency": 0.445, "schoolCount": 1}, {"name": "Jack", "lat": 31.566525, "lon": -86.010259, "proficiency": 0.645, "schoolCount": 1}, {"name": "New Brockton", "lat": 31.380382, "lon": -85.935457, "proficiency": 0.42, "schoolCount": 1}, {"name": "Cherokee", "lat": 34.7657, "lon": -87.9633, "proficiency": 0.345, "schoolCount": 1}, {"name": "Leighton", "lat": 34.6955, "lon": -87.5244, "proficiency": 0.32, "schoolCount": 1}, {"name": "Tuscumbia", "lat": 34.704117, "lon": -87.69886650000001, "proficiency": 0.37, "schoolCount": 2}, {"name": "Castleberry", "lat": 31.2972, "lon": -87.0313, "proficiency": 0.245, "schoolCount": 1}, {"name": "Evergreen", "lat": 31.46542666666667, "lon": -86.958708, "proficiency": 0.3617, "schoolCount": 3}, {"name": "Repton", "lat": 31.4115, "lon": -87.2345, "proficiency": 0.245, "schoolCount": 1}, {"name": "Rockford", "lat": 33.006452, "lon": -86.201187, "proficiency": 0.17, "schoolCount": 1}, {"name": "Opp", "lat": 31.308349999999997, "lon": -86.24845, "proficiency": 0.335, "schoolCount": 2}, {"name": "Florala", "lat": 31.0028, "lon": -86.3368, "proficiency": 0.15, "schoolCount": 1}, {"name": "Brantley", "lat": 31.590445, "lon": -86.255144, "proficiency": 0.345, "schoolCount": 1}, {"name": "Highland Home", "lat": 31.953, "lon": -86.3135, "proficiency": 0.345, "schoolCount": 1}, {"name": "Luverne", "lat": 31.7132, "lon": -86.2754, "proficiency": 0.345, "schoolCount": 1}, {"name": "Cullman", "lat": 34.1910865, "lon": -86.8177755, "proficiency": 0.5262, "schoolCount": 4}, {"name": "Baileyton", "lat": 34.2681, "lon": -86.6104, "proficiency": 0.495, "schoolCount": 1}, {"name": "Bremen", "lat": 33.981296, "lon": -87.032279, "proficiency": 0.57, "schoolCount": 1}, {"name": "Hanceville", "lat": 34.0611, "lon": -86.7614, "proficiency": 0.52, "schoolCount": 1}, {"name": "Vinemont", "lat": 34.2375105, "lon": -86.91440349999999, "proficiency": 0.545, "schoolCount": 2}, {"name": "Logan", "lat": 34.1426, "lon": -87.0685, "proficiency": 0.495, "schoolCount": 1}, {"name": "Ariton", "lat": 31.602171, "lon": -85.721035, "proficiency": 0.82, "schoolCount": 1}, {"name": "Skipperville", "lat": 31.559, "lon": -85.5509, "proficiency": 0.92, "schoolCount": 1}, {"name": "Pinckard", "lat": 31.316538, "lon": -85.547018, "proficiency": 0.57, "schoolCount": 1}, {"name": "Daleville", "lat": 31.316204, "lon": -85.709728, "proficiency": 0.27, "schoolCount": 1}, {"name": "Orrville", "lat": 32.292538, "lon": -87.235715, "proficiency": 0.1, "schoolCount": 1}, {"name": "Selma", "lat": 32.396778499999996, "lon": -87.0241535, "proficiency": 0.0725, "schoolCount": 2}, {"name": "Valley Grande", "lat": 32.498767, "lon": -86.98365, "proficiency": 0.37, "schoolCount": 1}, {"name": "Collinsville", "lat": 34.254667, "lon": -85.868708, "proficiency": 0.27, "schoolCount": 1}, {"name": "Fyffe", "lat": 34.449581, "lon": -85.90418, "proficiency": 0.47, "schoolCount": 1}, {"name": "Geraldine", "lat": 34.351037, "lon": -86.003186, "proficiency": 0.22, "schoolCount": 1}, {"name": "Henagar", "lat": 34.634207, "lon": -85.768495, "proficiency": 0.75, "schoolCount": 1}, {"name": "Ider", "lat": 34.712183, "lon": -85.675401, "proficiency": 0.37, "schoolCount": 1}, {"name": "Rainsville", "lat": 34.482932, "lon": -85.822258, "proficiency": 0.47, "schoolCount": 1}, {"name": "Fort Payne", "lat": 34.4228605, "lon": -85.7031125, "proficiency": 0.3325, "schoolCount": 2}, {"name": "Sylvania", "lat": 34.564558, "lon": -85.814556, "proficiency": 0.67, "schoolCount": 1}, {"name": "Valley Head", "lat": 34.564117, "lon": -85.614128, "proficiency": 0.645, "schoolCount": 1}, {"name": "Crossville", "lat": 34.288709, "lon": -85.995136, "proficiency": 0.37, "schoolCount": 1}, {"name": "Decatur", "lat": 34.567306333333335, "lon": -86.96035499999999, "proficiency": 0.5267, "schoolCount": 3}, {"name": "Demopolis", "lat": 32.5097, "lon": -87.8337, "proficiency": 0.32, "schoolCount": 1}, {"name": "Dothan", "lat": 31.211309333333332, "lon": -85.38860366666665, "proficiency": 0.5867, "schoolCount": 3}, {"name": "Elba", "lat": 31.427146, "lon": -86.10309, "proficiency": 0.345, "schoolCount": 1}, {"name": "Wetumpka", "lat": 32.547487, "lon": -86.221644, "proficiency": 0.42, "schoolCount": 1}, {"name": "Eclectic", "lat": 32.6343, "lon": -86.0254, "proficiency": 0.42, "schoolCount": 1}, {"name": "Deatsville", "lat": 32.6302, "lon": -86.3249, "proficiency": 0.52, "schoolCount": 1}, {"name": "Millbrook", "lat": 32.4984, "lon": -86.362, "proficiency": 0.52, "schoolCount": 1}, {"name": "Enterprise", "lat": 31.3168825, "lon": -85.86346950000001, "proficiency": 0.57, "schoolCount": 2}, {"name": "Atmore", "lat": 31.045897, "lon": -87.494653, "proficiency": 0.42, "schoolCount": 1}, {"name": "Flomaton", "lat": 31.006, "lon": -87.2699, "proficiency": 0.645, "schoolCount": 1}, {"name": "East Brewton", "lat": 31.0845, "lon": -87.0661, "proficiency": 0.42, "schoolCount": 1}, {"name": "Gadsden", "lat": 34.024838, "lon": -85.9850565, "proficiency": 0.3638, "schoolCount": 4}, {"name": "Hokes Bluff", "lat": 33.995284, "lon": -85.870337, "proficiency": 0.32, "schoolCount": 1}, {"name": "Walnut Grove", "lat": 34.0638, "lon": -86.3025, "proficiency": 0.445, "schoolCount": 1}, {"name": "Glencoe", "lat": 33.9687, "lon": -85.9353, "proficiency": 0.47, "schoolCount": 1}, {"name": "Rainbow City", "lat": 33.9472, "lon": -86.0621, "proficiency": 0.57, "schoolCount": 1}, {"name": "Sardis City", "lat": 34.176744, "lon": -86.118641, "proficiency": 0.37, "schoolCount": 1}, {"name": "Eufaula", "lat": 31.9009485, "lon": -85.14898550000001, "proficiency": 0.245, "schoolCount": 2}, {"name": "Fairfield", "lat": 33.491187, "lon": -86.908318, "proficiency": 0.12, "schoolCount": 1}, {"name": "Berry", "lat": 33.663, "lon": -87.599, "proficiency": 0.545, "schoolCount": 1}, {"name": "Fayette", "lat": 33.75925, "lon": -87.78435, "proficiency": 0.285, "schoolCount": 2}, {"name": "Florence", "lat": 34.89994933333333, "lon": -87.62168566666666, "proficiency": 0.5533, "schoolCount": 3}, {"name": "Russellville", "lat": 34.50979533333333, "lon": -87.74168533333334, "proficiency": 0.3383, "schoolCount": 3}, {"name": "Phil Campbell", "lat": 34.3668055, "lon": -87.6529235, "proficiency": 0.485, "schoolCount": 2}, {"name": "Red Bay", "lat": 34.4354, "lon": -88.1381, "proficiency": 0.545, "schoolCount": 1}, {"name": "Vina", "lat": 34.378516, "lon": -88.056168, "proficiency": 0.1, "schoolCount": 1}, {"name": "Geneva", "lat": 31.0426, "lon": -85.8798, "proficiency": 0.57, "schoolCount": 1}, {"name": "Samson", "lat": 31.117792, "lon": -86.049316, "proficiency": 0.445, "schoolCount": 1}, {"name": "Hartford", "lat": 31.095832, "lon": -85.700153, "proficiency": 0.47, "schoolCount": 1}, {"name": "Slocomb", "lat": 31.098483, "lon": -85.601606, "proficiency": 0.42, "schoolCount": 1}, {"name": "Eutaw", "lat": 32.848018, "lon": -87.900021, "proficiency": 0.025, "schoolCount": 1}, {"name": "Greensboro", "lat": 32.707676, "lon": -87.587697, "proficiency": 0.22, "schoolCount": 1}, {"name": "Moundville", "lat": 32.999815, "lon": -87.620254, "proficiency": 0.32, "schoolCount": 1}, {"name": "Haleyville", "lat": 34.227271, "lon": -87.609357, "proficiency": 0.52, "schoolCount": 1}, {"name": "Hartselle", "lat": 34.442206999999996, "lon": -86.8880085, "proficiency": 0.41, "schoolCount": 2}, {"name": "Abbeville", "lat": 31.5821, "lon": -85.2782, "proficiency": 0.345, "schoolCount": 1}, {"name": "Headland", "lat": 31.35737, "lon": -85.337655, "proficiency": 0.32, "schoolCount": 1}, {"name": "Homewood", "lat": 33.4777, "lon": -86.8115, "proficiency": 0.75, "schoolCount": 1}, {"name": "Ashford", "lat": 31.183743, "lon": -85.23222, "proficiency": 0.47, "schoolCount": 1}, {"name": "Cottonwood", "lat": 31.056759, "lon": -85.301665, "proficiency": 0.57, "schoolCount": 1}, {"name": "Columbia", "lat": 31.293671, "lon": -85.113249, "proficiency": 0.545, "schoolCount": 1}, {"name": "Newton", "lat": 31.2256, "lon": -85.6333, "proficiency": 0.67, "schoolCount": 1}, {"name": "Rehobeth", "lat": 31.125539, "lon": -85.447815, "proficiency": 0.57, "schoolCount": 1}, {"name": "Huntsville", "lat": 34.716709, "lon": -86.59911725, "proficiency": 0.4083, "schoolCount": 12}, {"name": "Hampton Cove", "lat": 34.662478, "lon": -86.478307, "proficiency": 0.77, "schoolCount": 1}, {"name": "Bridgeport", "lat": 34.9442, "lon": -85.7146, "proficiency": 0.495, "schoolCount": 1}, {"name": "Bryant", "lat": 34.9386, "lon": -85.627, "proficiency": 0.695, "schoolCount": 1}, {"name": "Dutton", "lat": 34.6084, "lon": -85.9172, "proficiency": 0.695, "schoolCount": 1}, {"name": "Flat Rock", "lat": 34.7691, "lon": -85.6945, "proficiency": 0.75, "schoolCount": 1}, {"name": "Hollywood", "lat": 34.7223, "lon": -85.9691, "proficiency": 0.75, "schoolCount": 1}, {"name": "Higdon", "lat": 34.848784, "lon": -85.624029, "proficiency": 0.645, "schoolCount": 1}, {"name": "Pisgah", "lat": 34.69125, "lon": -85.804, "proficiency": 0.4225, "schoolCount": 2}, {"name": "Section", "lat": 34.549337, "lon": -85.9903885, "proficiency": 0.57, "schoolCount": 2}, {"name": "Scottsboro", "lat": 34.7347145, "lon": -86.0826565, "proficiency": 0.5075, "schoolCount": 2}, {"name": "Woodville", "lat": 34.62291, "lon": -86.272311, "proficiency": 0.445, "schoolCount": 1}, {"name": "Stevenson", "lat": 34.8629, "lon": -85.8346, "proficiency": 0.32, "schoolCount": 1}, {"name": "Jasper", "lat": 33.87273733333333, "lon": -87.21725533333334, "proficiency": 0.4867, "schoolCount": 3}, {"name": "Adamsville", "lat": 33.5945, "lon": -86.9329, "proficiency": 0.12, "schoolCount": 1}, {"name": "Gardendale", "lat": 33.646431, "lon": -86.816807, "proficiency": 0.47, "schoolCount": 1}, {"name": "Warrior", "lat": 33.7143155, "lon": -86.858454, "proficiency": 0.32, "schoolCount": 2}, {"name": "Hueytown", "lat": 33.4371, "lon": -86.9871, "proficiency": 0.15, "schoolCount": 1}, {"name": "Pleasant Grove", "lat": 33.4928165, "lon": -86.9849935, "proficiency": 0.47, "schoolCount": 2}, {"name": "Pinson", "lat": 33.7017, "lon": -86.6804, "proficiency": 0.17, "schoolCount": 1}, {"name": "Morris", "lat": 33.758045, "lon": -86.811093, "proficiency": 0.245, "schoolCount": 1}, {"name": "Kimberly", "lat": 33.7797, "lon": -86.8046, "proficiency": 0.52, "schoolCount": 1}, {"name": "McCalla", "lat": 33.328033, "lon": -87.002845, "proficiency": 0.32, "schoolCount": 1}, {"name": "Center Point", "lat": 33.645044, "lon": -86.699344, "proficiency": 0.12, "schoolCount": 1}, {"name": "Sulligent", "lat": 33.8983, "lon": -88.1298, "proficiency": 0.32, "schoolCount": 1}, {"name": "Vernon", "lat": 33.748591, "lon": -88.123202, "proficiency": 0.27, "schoolCount": 1}, {"name": "Millport", "lat": 33.5621, "lon": -88.0374, "proficiency": 0.645, "schoolCount": 1}, {"name": "Lanett", "lat": 32.8566, "lon": -85.197, "proficiency": 0.345, "schoolCount": 1}, {"name": "Killen", "lat": 34.8579, "lon": -87.494, "proficiency": 0.52, "schoolCount": 1}, {"name": "Florrence", "lat": 34.896864, "lon": -87.796059, "proficiency": 0.72, "schoolCount": 1}, {"name": "Rogersville", "lat": 34.828233, "lon": -87.290232, "proficiency": 0.57, "schoolCount": 1}, {"name": "Lexington", "lat": 34.967822, "lon": -87.374157, "proficiency": 0.345, "schoolCount": 1}, {"name": "Waterloo", "lat": 34.918576, "lon": -88.064495, "proficiency": 0.245, "schoolCount": 1}, {"name": "Courtland", "lat": 34.6815, "lon": -87.3096, "proficiency": 0.1, "schoolCount": 1}, {"name": "Trinity", "lat": 34.57645, "lon": -87.1259, "proficiency": 0.32, "schoolCount": 2}, {"name": "Town Creek", "lat": 34.561365, "lon": -87.415366, "proficiency": 0.47, "schoolCount": 1}, {"name": "Moulton", "lat": 34.475594, "lon": -87.290467, "proficiency": 0.37, "schoolCount": 1}, {"name": "Loachapoka", "lat": 32.589056, "lon": -85.579499, "proficiency": 0.245, "schoolCount": 1}, {"name": "Opelika", "lat": 32.57815, "lon": -85.39075, "proficiency": 0.56, "schoolCount": 2}, {"name": "Smiths Station", "lat": 32.535084, "lon": -85.09977, "proficiency": 0.51, "schoolCount": 1}, {"name": "Ardmore", "lat": 34.9881, "lon": -86.8478, "proficiency": 0.42, "schoolCount": 1}, {"name": "Tanner", "lat": 34.7327, "lon": -86.9743, "proficiency": 0.345, "schoolCount": 1}, {"name": "Lester", "lat": 34.9396, "lon": -87.1238, "proficiency": 0.42, "schoolCount": 1}, {"name": "Elkmont", "lat": 34.931313, "lon": -86.969672, "proficiency": 0.32, "schoolCount": 1}, {"name": "Linden", "lat": 32.302028, "lon": -87.786982, "proficiency": 0.15, "schoolCount": 1}, {"name": "Hayneville", "lat": 32.182873, "lon": -86.578561, "proficiency": 0.05, "schoolCount": 1}, {"name": "Fort Deposit", "lat": 31.984766, "lon": -86.571261, "proficiency": 0.15, "schoolCount": 1}, {"name": "Notasulga", "lat": 32.581389, "lon": -85.7325385, "proficiency": 0.285, "schoolCount": 2}, {"name": "Tuskegee Institute", "lat": 32.4318, "lon": -85.7184, "proficiency": 0.27, "schoolCount": 1}, {"name": "New Hope", "lat": 34.5398, "lon": -86.401, "proficiency": 0.62, "schoolCount": 1}, {"name": "Gurley", "lat": 34.70267, "lon": -86.375209, "proficiency": 0.645, "schoolCount": 1}, {"name": "Hazel Green", "lat": 34.8923, "lon": -86.5744, "proficiency": 0.62, "schoolCount": 1}, {"name": "Toney", "lat": 34.868, "lon": -86.7132, "proficiency": 0.42, "schoolCount": 1}, {"name": "New Market", "lat": 34.872121, "lon": -86.45435, "proficiency": 0.61, "schoolCount": 1}, {"name": "Thomaston", "lat": 32.279591, "lon": -87.631964, "proficiency": 0.1, "schoolCount": 1}, {"name": "Dixons Mills", "lat": 32.05074, "lon": -87.80225, "proficiency": 0.1, "schoolCount": 1}, {"name": "Sweet Water", "lat": 32.097794, "lon": -87.865686, "proficiency": 0.845, "schoolCount": 1}, {"name": "Brilliant", "lat": 34.02702, "lon": -87.762709, "proficiency": 0.3, "schoolCount": 1}, {"name": "Guin", "lat": 33.97409, "lon": -87.915616, "proficiency": 0.645, "schoolCount": 1}, {"name": "Hackleburg", "lat": 34.280192, "lon": -87.833809, "proficiency": 0.445, "schoolCount": 1}, {"name": "Hamilton", "lat": 34.1386, "lon": -87.9913, "proficiency": 0.42, "schoolCount": 1}, {"name": "Bear Creek", "lat": 34.2793, "lon": -87.6974, "proficiency": 0.245, "schoolCount": 1}, {"name": "Midfield", "lat": 33.4494, "lon": -86.9422, "proficiency": 0.17, "schoolCount": 1}, {"name": "Bayou La Batre", "lat": 30.3961, "lon": -88.2473, "proficiency": 0.37, "schoolCount": 1}, {"name": "Mobile", "lat": 30.690999933333334, "lon": -88.12476993333333, "proficiency": 0.3383, "schoolCount": 15}, {"name": "Grand Bay", "lat": 30.4804, "lon": -88.3456, "proficiency": 0.42, "schoolCount": 1}, {"name": "Semmes", "lat": 30.7863, "lon": -88.2904, "proficiency": 0.36, "schoolCount": 1}, {"name": "Theodore", "lat": 30.5526, "lon": -88.1751, "proficiency": 0.27, "schoolCount": 1}, {"name": "Citronelle", "lat": 31.0608, "lon": -88.2318, "proficiency": 0.47, "schoolCount": 1}, {"name": "Axis", "lat": 30.957714, "lon": -88.085012, "proficiency": 0.345, "schoolCount": 1}, {"name": "Excel", "lat": 31.431873, "lon": -87.341907, "proficiency": 0.42, "schoolCount": 1}, {"name": "Beatrice", "lat": 31.7331, "lon": -87.1968, "proficiency": 0.245, "schoolCount": 1}, {"name": "Uriah", "lat": 31.3014, "lon": -87.501171, "proficiency": 0.27, "schoolCount": 1}, {"name": "Lower Peach Tree", "lat": 31.77332, "lon": -87.485795, "proficiency": 0.245, "schoolCount": 1}, {"name": "Monroeville", "lat": 31.523983, "lon": -87.330045, "proficiency": 0.17, "schoolCount": 1}, {"name": "Montgomery", "lat": 32.34538763636363, "lon": -86.27249036363636, "proficiency": 0.2582, "schoolCount": 11}, {"name": "Ramer", "lat": 32.0466, "lon": -86.2237, "proficiency": 0.1, "schoolCount": 1}, {"name": "Danville", "lat": 34.4157, "lon": -87.0937, "proficiency": 0.47, "schoolCount": 1}, {"name": "Somerville", "lat": 34.473600000000005, "lon": -86.66024999999999, "proficiency": 0.295, "schoolCount": 2}, {"name": "Eva", "lat": 34.3339, "lon": -86.764, "proficiency": 0.545, "schoolCount": 1}, {"name": "Falkville", "lat": 34.3663, "lon": -86.9123, "proficiency": 0.32, "schoolCount": 1}, {"name": "Laceys Spring", "lat": 34.5331, "lon": -86.6055, "proficiency": 0.545, "schoolCount": 1}, {"name": "Mountain Brk", "lat": 33.4933, "lon": -86.756, "proficiency": 0.89, "schoolCount": 1}, {"name": "Muscle Shoals", "lat": 34.742884, "lon": -87.650306, "proficiency": 0.72, "schoolCount": 1}, {"name": "Oxford", "lat": 33.5965, "lon": -85.8762, "proficiency": 0.48, "schoolCount": 1}, {"name": "Ozark", "lat": 31.453126, "lon": -85.653486, "proficiency": 0.37, "schoolCount": 1}, {"name": "Pell City", "lat": 33.583875, "lon": -86.294403, "proficiency": 0.52, "schoolCount": 1}, {"name": "Uniontown", "lat": 32.444751, "lon": -87.517523, "proficiency": 0.15, "schoolCount": 1}, {"name": "Marion", "lat": 32.629126, "lon": -87.336619, "proficiency": 0.05, "schoolCount": 1}, {"name": "Phenix City", "lat": 32.4369, "lon": -85.0014, "proficiency": 0.45, "schoolCount": 1}, {"name": "Reform", "lat": 33.375263, "lon": -88.014678, "proficiency": 0.3, "schoolCount": 1}, {"name": "Gordo", "lat": 33.325, "lon": -87.9067, "proficiency": 0.17, "schoolCount": 1}, {"name": "Piedmont", "lat": 33.92748, "lon": -85.61436, "proficiency": 0.42, "schoolCount": 1}, {"name": "Banks", "lat": 31.8179, "lon": -85.8386, "proficiency": 0.445, "schoolCount": 1}, {"name": "Brundidge", "lat": 31.7112, "lon": -85.8179, "proficiency": 0.47, "schoolCount": 1}, {"name": "Goshen", "lat": 31.722991, "lon": -86.123928, "proficiency": 0.42, "schoolCount": 1}, {"name": "Wedowee", "lat": 33.311588, "lon": -85.478044, "proficiency": 0.37, "schoolCount": 1}, {"name": "Roanoke", "lat": 33.150786999999994, "lon": -85.3220515, "proficiency": 0.3075, "schoolCount": 2}, {"name": "Wadley", "lat": 33.1235, "lon": -85.5761, "proficiency": 0.245, "schoolCount": 1}, {"name": "Woodland", "lat": 33.373704, "lon": -85.39296, "proficiency": 0.445, "schoolCount": 1}, {"name": "Seale", "lat": 32.331138, "lon": -85.155867, "proficiency": 0.42, "schoolCount": 1}, {"name": "Sheffield", "lat": 34.7702, "lon": -87.6896, "proficiency": 0.52, "schoolCount": 1}, {"name": "Chelsea", "lat": 33.334, "lon": -86.636, "proficiency": 0.64, "schoolCount": 1}, {"name": "Columbiana", "lat": 33.1853, "lon": -86.6158, "proficiency": 0.57, "schoolCount": 1}, {"name": "Montevallo", "lat": 33.119108, "lon": -86.8269935, "proficiency": 0.47, "schoolCount": 2}, {"name": "Vincent", "lat": 33.383227, "lon": -86.414454, "proficiency": 0.27, "schoolCount": 1}, {"name": "Helena", "lat": 33.275912, "lon": -86.87253, "proficiency": 0.67, "schoolCount": 1}, {"name": "Ashville", "lat": 33.819686, "lon": -86.265761, "proficiency": 0.47, "schoolCount": 1}, {"name": "Springville", "lat": 33.7779, "lon": -86.468, "proficiency": 0.57, "schoolCount": 1}, {"name": "Odenville", "lat": 33.677669, "lon": -86.397981, "proficiency": 0.57, "schoolCount": 1}, {"name": "Ragland", "lat": 33.7422, "lon": -86.1518, "proficiency": 0.245, "schoolCount": 1}, {"name": "Steele", "lat": 33.9413, "lon": -86.2025, "proficiency": 0.75, "schoolCount": 1}, {"name": "Moody", "lat": 33.6097, "lon": -86.4594, "proficiency": 0.62, "schoolCount": 1}, {"name": "Cuba", "lat": 32.3918, "lon": -88.3624, "proficiency": 0.245, "schoolCount": 1}, {"name": "Sylacauga", "lat": 33.17085766666667, "lon": -86.30255166666666, "proficiency": 0.405, "schoolCount": 3}, {"name": "Talladega", "lat": 33.4621, "lon": -86.12675, "proficiency": 0.135, "schoolCount": 2}, {"name": "Lincoln", "lat": 33.637246, "lon": -86.101626, "proficiency": 0.47, "schoolCount": 1}, {"name": "Alpine", "lat": 33.321311, "lon": -86.197331, "proficiency": 0.245, "schoolCount": 1}, {"name": "Childersburg", "lat": 33.2747, "lon": -86.3423, "proficiency": 0.37, "schoolCount": 1}, {"name": "Munford", "lat": 33.5247, "lon": -85.9485, "proficiency": 0.42, "schoolCount": 1}, {"name": "New Site", "lat": 33.014564, "lon": -85.80403, "proficiency": 0.32, "schoolCount": 1}, {"name": "Dadeville", "lat": 32.8296, "lon": -85.7545, "proficiency": 0.47, "schoolCount": 1}, {"name": "Tallassee", "lat": 32.5266, "lon": -85.8942, "proficiency": 0.32, "schoolCount": 1}, {"name": "Tarrant", "lat": 33.614075, "lon": -86.773092, "proficiency": 0.12, "schoolCount": 1}, {"name": "Thomasville", "lat": 31.8857, "lon": -87.7367, "proficiency": 0.22, "schoolCount": 1}, {"name": "Troy", "lat": 31.8094, "lon": -85.9523, "proficiency": 0.32, "schoolCount": 1}, {"name": "Tuscaloosa", "lat": 33.20117259999999, "lon": -87.534222, "proficiency": 0.492, "schoolCount": 5}, {"name": "Cottondale", "lat": 33.17775, "lon": -87.4543, "proficiency": 0.245, "schoolCount": 2}, {"name": "Northport", "lat": 33.30626466666667, "lon": -87.59333933333333, "proficiency": 0.47, "schoolCount": 3}, {"name": "Vance", "lat": 33.212078, "lon": -87.282403, "proficiency": 0.42, "schoolCount": 1}, {"name": "Duncanville", "lat": 33.093579, "lon": -87.481083, "proficiency": 0.47, "schoolCount": 1}, {"name": "Buhl", "lat": 33.193099, "lon": -87.731187, "proficiency": 0.57, "schoolCount": 1}, {"name": "Vestavia", "lat": 33.450755, "lon": -86.7414085, "proficiency": 0.825, "schoolCount": 2}, {"name": "Carbon Hill", "lat": 33.90368, "lon": -87.505311, "proficiency": 0.545, "schoolCount": 1}, {"name": "Cordova", "lat": 33.7691, "lon": -87.1839, "proficiency": 0.37, "schoolCount": 1}, {"name": "Nauvoo", "lat": 33.926023, "lon": -87.412447, "proficiency": 0.445, "schoolCount": 1}, {"name": "Oakman", "lat": 33.721321, "lon": -87.386856, "proficiency": 0.17, "schoolCount": 1}, {"name": "Sumiton", "lat": 33.7554, "lon": -87.058, "proficiency": 0.22, "schoolCount": 1}, {"name": "Chatom", "lat": 31.46182, "lon": -88.251362, "proficiency": 0.37, "schoolCount": 1}, {"name": "Fruitdale", "lat": 31.344188, "lon": -88.405727, "proficiency": 0.3, "schoolCount": 1}, {"name": "Leroy", "lat": 31.502278, "lon": -87.970589, "proficiency": 0.245, "schoolCount": 1}, {"name": "Mc Intosh", "lat": 31.254091, "lon": -88.024996, "proficiency": 0.345, "schoolCount": 1}, {"name": "Millry", "lat": 31.640138, "lon": -88.314976, "proficiency": 0.545, "schoolCount": 1}, {"name": "Camden", "lat": 31.99494, "lon": -87.294977, "proficiency": 0.12, "schoolCount": 1}, {"name": "Winfield", "lat": 33.933197, "lon": -87.811801, "proficiency": 0.47, "schoolCount": 1}, {"name": "Addison", "lat": 34.205237, "lon": -87.182667, "proficiency": 0.445, "schoolCount": 1}, {"name": "Lynn", "lat": 34.045134, "lon": -87.547244, "proficiency": 0.645, "schoolCount": 1}, {"name": "Arley", "lat": 34.079762, "lon": -87.213166, "proficiency": 0.3, "schoolCount": 1}, {"name": "Double Springs", "lat": 34.165375, "lon": -87.398021, "proficiency": 0.62, "schoolCount": 1}]}