{"state": "AR", "stateName": "Arkansas", "year": 2018, "naep": {"text": "8 out of 10", "numerator": 8, "denominator": 10}, "schools": [{"name": "DEWITT MIDDLE SCHOOL", "lat": 34.277803, "lon": -91.348212, "proficiency": 0.67, "district": "DEWITT SCHOOL DISTRICT", "city": "DEWITT", "ncessch": "050000100217"}, {"name": "WARREN MIDDLE SCHOOL", "lat": 33.62741, "lon": -92.067595, "proficiency": 0.37, "district": "WARREN SCHOOL DISTRICT", "city": "WARREN", "ncessch": "050000601334"}, {"name": "CORNING HIGH SCHOOL", "lat": 36.419184, "lon": -90.580056, "proficiency": 0.37, "district": "CORNING SCHOOL DISTRICT", "city": "CORNING", "ncessch": "050000900191"}, {"name": "RIVERSIDE HIGH SCHOOL", "lat": 35.820023, "lon": -90.454181, "proficiency": 0.32, "district": "RIVERSIDE SCHOOL DISTRICT", "city": "LAKE CITY", "ncessch": "050001201538"}, {"name": "SHERIDAN MIDDLE SCHOOL", "lat": 34.31098, "lon": -92.398113, "proficiency": 0.46, "district": "SHERIDAN SCHOOL DISTRICT", "city": "SHERIDAN", "ncessch": "050001500998"}, {"name": "MARMADUKE HIGH SCHOOL", "lat": 36.193398, "lon": -90.393772, "proficiency": 0.32, "district": "MARMADUKE SCHOOL DISTRICT", "city": "MARMADUKE", "ncessch": "050001600691"}, {"name": "PARAGOULD JUNIOR HIGH", "lat": 36.057542, "lon": -90.509842, "proficiency": 0.57, "district": "PARAGOULD SCHOOL DISTRICT", "city": "PARAGOULD", "ncessch": "050001700395"}, {"name": "BATESVILLE JUNIOR HIGH SCHOOL CHARTER", "lat": 35.7549, "lon": -91.62203, "proficiency": 0.52, "district": "BATESVILLE SCHOOL DISTRICT", "city": "BATESVILLE", "ncessch": "050001900042"}, {"name": "MIDLAND HIGH SCHOOL", "lat": 35.547101, "lon": -91.624886, "proficiency": 0.15, "district": "MIDLAND SCHOOL DISTRICT", "city": "PLEASANT PLAINS", "ncessch": "050002001298"}, {"name": "IZARD COUNTY CONS MIDDLE SCH", "lat": 36.154832, "lon": -91.923646, "proficiency": 0.345, "district": "IZARD CO. CONS. SCHOOL DIST.", "city": "BROCKWELL", "ncessch": "050002101233"}, {"name": "NEWPORT HIGH SCHOOL", "lat": 35.601469, "lon": -91.272273, "proficiency": 0.22, "district": "NEWPORT SCHOOL DISTRICT", "city": "NEWPORT", "ncessch": "050002300772"}, {"name": "JACK ROBEY JR. HIGH SCHOOL", "lat": 34.188956, "lon": -92.005563, "proficiency": 0.17, "district": "PINE BLUFF SCHOOL DISTRICT", "city": "PINE BLUFF", "ncessch": "050002601338"}, {"name": "STAR CITY MIDDLE SCHOOL", "lat": 33.941072, "lon": -91.840762, "proficiency": 0.47, "district": "STAR CITY SCHOOL DISTRICT", "city": "STAR CITY", "ncessch": "050002801043"}, {"name": "GOSNELL HIGH SCHOOL", "lat": 35.964172, "lon": -89.966709, "proficiency": 0.62, "district": "GOSNELL SCHOOL DISTRICT", "city": "BLYTHEVILLE", "ncessch": "050002901277"}, {"name": "NEVADA HIGH  SCHOOL", "lat": 33.591551, "lon": -93.295782, "proficiency": 0.245, "district": "NEVADA SCHOOL DISTRICT", "city": "ROSSTON", "ncessch": "050003001405"}, {"name": "BEARDEN HIGH SCHOOL", "lat": 33.730548, "lon": -92.621291, "proficiency": 0.345, "district": "BEARDEN SCHOOL DISTRICT", "city": "BEARDEN", "ncessch": "050003200053"}, {"name": "ARK. SCHOOL FOR THE BLIND H.S.", "lat": 34.752798, "lon": -92.303108, "proficiency": 0.245, "district": "ARK. SCHOOL FOR THE BLIND", "city": "LITTLE ROCK", "ncessch": "050003501420"}, {"name": "SCHOOL FOR THE DEAF SCHOOLS", "lat": 34.7519, "lon": -92.2987, "proficiency": 0.245, "district": "ARK. SCHOOL FOR THE DEAF", "city": "LITTLE ROCK", "ncessch": "050003601653"}, {"name": "WESTERN YELL CO. HIGH SCHOOL", "lat": 35.108888, "lon": -93.524271, "proficiency": 0.3, "district": "WESTERN YELL CO. SCHOOL DIST.", "city": "HAVANA", "ncessch": "050004101315"}, {"name": "HAMBURG MIDDLE SCHOOL", "lat": 33.2089, "lon": -91.79403, "proficiency": 0.37, "district": "HAMBURG SCHOOL DISTRICT", "city": "HAMBURG", "ncessch": "050004201280"}, {"name": "MAGNOLIA JR. HIGH SCHOOL", "lat": 33.269926, "lon": -93.23429, "proficiency": 0.37, "district": "MAGNOLIA SCHOOL DISTRICT", "city": "MAGNOLIA", "ncessch": "050004400655"}, {"name": "ACADEMIES AT RIVERCREST HIGH SCHOOL", "lat": 35.612581, "lon": -90.106985, "proficiency": 0.27, "district": "RIVERCREST SCHOOL DISTRICT #57", "city": "WILSON", "ncessch": "050004501204"}, {"name": "TRUMANN INTERMEDIATE SCHOOL7-8", "lat": 35.673161, "lon": -90.5186, "proficiency": 0.37, "district": "TRUMANN SCHOOL DISTRICT", "city": "TRUMANN", "ncessch": "050004701506"}, {"name": "EAST POINSETT CO. HIGH SCHOOL", "lat": 35.609971, "lon": -90.340744, "proficiency": 0.545, "district": "EAST POINSETT CO. SCHOOL DIST.", "city": "LEPANTO", "ncessch": "050004801348"}, {"name": "DEQUEEN JUNIOR HIGH SCHOOL", "lat": 34.029845, "lon": -94.358751, "proficiency": 0.72, "district": "DEQUEEN SCHOOL DISTRICT", "city": "DEQUEEN", "ncessch": "050004901503"}, {"name": "PALESTINE-WHEATLEY SENIOR HIGH", "lat": 34.969504, "lon": -90.904465, "proficiency": 0.245, "district": "PALESTINE-WHEATLEY SCH. DIST.", "city": "PALESTINE", "ncessch": "050005100833"}, {"name": "ARKANSAS ARTS ACADEMY HIGH SCHOOL", "lat": 36.331116, "lon": -94.122098, "proficiency": 0.57, "district": "BENTON COUNTY SCHOOL OF ARTS", "city": "ROGERS", "ncessch": "050005501508"}, {"name": "MAUMELLE CHARTER HIGH SCHOOL", "lat": 34.864686, "lon": -92.404396, "proficiency": 0.62, "district": "ACADEMICS PLUS CHARTER SCHOOL", "city": "MAUMELLE", "ncessch": "050005900741"}, {"name": "SCOTT CHARTER SCHOOL", "lat": 34.70127, "lon": -92.098211, "proficiency": 0.495, "district": "ACADEMICS PLUS CHARTER SCHOOL", "city": "SCOTT", "ncessch": "050005901619"}, {"name": "KIPP DELTA COLLEGE PREPARATORY SCHOOL", "lat": 34.523006, "lon": -90.589891, "proficiency": 0.37, "district": "KIPP DELTA PUBLIC SCHOOLS", "city": "HELENA", "ncessch": "050006200659"}, {"name": "KIPP BLYTHEVILLE COLLEGIATE HIGH SCHOOL", "lat": 35.908096, "lon": -89.920062, "proficiency": 0.3, "district": "KIPP DELTA PUBLIC SCHOOLS", "city": "BLYTHEVILLE", "ncessch": "050006201595"}, {"name": "LAFAYETTE COUNTY HIGH SCHOOL", "lat": 33.369897, "lon": -93.481056, "proficiency": 0.15, "district": "LAFAYETTE COUNTY SCHOOL DISTRICT", "city": "LEWISVILLE", "ncessch": "050006500727"}, {"name": "RISON HIGH SCHOOL", "lat": 33.954667, "lon": -92.187596, "proficiency": 0.57, "district": "CLEVELAND COUNTY SCHOOL DIST.", "city": "RISON", "ncessch": "050006700951"}, {"name": "BRADLEY HIGH SCHOOL", "lat": 33.101456, "lon": -93.66056, "proficiency": 0.695, "district": "EMERSON-TAYLOR SCHOOL DISTRICT", "city": "BRADLEY", "ncessch": "050006800109"}, {"name": "EMERSON HIGH SCHOOL", "lat": 33.099003, "lon": -93.196868, "proficiency": 0.695, "district": "EMERSON-TAYLOR SCHOOL DISTRICT", "city": "EMERSON", "ncessch": "050006800292"}, {"name": "TAYLOR HIGH SCHOOL", "lat": 33.099026, "lon": -93.458329, "proficiency": 0.645, "district": "EMERSON-TAYLOR SCHOOL DISTRICT", "city": "TAYLOR", "ncessch": "050006801063"}, {"name": "CEDAR RIDGE HIGH SCHOOL", "lat": 35.720304, "lon": -91.445496, "proficiency": 0.245, "district": "CEDAR RIDGE SCHOOL DISTRICT", "city": "NEWARK", "ncessch": "050007000768"}, {"name": "HILLCREST HIGH SCHOOL", "lat": 35.965189, "lon": -91.322402, "proficiency": 0.345, "district": "HILLCREST SCHOOL DISTRICT", "city": "STRAWBERRY", "ncessch": "050007101010"}, {"name": "DEER K-12 SCHOOL", "lat": 35.825827, "lon": -93.208043, "proficiency": 0.3, "district": "DEER/MT. JUDEA SCHOOL DISTRICT", "city": "DEER", "ncessch": "050007201621"}, {"name": "MT. JUDEA K-12 SCHOOL", "lat": 35.9213, "lon": -93.059383, "proficiency": 0.245, "district": "DEER/MT. JUDEA SCHOOL DISTRICT", "city": "MT. JUDEA", "ncessch": "050007201630"}, {"name": "ACORN HIGH SCHOOL", "lat": 34.637079, "lon": -94.206826, "proficiency": 0.545, "district": "OUACHITA RIVER SCHOOL DISTRICT", "city": "MENA", "ncessch": "050007300002"}, {"name": "ODEN SCHOOLS", "lat": 34.620104, "lon": -93.780154, "proficiency": 0.245, "district": "OUACHITA RIVER SCHOOL DISTRICT", "city": "ODEN", "ncessch": "050007301642"}, {"name": "LISA ACADEMY", "lat": 34.751402, "lon": -92.38821, "proficiency": 0.62, "district": "LISA ACADEMY CHARTER", "city": "LITTLE ROCK", "ncessch": "050007401030"}, {"name": "LISA ACADEMY NORTH MIDDLE SCHOOL", "lat": 34.80052, "lon": -92.212971, "proficiency": 0.52, "district": "LISA ACADEMY CHARTER", "city": "SHERWOOD", "ncessch": "050007401473"}, {"name": "ST. JOE K-12 SCHOOL", "lat": 36.028463, "lon": -92.798476, "proficiency": 0.245, "district": "OZARK MOUNTAIN SCHOOL DISTRICT", "city": "ST. JOE", "ncessch": "050007601643"}, {"name": "BRUNO-PYATT K-12 SCHOOL", "lat": 36.18092, "lon": -92.849778, "proficiency": 0.495, "district": "OZARK MOUNTAIN SCHOOL DISTRICT", "city": "EVERTON", "ncessch": "050007601645"}, {"name": "WESTERN GROVE K-12 SCHOOL", "lat": 36.09873, "lon": -92.955471, "proficiency": 0.495, "district": "OZARK MOUNTAIN SCHOOL DISTRICT", "city": "WESTERN GROVE", "ncessch": "050007601646"}, {"name": "HAAS HALL ACADEMY", "lat": 36.121926, "lon": -94.143291, "proficiency": 0.975, "district": "HAAS HALL ACADEMY", "city": "FARMINGTON", "ncessch": "050007801078"}, {"name": "HAAS HALL ACADEMY AT THE LANE", "lat": 36.33129, "lon": -94.117241, "proficiency": 0.92, "district": "HAAS HALL ACADEMY", "city": "ROGERS", "ncessch": "050007801639"}, {"name": "HAAS HALL ACADEMY JONES CENTER", "lat": 36.186888, "lon": -94.119485, "proficiency": 0.82, "district": "HAAS HALL ACADEMY", "city": "SPRINGDALE", "ncessch": "050007801640"}, {"name": "TWO RIVERS HIGH SCHOOL", "lat": 35.01082, "lon": -93.2732, "proficiency": 0.445, "district": "TWO RIVERS SCHOOL DISTRICT", "city": "OLA", "ncessch": "050007901521"}, {"name": "WALNUT RIDGE HIGH SCHOOL", "lat": 36.062143, "lon": -90.957295, "proficiency": 0.47, "district": "LAWRENCE COUNTY SCHOOL DISTRICT", "city": "WALNUT RIDGE", "ncessch": "050008201216"}, {"name": "ARKANSAS VIRTUAL ACADEMY JR", "lat": 34.739703, "lon": -92.395167, "proficiency": 0.3, "district": "ARKANSAS VIRTUAL ACADEMY", "city": "LITTLE ROCK", "ncessch": "050039401447"}, {"name": "ESTEM MIDDLE SCHOOL", "lat": 34.746078, "lon": -92.271625, "proficiency": 0.52, "district": "ESTEM HIGH CHARTER", "city": "LITTLE ROCK", "ncessch": "050039801467"}, {"name": "ESTEM EAST VILLAGE JUNIOR HIGH PUBLIC CHARTER SCHOOL", "lat": 34.743171, "lon": -92.257008, "proficiency": 0.37, "district": "ESTEM HIGH CHARTER", "city": "LITTLE ROCK", "ncessch": "050039801658"}, {"name": "FLIGHTLINE UPPER ACADEMY", "lat": 34.894197, "lon": -92.136893, "proficiency": 0.545, "district": "ARKANSAS LIGHTHOUSE ACADEMIES", "city": "LRAFB", "ncessch": "050040201531"}, {"name": "COLLEGE PREP ACADEMY", "lat": 34.868155, "lon": -92.108812, "proficiency": 0.245, "district": "ARKANSAS LIGHTHOUSE ACADEMIES", "city": "JACKSONVILLE", "ncessch": "050040201560"}, {"name": "COSSATOT RIVER HIGH SCHOOL", "lat": 34.383183, "lon": -94.386966, "proficiency": 0.32, "district": "COSSATOT RIVER SCHOOL DISTRICT", "city": "COVE", "ncessch": "050040501591"}, {"name": "UMPIRE K-12 SCHOOL", "lat": 34.27795, "lon": -94.052971, "proficiency": 0.245, "district": "COSSATOT RIVER SCHOOL DISTRICT", "city": "UMPIRE", "ncessch": "050040501620"}, {"name": "NORTHWEST ARKANSAS CLASSICAL ACADEMY", "lat": 36.361985, "lon": -94.228119, "proficiency": 0.545, "district": "FOUNDERS CLASSICAL ACADEMIES OF ARKANSAS", "city": "BENTONVILLE", "ncessch": "050040901574"}, {"name": "ARKANSAS CONNECTIONS ACADEMY HIGH", "lat": 36.383173, "lon": -94.170616, "proficiency": 0.27, "district": "ARKANSAS CONNECTIONS ACADEMY", "city": "BENTONVILLE", "ncessch": "050041701632"}, {"name": "JACKSONVILLE MIDDLE SCHOOL", "lat": 34.88427, "lon": -92.158681, "proficiency": 0.17, "district": "JACKSONVILLE NORTH PULASKI SCHOOL DISTRICT", "city": "JACKSONVILLE", "ncessch": "050041901510"}, {"name": "ALMA MIDDLE SCHOOL", "lat": 35.489001, "lon": -94.215007, "proficiency": 0.57, "district": "ALMA SCHOOL DISTRICT", "city": "ALMA", "ncessch": "050225000005"}, {"name": "ALPENA HIGH SCHOOL", "lat": 36.291456, "lon": -93.294979, "proficiency": 0.645, "district": "ALPENA SCHOOL DISTRICT", "city": "ALPENA", "ncessch": "050228000007"}, {"name": "GOZA MIDDLE SCHOOL", "lat": 34.122449, "lon": -93.095203, "proficiency": 0.52, "district": "ARKADELPHIA SCHOOL DISTRICT", "city": "ARKADELPHIA", "ncessch": "050243000020"}, {"name": "ARMOREL HIGH SCHOOL", "lat": 35.917188, "lon": -89.799526, "proficiency": 0.3, "district": "ARMOREL SCHOOL DISTRICT", "city": "ARMOREL", "ncessch": "050255000027"}, {"name": "ASHDOWN JUNIOR HIGH SCHOOL", "lat": 33.665416, "lon": -94.113994, "proficiency": 0.47, "district": "ASHDOWN SCHOOL DISTRICT", "city": "ASHDOWN", "ncessch": "050258000031"}, {"name": "ATKINS MIDDLE SCHOOL", "lat": 35.245708, "lon": -92.94434, "proficiency": 0.72, "district": "ATKINS SCHOOL DISTRICT", "city": "ATKINS", "ncessch": "050261000438"}, {"name": "AUGUSTA HIGH SCHOOL", "lat": 35.283558, "lon": -91.355574, "proficiency": 0.3, "district": "AUGUSTA SCHOOL DISTRICT", "city": "AUGUSTA", "ncessch": "050267000034"}, {"name": "BALD KNOB MIDDLE SCHOOL", "lat": 35.315839, "lon": -91.571351, "proficiency": 0.42, "district": "BALD KNOB SCHOOL DISTRICT", "city": "BALD KNOB", "ncessch": "050270000128"}, {"name": "BARTON HIGH SCHOOL", "lat": 34.552303, "lon": -90.76741, "proficiency": 0.52, "district": "BARTON-LEXA SCHOOL DISTRICT", "city": "BARTON", "ncessch": "050273000040"}, {"name": "BAUXITE MIDDLE SCHOOL", "lat": 34.554642, "lon": -92.511457, "proficiency": 0.37, "district": "BAUXITE SCHOOL DISTRICT", "city": "BAUXITE", "ncessch": "050279001536"}, {"name": "BAY HIGH SCHOOL", "lat": 35.74775, "lon": -90.566336, "proficiency": 0.345, "district": "BAY SCHOOL DISTRICT", "city": "BAY", "ncessch": "050282000051"}, {"name": "BEEBE JUNIOR HIGH SCHOOL", "lat": 35.063664, "lon": -91.894537, "proficiency": 0.62, "district": "BEEBE SCHOOL DISTRICT", "city": "BEEBE", "ncessch": "050288000055"}, {"name": "BENTON JUNIOR HIGH SCHOOL", "lat": 34.567074, "lon": -92.57354, "proficiency": 0.67, "district": "BENTON SCHOOL DISTRICT", "city": "BENTON", "ncessch": "050296000065"}, {"name": "PEA RIDGE MIDDLE SCHOOL", "lat": 36.454021, "lon": -94.123269, "proficiency": 0.52, "district": "PEA RIDGE SCHOOL DISTRICT", "city": "PEA RIDGE", "ncessch": "050303000169"}, {"name": "WASHINGTON JUNIOR HIGH SCHOOL", "lat": 36.37349, "lon": -94.191442, "proficiency": 0.72, "district": "BENTONVILLE SCHOOL DISTRICT", "city": "BENTONVILLE", "ncessch": "050306000074"}, {"name": "LINCOLN JUNIOR HIGH SCHOOL", "lat": 36.38819, "lon": -94.211639, "proficiency": 0.66, "district": "BENTONVILLE SCHOOL DISTRICT", "city": "BENTONVILLE", "ncessch": "050306000789"}, {"name": "J WILLIAM FULBRIGHT JUNIOR HIGH SCHOOL", "lat": 36.320415, "lon": -94.23515, "proficiency": 0.63, "district": "BENTONVILLE SCHOOL DISTRICT", "city": "BENTONVILLE", "ncessch": "050306001571"}, {"name": "BERGMAN MIDDLE SCHOOL", "lat": 36.313312, "lon": -93.021351, "proficiency": 0.62, "district": "BERGMAN SCHOOL DISTRICT", "city": "BERGMAN", "ncessch": "050309001089"}, {"name": "BERRYVILLE MIDDLE SCHOOL", "lat": 36.369626, "lon": -93.574987, "proficiency": 0.47, "district": "BERRYVILLE SCHOOL DISTRICT", "city": "BERRYVILLE", "ncessch": "050315000411"}, {"name": "BISMARCK MIDDLE SCHOOL", "lat": 34.315722, "lon": -93.176879, "proficiency": 0.77, "district": "BISMARCK SCHOOL DISTRICT", "city": "BISMARCK", "ncessch": "050324000336"}, {"name": "BLEVINS HIGH SCHOOL", "lat": 33.874753, "lon": -93.572541, "proficiency": 0.345, "district": "BLEVINS SCHOOL DISTRICT", "city": "BLEVINS", "ncessch": "050330000090"}, {"name": "BLYTHEVILLE MIDDLE SCHOOL", "lat": 35.930163, "lon": -89.911009, "proficiency": 0.17, "district": "BLYTHEVILLE SCHOOL DISTRICT", "city": "BLYTHEVILLE", "ncessch": "050332000099"}, {"name": "LEAD HILL HIGH SCHOOL", "lat": 36.406871, "lon": -92.907469, "proficiency": 0.345, "district": "LEAD HILL SCHOOL DISTRICT", "city": "LEAD HILL", "ncessch": "050342000103"}, {"name": "BOONEVILLE JR HIGH SCHOOL", "lat": 35.146212, "lon": -93.910529, "proficiency": 0.57, "district": "BOONEVILLE SCHOOL DISTRICT", "city": "BOONEVILLE", "ncessch": "050345000339"}, {"name": "BRADFORD HIGH SCHOOL", "lat": 35.425623, "lon": -91.459602, "proficiency": 0.3, "district": "BRADFORD SCHOOL DISTRICT", "city": "BRADFORD", "ncessch": "050348000107"}, {"name": "BRINKLEY HIGH SCHOOL", "lat": 34.877231, "lon": -91.195255, "proficiency": 0.245, "district": "BRINKLEY SCHOOL DISTRICT", "city": "BRINKLEY", "ncessch": "050363000112"}, {"name": "BROOKLAND JUNIOR HIGH SCHOOL", "lat": 35.908358, "lon": -90.579837, "proficiency": 0.57, "district": "BROOKLAND SCHOOL DISTRICT", "city": "BROOKLAND", "ncessch": "050364001534"}, {"name": "BETHEL MIDDLE SCHOOL", "lat": 34.654662, "lon": -92.546337, "proficiency": 0.67, "district": "BRYANT SCHOOL DISTRICT", "city": "BRYANT", "ncessch": "050369001197"}, {"name": "BRYANT MIDDLE SCHOOL", "lat": 34.604921, "lon": -92.497314, "proficiency": 0.65, "district": "BRYANT SCHOOL DISTRICT", "city": "BRYANT", "ncessch": "050369001440"}, {"name": "BUFFALO IS. CENTRAL HS", "lat": 35.888965, "lon": -90.351228, "proficiency": 0.345, "district": "BUFFALO IS. CENTRAL SCH. DIST.", "city": "MONETTE", "ncessch": "050371001271"}, {"name": "CABOT JUNIOR HIGH NORTH", "lat": 34.976341, "lon": -92.004028, "proficiency": 0.78, "district": "CABOT SCHOOL DISTRICT", "city": "CABOT", "ncessch": "050375000399"}, {"name": "CABOT PANTHER ACADEMY", "lat": 34.94076, "lon": -92.026601, "proficiency": 0.245, "district": "CABOT SCHOOL DISTRICT", "city": "CABOT", "ncessch": "050375001019"}, {"name": "CABOT JUNIOR HIGH SOUTH", "lat": 34.943744, "lon": -92.012872, "proficiency": 0.64, "district": "CABOT SCHOOL DISTRICT", "city": "CABOT", "ncessch": "050375001182"}, {"name": "CADDO HILLS HIGH SCHOOL", "lat": 34.419957, "lon": -93.631236, "proficiency": 0.345, "district": "CADDO HILLS SCHOOL DISTRICT", "city": "NORMAN", "ncessch": "050377000127"}, {"name": "CALICO ROCK HIGH SCHOOL", "lat": 36.122576, "lon": -92.126312, "proficiency": 0.9, "district": "CALICO ROCK SCHOOL DISTRICT", "city": "CALICO ROCK", "ncessch": "050384000132"}, {"name": "CARLISLE HIGH SCHOOL", "lat": 34.779476, "lon": -91.732383, "proficiency": 0.445, "district": "CARLISLE SCHOOL DISTRICT", "city": "CARLISLE", "ncessch": "050396000140"}, {"name": "WESTSIDE HIGH SCHOOL", "lat": 35.856332, "lon": -90.802889, "proficiency": 0.42, "district": "WESTSIDE CONS. SCHOOL DISTRICT", "city": "JONESBORO", "ncessch": "050402000146"}, {"name": "CAVE CITY MIDDLE SCHOOL CAREER AND COLLEGIATE PREPARATORY", "lat": 35.95116, "lon": -91.55014, "proficiency": 0.67, "district": "CAVE CITY SCHOOL DISTRICT", "city": "CAVE CITY", "ncessch": "050405001457"}, {"name": "CEDARVILLE MIDDLE SCHOOL", "lat": 35.577635, "lon": -94.369326, "proficiency": 0.545, "district": "CEDARVILLE SCHOOL DISTRICT", "city": "CEDARVILLE", "ncessch": "050408000332"}, {"name": "GARY E. COBB MIDDLE SCHOOL", "lat": 33.376739, "lon": -93.88159, "proficiency": 0.62, "district": "GENOA CENTRAL SCHOOL DISTRICT", "city": "TEXARKANA", "ncessch": "050411000286"}, {"name": "WHITE CO. CENTRAL HIGH SCHOOL", "lat": 35.357721, "lon": -91.677761, "proficiency": 0.445, "district": "WHITE CO. CENTRAL SCHOOL DIST.", "city": "JUDSONIA", "ncessch": "050417000156"}, {"name": "CHARLESTON HIGH SCHOOL", "lat": 35.29415, "lon": -94.04633, "proficiency": 0.57, "district": "CHARLESTON SCHOOL DISTRICT", "city": "CHARLESTON", "ncessch": "050420000158"}, {"name": "CLARENDON HIGH SCHOOL", "lat": 34.695403, "lon": -91.306277, "proficiency": 0.245, "district": "CLARENDON SCHOOL DISTRICT", "city": "CLARENDON", "ncessch": "050435000164"}, {"name": "RECTOR HIGH SCHOOL", "lat": 36.263209, "lon": -90.298688, "proficiency": 0.445, "district": "RECTOR SCHOOL DISTRICT", "city": "RECTOR", "ncessch": "050437001274"}, {"name": "CLARKSVILLE JUNIOR HIGH SCHOOL", "lat": 35.460813, "lon": -93.488671, "proficiency": 0.37, "district": "CLARKSVILLE SCHOOL DISTRICT", "city": "CLARKSVILLE", "ncessch": "050438000167"}, {"name": "CLINTON JR HIGH SCHOOL", "lat": 35.587428, "lon": -92.45842, "proficiency": 0.62, "district": "CLINTON SCHOOL DISTRICT", "city": "CLINTON", "ncessch": "050441000765"}, {"name": "CONCORD HIGH SCHOOL", "lat": 35.664443, "lon": -91.846104, "proficiency": 0.695, "district": "CONCORD SCHOOL DISTRICT", "city": "CONCORD", "ncessch": "050456000181"}, {"name": "CONWAY JUNIOR HIGH SCHOOL", "lat": 35.092689, "lon": -92.448861, "proficiency": 0.65, "district": "CONWAY SCHOOL DISTRICT", "city": "CONWAY", "ncessch": "050459000182"}, {"name": "COTTER HIGH SCHOOL", "lat": 36.279027, "lon": -92.521168, "proficiency": 0.345, "district": "COTTER SCHOOL DISTRICT", "city": "COTTER", "ncessch": "050468000194"}, {"name": "COUNTY LINE HIGH SCHOOL", "lat": 35.3074, "lon": -93.91684, "proficiency": 0.645, "district": "COUNTY LINE SCHOOL DISTRICT", "city": "BRANCH", "ncessch": "050474000198"}, {"name": "CROSSETT MIDDLE SCHOOL", "lat": 33.12074, "lon": -91.962539, "proficiency": 0.57, "district": "CROSSETT SCHOOL DISTRICT", "city": "CROSSETT", "ncessch": "050480001356"}, {"name": "CUTTER-MORNING STAR HIGH SCH.", "lat": 34.504045, "lon": -92.989566, "proficiency": 0.245, "district": "CUTTER-MORNING STAR SCH. DIST.", "city": "HOT SPRINGS", "ncessch": "050486000210"}, {"name": "DANVILLE MIDDLE SCHOOL", "lat": 35.051909, "lon": -93.391518, "proficiency": 0.42, "district": "DANVILLE SCHOOL DISTRICT", "city": "DANVILLE", "ncessch": "050489001488"}, {"name": "DARDANELLE MIDDLE SCHOOL", "lat": 35.203291, "lon": -93.157837, "proficiency": 0.47, "district": "DARDANELLE SCHOOL DISTRICT", "city": "DARDANELLE", "ncessch": "050493000215"}, {"name": "DECATUR MIDDLE SCHOOL", "lat": 36.3332, "lon": -94.44557, "proficiency": 0.245, "district": "DECATUR SCHOOL DISTRICT", "city": "DECATUR", "ncessch": "050498001602"}, {"name": "DERMOTT HIGH SCHOOL", "lat": 33.523118, "lon": -91.428739, "proficiency": 0.1, "district": "DERMOTT SCHOOL DISTRICT", "city": "DERMOTT", "ncessch": "050517000239"}, {"name": "DES ARC HIGH SCHOOL", "lat": 34.977896, "lon": -91.499066, "proficiency": 0.745, "district": "DES ARC SCHOOL DISTRICT", "city": "DES ARC", "ncessch": "050519000240"}, {"name": "DIERKS HIGH SCHOOL", "lat": 34.119131, "lon": -94.030353, "proficiency": 0.545, "district": "DIERKS SCHOOL DISTRICT", "city": "DIERKS", "ncessch": "050534000249"}, {"name": "DOVER MIDDLE SCHOOL", "lat": 35.399724, "lon": -93.116571, "proficiency": 0.52, "district": "DOVER SCHOOL DISTRICT", "city": "DOVER", "ncessch": "050543000439"}, {"name": "DREW CENTRAL MIDDLE SCHOOL", "lat": 33.593015, "lon": -91.807537, "proficiency": 0.42, "district": "DREW CENTRAL SCHOOL DISTRICT", "city": "MONTICELLO", "ncessch": "050547001492"}, {"name": "DUMAS JUNIOR HIGH SCHOOL", "lat": 33.884822, "lon": -91.487175, "proficiency": 0.42, "district": "DUMAS SCHOOL DISTRICT", "city": "DUMAS", "ncessch": "050550000261"}, {"name": "EARLE HIGH SCHOOL", "lat": 35.276913, "lon": -90.448775, "proficiency": 0.1, "district": "EARLE SCHOOL DISTRICT", "city": "EARLE", "ncessch": "050555000266"}, {"name": "BIGELOW HIGH SCHOOL", "lat": 34.997914, "lon": -92.632958, "proficiency": 0.445, "district": "EAST END SCHOOL DISTRICT", "city": "BIGELOW", "ncessch": "050558000268"}, {"name": "BARTON JR. HIGH SCHOOL", "lat": 33.215811, "lon": -92.668231, "proficiency": 0.44, "district": "EL DORADO SCHOOL DISTRICT", "city": "EL DORADO", "ncessch": "050568000273"}, {"name": "ELKINS MIDDLE SCHOOL", "lat": 36.004965, "lon": -94.009939, "proficiency": 0.52, "district": "ELKINS SCHOOL DISTRICT", "city": "ELKINS", "ncessch": "050576000303"}, {"name": "ENGLAND HIGH SCHOOL", "lat": 34.5426, "lon": -91.954555, "proficiency": 0.245, "district": "ENGLAND SCHOOL DISTRICT", "city": "ENGLAND", "ncessch": "050585000296"}, {"name": "EUREKA SPRINGS MIDDLE SCHOOL", "lat": 36.382699, "lon": -93.733817, "proficiency": 0.645, "district": "EUREKA SPRINGS SCHOOL DISTRICT", "city": "EUREKA SPRINGS", "ncessch": "050597000250"}, {"name": "CAMDEN FAIRVIEW MIDDLE SCHOOL", "lat": 33.593478, "lon": -92.84779, "proficiency": 0.22, "district": "CAMDEN FAIRVIEW SCHOOL DIST.", "city": "CAMDEN", "ncessch": "050606001435"}, {"name": "FARMINGTON FRESHMAN ACADEMY", "lat": 36.040713, "lon": -94.252928, "proficiency": 0.62, "district": "FARMINGTON SCHOOL DISTRICT", "city": "FARMINGTON", "ncessch": "050609001608"}, {"name": "RAMAY JUNIOR HIGH SCHOOL", "lat": 36.058914, "lon": -94.19033, "proficiency": 0.48, "district": "FAYETTEVILLE SCHOOL DISTRICT", "city": "FAYETTEVILLE", "ncessch": "050612000324"}, {"name": "WOODLAND JUNIOR HIGH SCHOOL", "lat": 36.087796, "lon": -94.157365, "proficiency": 0.72, "district": "FAYETTEVILLE SCHOOL DISTRICT", "city": "FAYETTEVILLE", "ncessch": "050612000327"}, {"name": "FAYETTEVILLE VIRTUAL ACADEMY- DIST CONVERSION CHARTER SCH", "lat": 36.05806, "lon": -94.132311, "proficiency": 0.695, "district": "FAYETTEVILLE SCHOOL DISTRICT", "city": "FAYETTEVILLE", "ncessch": "050612001636"}, {"name": "FLIPPIN MIDDLE SCHOOL", "lat": 36.280912, "lon": -92.600687, "proficiency": 0.47, "district": "FLIPPIN SCHOOL DISTRICT", "city": "FLIPPIN", "ncessch": "050615000277"}, {"name": "FORDYCE HIGH SCHOOL", "lat": 33.819417, "lon": -92.434019, "proficiency": 0.27, "district": "FORDYCE SCHOOL DISTRICT", "city": "FORDYCE", "ncessch": "050621000335"}, {"name": "FOREMAN HIGH SCHOOL", "lat": 33.712792, "lon": -94.393736, "proficiency": 0.545, "district": "FOREMAN SCHOOL DISTRICT", "city": "FOREMAN", "ncessch": "050624000338"}, {"name": "FORREST CITY JR. HIGH", "lat": 35.01982, "lon": -90.790753, "proficiency": 0.12, "district": "FORREST CITY SCHOOL DISTRICT", "city": "FORREST CITY", "ncessch": "050627000345"}, {"name": "BELLE POINT ALTERNATIVE CENTER", "lat": 35.372944, "lon": -94.417205, "proficiency": 0.245, "district": "FORT SMITH SCHOOL DISTRICT", "city": "FORT SMITH", "ncessch": "050633000354"}, {"name": "L. A. CHAFFIN JR. HIGH SCHOOL", "lat": 35.352778, "lon": -94.338905, "proficiency": 0.67, "district": "FORT SMITH SCHOOL DISTRICT", "city": "FORT SMITH", "ncessch": "050633000358"}, {"name": "WILLIAM O. DARBY JR. HIGH SCH.", "lat": 35.386972, "lon": -94.412817, "proficiency": 0.32, "district": "FORT SMITH SCHOOL DISTRICT", "city": "FORT SMITH", "ncessch": "050633000360"}, {"name": "DORA KIMMONS JR. HIGH SCHOOL", "lat": 35.399638, "lon": -94.377356, "proficiency": 0.37, "district": "FORT SMITH SCHOOL DISTRICT", "city": "FORT SMITH", "ncessch": "050633000365"}, {"name": "RAMSEY JUNIOR HIGH SCHOOL", "lat": 35.352215, "lon": -94.411614, "proficiency": 0.57, "district": "FORT SMITH SCHOOL DISTRICT", "city": "FORT SMITH", "ncessch": "050633000371"}, {"name": "PAULETTE SMITH MIDDLE SCHOOL", "lat": 33.26393, "lon": -93.882623, "proficiency": 0.37, "district": "FOUKE SCHOOL DISTRICT", "city": "FOUKE", "ncessch": "050636000299"}, {"name": "FOUNTAIN LAKE MIDDLE SCHOOL COBRA DIGITAL PREP ACADEMY", "lat": 34.57297, "lon": -92.988331, "proficiency": 0.62, "district": "FOUNTAIN LAKE SCHOOL DISTRICT", "city": "HOT SPRINGS", "ncessch": "050642001605"}, {"name": "GENTRY MIDDLE SCHOOL", "lat": 36.256249, "lon": -94.494999, "proficiency": 0.62, "district": "GENTRY SCHOOL DISTRICT", "city": "GENTRY", "ncessch": "050654001231"}, {"name": "GLEN ROSE MIDDLE SCHOOL", "lat": 34.456168, "lon": -92.730419, "proficiency": 0.67, "district": "GLEN ROSE SCHOOL DISTRICT", "city": "MALVERN", "ncessch": "050663000982"}, {"name": "CENTERPOINT HIGH SCHOOL", "lat": 34.287337, "lon": -93.511691, "proficiency": 0.32, "district": "CENTERPOINT SCHOOL DISTRICT", "city": "AMITY", "ncessch": "050669000341"}, {"name": "GRAVETTE MIDDLE SCHOOL", "lat": 36.418165, "lon": -94.446156, "proficiency": 0.62, "district": "GRAVETTE SCHOOL DISTRICT", "city": "GRAVETTE", "ncessch": "050684001394"}, {"name": "GREEN FOREST INTERMED SCHOOL", "lat": 36.330213, "lon": -93.431043, "proficiency": 0.37, "district": "GREEN FOREST SCHOOL DISTRICT", "city": "GREEN FOREST", "ncessch": "050687000546"}, {"name": "GREENBRIER JUNIOR HIGH SCHOOL", "lat": 35.231037, "lon": -92.39032, "proficiency": 0.72, "district": "GREENBRIER SCHOOL DISTRICT", "city": "GREENBRIER", "ncessch": "050690000270"}, {"name": "GREENLAND MIDDLE SCHOOL", "lat": 35.995588, "lon": -94.17333, "proficiency": 0.47, "district": "GREENLAND SCHOOL DISTRICT", "city": "GREENLAND", "ncessch": "050693000660"}, {"name": "GREENWOOD JUNIOR HIGH SCHOOL", "lat": 35.219592, "lon": -94.256017, "proficiency": 0.72, "district": "GREENWOOD SCHOOL DISTRICT", "city": "GREENWOOD", "ncessch": "050699000425"}, {"name": "CABE MIDDLE SCHOOL", "lat": 33.908118, "lon": -93.191081, "proficiency": 0.245, "district": "GURDON SCHOOL DISTRICT", "city": "GURDON", "ncessch": "050711000431"}, {"name": "GUY-PERKINS HIGH SCHOOL", "lat": 35.324054, "lon": -92.32412, "proficiency": 0.495, "district": "GUY-PERKINS SCHOOL DISTRICT", "city": "GUY", "ncessch": "050714000434"}, {"name": "HACKETT HIGH SCHOOL", "lat": 35.187004, "lon": -94.409227, "proficiency": 0.345, "district": "HACKETT SCHOOL DISTRICT", "city": "HACKETT", "ncessch": "050717000435"}, {"name": "HAMPTON HIGH SCHOOL", "lat": 33.536864, "lon": -92.464332, "proficiency": 0.245, "district": "HAMPTON SCHOOL DISTRICT", "city": "HAMPTON", "ncessch": "050723000441"}, {"name": "HARMONY GROVE HIGH SCHOOL", "lat": 33.651414, "lon": -92.779548, "proficiency": 0.345, "district": "HARMONY GROVE SCHOOL DISTRICT", "city": "CAMDEN", "ncessch": "050729000443"}, {"name": "HARMONY GROVE JUNIOR HIGH SCHOOL", "lat": 34.507794, "lon": -92.643645, "proficiency": 0.47, "district": "HARMONY GROVE SCHOOL DISTRICT", "city": "BENTON", "ncessch": "050732001616"}, {"name": "HARRISON MIDDLE SCHOOL", "lat": 36.241849, "lon": -93.133261, "proficiency": 0.67, "district": "HARRISON SCHOOL DISTRICT", "city": "HARRISON", "ncessch": "050738001397"}, {"name": "HAZEN ELEMENTARY SCHOOL", "lat": 34.784865, "lon": -91.579056, "proficiency": 0.345, "district": "HAZEN SCHOOL DISTRICT", "city": "HAZEN", "ncessch": "050753000464"}, {"name": "HEBER SPRINGS MIDDLE SCHOOL", "lat": 35.497362, "lon": -92.036893, "proficiency": 0.57, "district": "HEBER SPRINGS SCHOOL DISTRICT", "city": "HEBER SPRINGS", "ncessch": "050756000468"}, {"name": "HECTOR HIGH SCHOOL", "lat": 35.470061, "lon": -92.973784, "proficiency": 0.345, "district": "HECTOR SCHOOL DISTRICT", "city": "HECTOR", "ncessch": "050762000472"}, {"name": "CENTRAL HIGH SCHOOL", "lat": 34.544609, "lon": -90.62577, "proficiency": 0.12, "district": "HELENA/ W.HELENA SCHOOL DIST.", "city": "WEST HELENA", "ncessch": "050768000476"}, {"name": "HERMITAGE HIGH SCHOOL", "lat": 33.452086, "lon": -92.170349, "proficiency": 0.245, "district": "HERMITAGE SCHOOL DISTRICT", "city": "HERMITAGE", "ncessch": "050771000485"}, {"name": "CROSS CNTY HIGH A NEW TECH SCH", "lat": 35.404243, "lon": -90.807384, "proficiency": 0.445, "district": "CROSS COUNTY SCHOOL DISTRICT", "city": "CHERRY VALLEY", "ncessch": "050774001537"}, {"name": "HIGHLAND MIDDLE SCHOOL", "lat": 36.262868, "lon": -91.534089, "proficiency": 0.57, "district": "HIGHLAND SCHOOL DISTRICT", "city": "HARDY", "ncessch": "050777001232"}, {"name": "YERGER JUNIOR HIGH SCHOOL", "lat": 33.661882, "lon": -93.585515, "proficiency": 0.17, "district": "HOPE SCHOOL DISTRICT", "city": "HOPE", "ncessch": "050784000500"}, {"name": "HOPE ACADEMY", "lat": 33.662132, "lon": -93.596495, "proficiency": 0.445, "district": "HOPE SCHOOL DISTRICT", "city": "HOPE", "ncessch": "050784000805"}, {"name": "HORATIO HIGH SCHOOL", "lat": 33.948152, "lon": -94.347481, "proficiency": 0.445, "district": "HORATIO SCHOOL DISTRICT", "city": "HORATIO", "ncessch": "050786000502"}, {"name": "HOT SPRINGS JUNIOR ACADEMY", "lat": 34.486214, "lon": -93.073825, "proficiency": 0.32, "district": "HOT SPRINGS SCHOOL DISTRICT", "city": "HOT SPRINGS", "ncessch": "050789000514"}, {"name": "JESSIEVILLE MIDDLE SCHOOL", "lat": 34.701022, "lon": -93.061506, "proficiency": 0.47, "district": "JESSIEVILLE SCHOOL DISTRICT", "city": "JESSIEVILLE", "ncessch": "050792001464"}, {"name": "HOXIE HIGH SCHOOL", "lat": 36.05097, "lon": -90.981693, "proficiency": 0.27, "district": "HOXIE SCHOOL DISTRICT", "city": "HOXIE", "ncessch": "050799000518"}, {"name": "EAST JUNIOR HIGH SCHOOL", "lat": 35.156717, "lon": -90.170309, "proficiency": 0.22, "district": "WEST MEMPHIS SCHOOL DISTRICT", "city": "WEST MEMPHIS", "ncessch": "050804000523"}, {"name": "WEST JUNIOR HIGH SCHOOL", "lat": 35.155645, "lon": -90.193136, "proficiency": 0.42, "district": "WEST MEMPHIS SCHOOL DISTRICT", "city": "WEST MEMPHIS", "ncessch": "050804000529"}, {"name": "WONDER JUNIOR HIGH SCHOOL", "lat": 35.13561, "lon": -90.167149, "proficiency": 0.075, "district": "WEST MEMPHIS SCHOOL DISTRICT", "city": "WEST MEMPHIS", "ncessch": "050804000532"}, {"name": "HUNTSVILLE MIDDLE SCHOOL", "lat": 36.086298, "lon": -93.744492, "proficiency": 0.37, "district": "HUNTSVILLE SCHOOL DISTRICT", "city": "HUNTSVILLE", "ncessch": "050813000539"}, {"name": "ST. PAUL HIGH SCHOOL", "lat": 35.823405, "lon": -93.765845, "proficiency": 0.245, "district": "HUNTSVILLE SCHOOL DISTRICT", "city": "ST PAUL", "ncessch": "050813001035"}, {"name": "JASPER HIGH SCHOOL", "lat": 36.004821, "lon": -93.190901, "proficiency": 0.345, "district": "JASPER SCHOOL DISTRICT", "city": "JASPER", "ncessch": "050824000545"}, {"name": "KINGSTON HIGH SCHOOL", "lat": 36.054114, "lon": -93.516532, "proficiency": 0.245, "district": "JASPER SCHOOL DISTRICT", "city": "KINGSTON", "ncessch": "050824000564"}, {"name": "OARK HIGH SCHOOL", "lat": 35.688711, "lon": -93.577472, "proficiency": 0.75, "district": "JASPER SCHOOL DISTRICT", "city": "OARK", "ncessch": "050824000811"}, {"name": "ANNIE CAMP JR. HIGH SCHOOL", "lat": 35.830005, "lon": -90.728544, "proficiency": 0.32, "district": "JONESBORO SCHOOL DISTRICT", "city": "JONESBORO", "ncessch": "050828000547"}, {"name": "DOUGLAS MACARTHUR JHS", "lat": 35.824128, "lon": -90.690087, "proficiency": 0.42, "district": "JONESBORO SCHOOL DISTRICT", "city": "JONESBORO", "ncessch": "050828000548"}, {"name": "JUNCTION CITY HIGH SCHOOL", "lat": 33.020281, "lon": -92.728259, "proficiency": 0.245, "district": "JUNCTION CITY SCHOOL DISTRICT", "city": "JUNCTION CITY", "ncessch": "050834000558"}, {"name": "RIVERVIEW JUNIOR HIGH SCHOOL", "lat": 35.254923, "lon": -91.689393, "proficiency": 0.37, "district": "RIVERVIEW SCHOOL DISTRICT", "city": "SEARCY", "ncessch": "050840001202"}, {"name": "KIRBY HIGH SCHOOL", "lat": 34.248462, "lon": -93.640202, "proficiency": 0.345, "district": "KIRBY SCHOOL DISTRICT", "city": "KIRBY", "ncessch": "050849000566"}, {"name": "LAKE HAMILTON JR. HIGH SCHOOL", "lat": 34.441182, "lon": -93.210599, "proficiency": 0.5, "district": "LAKE HAMILTON SCHOOL DISTRICT", "city": "PEARCY", "ncessch": "050861000574"}, {"name": "LAKESIDE MIDDLE SCHOOL", "lat": 33.324433, "lon": -91.312209, "proficiency": 0.22, "district": "LAKESIDE SCHOOL DISTRICT (CHICOT COUNTY)", "city": "LAKE VILLAGE", "ncessch": "050864000577"}, {"name": "LAKESIDE HIGH SCHOOL", "lat": 34.474053, "lon": -92.997309, "proficiency": 0.57, "district": "LAKESIDE SCHOOL DISTRICT", "city": "HOT SPRINGS", "ncessch": "050867001525"}, {"name": "LAMAR HIGH SCHOOL", "lat": 35.434714, "lon": -93.395189, "proficiency": 0.47, "district": "LAMAR SCHOOL DISTRICT", "city": "LAMAR", "ncessch": "050870000585"}, {"name": "LAVACA MIDDLE SCHOOL", "lat": 35.333419, "lon": -94.173831, "proficiency": 0.545, "district": "LAVACA SCHOOL DISTRICT", "city": "LAVACA", "ncessch": "050873000663"}, {"name": "LINCOLN NEW TECH HIGH SCHOOL", "lat": 35.946584, "lon": -94.405493, "proficiency": 0.42, "district": "LINCOLN SCHOOL DISTRICT", "city": "LINCOLN", "ncessch": "050894001569"}, {"name": "DUNBAR MAGNET MIDDLE SCHOOL", "lat": 34.7325, "lon": -92.286358, "proficiency": 0.22, "district": "LITTLE ROCK SCHOOL DISTRICT", "city": "LITTLE ROCK", "ncessch": "050900000608"}, {"name": "MANN MAGNET MIDDLE SCHOOL", "lat": 34.724877, "lon": -92.263119, "proficiency": 0.47, "district": "LITTLE ROCK SCHOOL DISTRICT", "city": "LITTLE ROCK", "ncessch": "050900000621"}, {"name": "PULASKI HEIGHTS MIDDLE SCHOOL", "lat": 34.754814, "lon": -92.315864, "proficiency": 0.47, "district": "LITTLE ROCK SCHOOL DISTRICT", "city": "LITTLE ROCK", "ncessch": "050900000628"}, {"name": "CLOVERDALE MIDDLE SCHOOL", "lat": 34.673637, "lon": -92.346868, "proficiency": 0.075, "district": "LITTLE ROCK SCHOOL DISTRICT", "city": "LITTLE ROCK", "ncessch": "050900001387"}, {"name": "MABELVALE MIDDLE SCHOOL", "lat": 34.654973, "lon": -92.398948, "proficiency": 0.17, "district": "LITTLE ROCK SCHOOL DISTRICT", "city": "MABELVALE", "ncessch": "050900001388"}, {"name": "FOREST HEIGHTS STEM ACADEMY", "lat": 34.761084, "lon": -92.338873, "proficiency": 0.67, "district": "LITTLE ROCK SCHOOL DISTRICT", "city": "LITTLE ROCK", "ncessch": "050900001601"}, {"name": "PINNACLE VIEW MIDDLE SCHOOL", "lat": 34.807895, "lon": -92.461305, "proficiency": 0.52, "district": "LITTLE ROCK SCHOOL DISTRICT", "city": "LITTLE ROCK", "ncessch": "050900001628"}, {"name": "LONOKE MIDDLE SCHOOL", "lat": 34.778112, "lon": -91.914029, "proficiency": 0.42, "district": "LONOKE SCHOOL DISTRICT", "city": "LONOKE", "ncessch": "050906000643"}, {"name": "J.D. LEFTWICH HIGH SCHOOL", "lat": 35.149359, "lon": -93.802269, "proficiency": 0.545, "district": "MAGAZINE SCHOOL DISTRICT", "city": "MAGAZINE", "ncessch": "050915000650"}, {"name": "MAGNET COVE HIGH SCHOOL", "lat": 34.445365, "lon": -92.835791, "proficiency": 0.545, "district": "MAGNET COVE SCHOOL DIST.", "city": "MALVERN", "ncessch": "050919000652"}, {"name": "MALVERN JUNIOR HIGH SCHOOL", "lat": 34.353041, "lon": -92.807116, "proficiency": 0.37, "district": "MALVERN SCHOOL DISTRICT", "city": "MALVERN", "ncessch": "050924001373"}, {"name": "MAMMOTH SPRING HIGH SCHOOL", "lat": 36.490816, "lon": -91.541131, "proficiency": 0.495, "district": "MAMMOTH SPRING SCHOOL DISTRICT", "city": "MAMMOTH SPRING", "ncessch": "050927000666"}, {"name": "MANSFIELD MIDDLE SCHOOL", "lat": 35.062294, "lon": -94.248978, "proficiency": 0.52, "district": "MANSFIELD SCHOOL DISTRICT", "city": "MANSFIELD", "ncessch": "050933000671"}, {"name": "LEE HIGH SCHOOL", "lat": 34.783886, "lon": -90.780257, "proficiency": 0.05, "district": "LEE COUNTY SCHOOL DISTRICT", "city": "MARIANNA", "ncessch": "050936000675"}, {"name": "MARION JUNIOR HIGH SCHOOL", "lat": 35.192755, "lon": -90.196802, "proficiency": 0.27, "district": "MARION SCHOOL DISTRICT", "city": "MARION", "ncessch": "050939000683"}, {"name": "MARSHALL HIGH SCHOOL", "lat": 35.909198, "lon": -92.659041, "proficiency": 0.445, "district": "SEARCY COUNTY SCHOOL DISTRICT", "city": "MARSHALL", "ncessch": "050948000693"}, {"name": "MARVELL HIGH SCHOOL", "lat": 34.561539, "lon": -90.915938, "proficiency": 0.1, "district": "MARVELL SCHOOL DISTRICT", "city": "MARVELL", "ncessch": "050951000694"}, {"name": "MAYFLOWER MIDDLE SCHOOL", "lat": 34.955784, "lon": -92.441886, "proficiency": 0.62, "district": "MAYFLOWER SCHOOL DISTRICT", "city": "MAYFLOWER", "ncessch": "050954000437"}, {"name": "MAYNARD HIGH SCHOOL", "lat": 36.418084, "lon": -90.898616, "proficiency": 0.245, "district": "MAYNARD SCHOOL DISTRICT", "city": "MAYNARD", "ncessch": "050957000700"}, {"name": "MCCRORY HIGH SCHOOL", "lat": 35.26141, "lon": -91.198001, "proficiency": 0.445, "district": "MCCRORY SCHOOL DISTRICT", "city": "MCCRORY", "ncessch": "050960000702"}, {"name": "MCGEHEE HIGH SCHOOL", "lat": 33.645316, "lon": -91.384133, "proficiency": 0.32, "district": "MCGEHEE SCHOOL DISTRICT", "city": "MCGEHEE", "ncessch": "050963000705"}, {"name": "MELBOURNE HIGH SCHOOL", "lat": 36.070134, "lon": -91.834624, "proficiency": 0.62, "district": "MELBOURNE SCHOOL DISTRICT", "city": "MELBOURNE", "ncessch": "050972000711"}, {"name": "MENA MIDDLE SCHOOL", "lat": 34.580384, "lon": -94.221172, "proficiency": 0.47, "district": "MENA SCHOOL DISTRICT", "city": "MENA", "ncessch": "050975000714"}, {"name": "MINERAL SPRINGS HIGH SCHOOL", "lat": 33.877753, "lon": -93.919336, "proficiency": 0.15, "district": "MINERAL SPRINGS SCHOOL DIST.", "city": "MINERAL SPRINGS", "ncessch": "050978000717"}, {"name": "MONTICELLO MIDDLE SCHOOL", "lat": 33.609807, "lon": -91.812778, "proficiency": 0.52, "district": "MONTICELLO SCHOOL DISTRICT", "city": "MONTICELLO", "ncessch": "050984000722"}, {"name": "MOUNT IDA HIGH SCHOOL", "lat": 34.557099, "lon": -93.63748, "proficiency": 0.445, "district": "MOUNT IDA SCHOOL DISTRICT", "city": "MOUNT IDA", "ncessch": "050999000733"}, {"name": "MT. VERNON/ENOLA HIGH SCHOOL", "lat": 35.226191, "lon": -92.13132, "proficiency": 0.545, "district": "MT. VERNON/ENOLA SCHOOL DIST.", "city": "MT VERNON", "ncessch": "051008000739"}, {"name": "MOUNTAIN PINE HIGH SCHOOL", "lat": 34.576372, "lon": -93.178825, "proficiency": 0.245, "district": "MOUNTAIN PINE SCHOOL DISTRICT", "city": "MOUNTAIN PINE", "ncessch": "051017000746"}, {"name": "RURAL SPECIAL HIGH SCHOOL", "lat": 35.754402, "lon": -92.288121, "proficiency": 0.9, "district": "MOUNTAIN VIEW SCHOOL DISTRICT", "city": "FOX", "ncessch": "051020000965"}, {"name": "TIMBO HIGH SCHOOL", "lat": 35.874821, "lon": -92.317981, "proficiency": 0.75, "district": "MOUNTAIN VIEW SCHOOL DISTRICT", "city": "TIMBO", "ncessch": "051020001087"}, {"name": "MOUNTAIN VIEW MIDDLE SCHOOL", "lat": 35.860225, "lon": -92.084929, "proficiency": 0.52, "district": "MOUNTAIN VIEW SCHOOL DISTRICT", "city": "MOUNTAIN VIEW", "ncessch": "051020001491"}, {"name": "PLEASANT VIEW JUNIOR HIGH", "lat": 35.51734, "lon": -93.96535, "proficiency": 0.245, "district": "MULBERRY SCHOOL DISTRICT", "city": "OZARK", "ncessch": "051029001454"}, {"name": "MURFREESBORO HIGH SCHOOL", "lat": 34.057332, "lon": -93.686254, "proficiency": 0.645, "district": "SOUTH PIKE COUNTY SCHOOL DISTRICT", "city": "MURFREESBORO", "ncessch": "051032000755"}, {"name": "NASHVILLE JUNIOR HIGH SCHOOL", "lat": 33.954022, "lon": -93.854177, "proficiency": 0.42, "district": "NASHVILLE SCHOOL DISTRICT", "city": "NASHVILLE", "ncessch": "051038000758"}, {"name": "NEMO VISTA MIDDLE SCHOOL", "lat": 35.36965, "lon": -92.563632, "proficiency": 0.545, "district": "NEMO VISTA SCHOOL DISTRICT", "city": "CENTER RIDGE", "ncessch": "051041001493"}, {"name": "NETTLETON JUNIOR HIGH SCHOOL", "lat": 35.813082, "lon": -90.647183, "proficiency": 0.37, "district": "NETTLETON SCHOOL DISTRICT", "city": "JONESBORO", "ncessch": "051044000875"}, {"name": "NORFORK HIGH SCHOOL", "lat": 36.195803, "lon": -92.269859, "proficiency": 0.445, "district": "NORFORK SCHOOL DISTRICT", "city": "NORFORK", "ncessch": "051056000774"}, {"name": "LAKEWOOD MIDDLE SCHOOL", "lat": 34.788794, "lon": -92.231386, "proficiency": 0.27, "district": "N. LITTLE ROCK SCHOOL DISTRICT", "city": "NORTH LITTLE ROCK", "ncessch": "051068000788"}, {"name": "OMAHA HIGH SCHOOL", "lat": 36.448833, "lon": -93.196179, "proficiency": 0.495, "district": "OMAHA SCHOOL DISTRICT", "city": "OMAHA", "ncessch": "051092000821"}, {"name": "OSCEOLA MIDDLE SCHOOL", "lat": 35.704256, "lon": -89.975799, "proficiency": 0.17, "district": "OSCEOLA SCHOOL DISTRICT", "city": "OSCEOLA", "ncessch": "051095001555"}, {"name": "OUACHITA HIGH SCHOOL", "lat": 34.23938, "lon": -92.963012, "proficiency": 0.545, "district": "OUACHITA SCHOOL DISTRICT", "city": "DONALDSON", "ncessch": "051098000828"}, {"name": "PANGBURN HIGH SCHOOL", "lat": 35.42935, "lon": -91.835931, "proficiency": 0.445, "district": "PANGBURN SCHOOL DISTRICT", "city": "PANGBURN", "ncessch": "051107000835"}, {"name": "PARIS MIDDLE SCHOOL", "lat": 35.296723, "lon": -93.721526, "proficiency": 0.57, "district": "PARIS SCHOOL DISTRICT", "city": "PARIS", "ncessch": "051113001412"}, {"name": "PARKERS CHAPEL HIGH SCHOOL", "lat": 33.168107, "lon": -92.721577, "proficiency": 0.445, "district": "PARKERS CHAPEL SCHOOL DIST.", "city": "EL DORADO", "ncessch": "051122000841"}, {"name": "PERRYVILLE HIGH SCHOOL", "lat": 35.009533, "lon": -92.795445, "proficiency": 0.47, "district": "PERRYVILLE SCHOOL DISTRICT", "city": "PERRYVILLE", "ncessch": "051134000850"}, {"name": "PIGGOTT HIGH SCHOOL", "lat": 36.381321, "lon": -90.184647, "proficiency": 0.37, "district": "PIGGOTT SCHOOL DISTRICT", "city": "PIGGOTT", "ncessch": "051137000852"}, {"name": "POCAHONTAS JUNIOR HIGH SCHOOL", "lat": 36.28046, "lon": -90.984736, "proficiency": 0.42, "district": "POCAHONTAS SCHOOL DISTRICT", "city": "POCAHONTAS", "ncessch": "051161001438"}, {"name": "POTTSVILLE JUNIOR HIGH SCHOOL", "lat": 35.236566, "lon": -93.033491, "proficiency": 0.62, "district": "POTTSVILLE SCHOOL DISTRICT", "city": "POTTSVILLE", "ncessch": "051170001180"}, {"name": "POYEN HIGH SCHOOL", "lat": 34.325764, "lon": -92.643371, "proficiency": 0.445, "district": "POYEN SCHOOL DISTRICT", "city": "POYEN", "ncessch": "051173000893"}, {"name": "PRAIRIE GROVE MIDDLE SCHOOL", "lat": 35.98473, "lon": -94.317732, "proficiency": 0.52, "district": "PRAIRIE GROVE SCHOOL DISTRICT", "city": "PRAIRIE GROVE", "ncessch": "051176001426"}, {"name": "PRESCOTT JUNIOR HIGH SCHOOL", "lat": 33.791053, "lon": -93.37645, "proficiency": 0.27, "district": "PRESCOTT SCHOOL DISTRICT", "city": "PRESCOTT", "ncessch": "051182001660"}, {"name": "FULLER MIDDLE SCHOOL", "lat": 34.672951, "lon": -92.257667, "proficiency": 0.17, "district": "PULASKI CO. SPEC. SCHOOL DIST.", "city": "LITTLE ROCK", "ncessch": "051185000914"}, {"name": "SYLVAN HILLS MIDDLE SCHOOL", "lat": 34.886504, "lon": -92.221295, "proficiency": 0.29, "district": "PULASKI CO. SPEC. SCHOOL DIST.", "city": "SHERWOOD", "ncessch": "051185000942"}, {"name": "MAUMELLE MIDDLE SCHOOL", "lat": 34.857555, "lon": -92.388904, "proficiency": 0.42, "district": "PULASKI CO. SPEC. SCHOOL DIST.", "city": "MAUMELLE", "ncessch": "051185001106"}, {"name": "JOE T. ROBINSON MIDDLE SCHOOL", "lat": 34.812489, "lon": -92.502149, "proficiency": 0.42, "district": "PULASKI CO. SPEC. SCHOOL DIST.", "city": "LITTLE ROCK", "ncessch": "051185001258"}, {"name": "QUITMAN MIDDLE SCHOOL", "lat": 35.379384, "lon": -92.22161, "proficiency": 0.645, "district": "QUITMAN SCHOOL DISTRICT", "city": "QUITMAN", "ncessch": "051188001664"}, {"name": "KIRKSEY MIDDLE SCHOOL", "lat": 36.298272, "lon": -94.119656, "proficiency": 0.57, "district": "ROGERS SCHOOL DISTRICT", "city": "ROGERS", "ncessch": "051197000304"}, {"name": "LINGLE MIDDLE SCHOOL", "lat": 36.342509, "lon": -94.133031, "proficiency": 0.49, "district": "ROGERS SCHOOL DISTRICT", "city": "ROGERS", "ncessch": "051197000328"}, {"name": "ELMWOOD MIDDLE SCHOOL", "lat": 36.317337, "lon": -94.136413, "proficiency": 0.62, "district": "ROGERS SCHOOL DISTRICT", "city": "ROGERS", "ncessch": "051197000953"}, {"name": "OAKDALE MIDDLE SCHOOL", "lat": 36.338706, "lon": -94.142023, "proficiency": 0.57, "district": "ROGERS SCHOOL DISTRICT", "city": "ROGERS", "ncessch": "051197000957"}, {"name": "ROSE BUD HIGH SCHOOL", "lat": 35.334669, "lon": -92.071599, "proficiency": 0.42, "district": "ROSE BUD SCHOOL DISTRICT", "city": "ROSE BUD", "ncessch": "051200000962"}, {"name": "RUSSELLVILLE JR. HIGH SCHOOL", "lat": 35.290101, "lon": -93.152462, "proficiency": 0.59, "district": "RUSSELLVILLE SCHOOL DISTRICT", "city": "RUSSELLVILLE", "ncessch": "051206000968"}, {"name": "SALEM HIGH SCHOOL", "lat": 36.359236, "lon": -91.816614, "proficiency": 0.62, "district": "SALEM SCHOOL DISTRICT", "city": "SALEM", "ncessch": "051209000975"}, {"name": "SCRANTON HIGH SCHOOL", "lat": 35.361358, "lon": -93.541073, "proficiency": 0.495, "district": "SCRANTON SCHOOL DISTRICT", "city": "SCRANTON", "ncessch": "051218000981"}, {"name": "AHLF JUNIOR HIGH SCHOOL", "lat": 35.252077, "lon": -91.740221, "proficiency": 0.62, "district": "SEARCY SCHOOL DISTRICT", "city": "SEARCY", "ncessch": "051221000986"}, {"name": "SHIRLEY HIGH SCHOOL", "lat": 35.660321, "lon": -92.309374, "proficiency": 0.345, "district": "SHIRLEY SCHOOL DISTRICT", "city": "SHIRLEY", "ncessch": "051242001001"}, {"name": "SILOAM SPRINGS MIDDLE SCHOOL", "lat": 36.180067, "lon": -94.556271, "proficiency": 0.56, "district": "SILOAM SPRINGS SCHOOL DISTRICT", "city": "SILOAM SPRINGS", "ncessch": "051245001004"}, {"name": "SLOAN-HENDRIX HIGH SCHOOL", "lat": 36.20042, "lon": -91.186577, "proficiency": 0.37, "district": "SLOAN-HENDRIX SCHOOL DIST.", "city": "IMBODEN", "ncessch": "051248001007"}, {"name": "NORPHLET MIDDLE SCHOOL", "lat": 33.310348, "lon": -92.66045, "proficiency": 0.27, "district": "SMACKOVER SCHOOL DISTRICT", "city": "NORPHLET", "ncessch": "051251001607"}, {"name": "MORRILTON JUNIOR HIGH SCHOOL", "lat": 35.165992, "lon": -92.73496, "proficiency": 0.37, "district": "SO. CONWAY CO. SCHOOL DISTRICT", "city": "MORRILTON", "ncessch": "051252000041"}, {"name": "SOUTH SIDE HIGH SCHOOL", "lat": 35.429264, "lon": -92.387714, "proficiency": 0.445, "district": "SOUTH SIDE SCHOOL DISTRICT", "city": "BEE BRANCH", "ncessch": "051257001014"}, {"name": "SPRING HILL HIGH SCHOOL", "lat": 33.585313, "lon": -93.651048, "proficiency": 0.645, "district": "SPRING HILL SCHOOL DISTRICT", "city": "HOPE", "ncessch": "051263001018"}, {"name": "CENTRAL JUNIOR HIGH SCHOOL", "lat": 36.188378, "lon": -94.162319, "proficiency": 0.57, "district": "SPRINGDALE SCHOOL DISTRICT", "city": "SPRINGDALE", "ncessch": "051266001020"}, {"name": "SOUTHWEST JUNIOR HIGH SCHOOL", "lat": 36.170369, "lon": -94.153449, "proficiency": 0.51, "district": "SPRINGDALE SCHOOL DISTRICT", "city": "SPRINGDALE", "ncessch": "051266001024"}, {"name": "GEORGE JUNIOR HIGH SCHOOL", "lat": 36.156232, "lon": -94.128137, "proficiency": 0.33, "district": "SPRINGDALE SCHOOL DISTRICT", "city": "SPRINGDALE", "ncessch": "051266001077"}, {"name": "LAKESIDE JUNIOR HIGH SCHOOL", "lat": 36.15677, "lon": -94.087581, "proficiency": 0.32, "district": "SPRINGDALE SCHOOL DISTRICT", "city": "SPRINGDALE", "ncessch": "051266001562"}, {"name": "SPRINGDALE SCHOOL OF INNOVATIONS", "lat": 36.160201, "lon": -94.084551, "proficiency": 0.52, "district": "SPRINGDALE SCHOOL DISTRICT", "city": "SPRINGDALE", "ncessch": "051266001633"}, {"name": "STRONG-HUTTIG SCHOOLS", "lat": 33.106404, "lon": -92.355626, "proficiency": 0.1, "district": "STRONG-HUTTIG SCHOOL DISTRICT", "city": "STRONG", "ncessch": "051293001663"}, {"name": "STUTTGART JUNIOR HIGH SCHOOL", "lat": 34.476869, "lon": -91.55748, "proficiency": 0.52, "district": "STUTTGART SCHOOL DISTRICT", "city": "STUTTGART", "ncessch": "051296001249"}, {"name": "GREEN CO. TECH JR. HIGH SCHOOL", "lat": 36.064154, "lon": -90.553497, "proficiency": 0.52, "district": "GREENE CO. TECH SCHOOL DIST.", "city": "PARAGOULD", "ncessch": "051308001368"}, {"name": "TUCKERMAN HIGH SCHOOL", "lat": 35.736172, "lon": -91.2007, "proficiency": 0.62, "district": "JACKSON CO. SCHOOL DISTRICT", "city": "TUCKERMAN", "ncessch": "051323001083"}, {"name": "VALLEY SPRINGS MIDDLE SCHOOL", "lat": 36.157989, "lon": -92.993665, "proficiency": 0.67, "district": "VALLEY SPRINGS SCHOOL DISTRICT", "city": "VALLEY SPRINGS", "ncessch": "051335000678"}, {"name": "VALLEY VIEW JUNIOR HIGH SCHOOL", "lat": 35.7782, "lon": -90.7391, "proficiency": 0.67, "district": "VALLEY VIEW SCHOOL DISTRICT", "city": "JONESBORO", "ncessch": "051338001580"}, {"name": "NORTHRIDGE MIDDLE SCHOOL", "lat": 35.477606, "lon": -94.359449, "proficiency": 0.57, "district": "VAN BUREN SCHOOL DISTRICT", "city": "VAN BUREN", "ncessch": "051341000393"}, {"name": "BUTTERFIELD JUNIOR HIGH SCHOOL", "lat": 35.44014, "lon": -94.34754, "proficiency": 0.42, "district": "VAN BUREN SCHOOL DISTRICT", "city": "VAN BUREN", "ncessch": "051341001102"}, {"name": "VILONIA MIDDLE SCHOOL", "lat": 35.080348, "lon": -92.19671, "proficiency": 0.72, "district": "VILONIA SCHOOL DISTRICT", "city": "VILONIA", "ncessch": "051353000137"}, {"name": "VIOLA HIGH SCHOOL", "lat": 36.395556, "lon": -91.986116, "proficiency": 0.695, "district": "VIOLA SCHOOL DISTRICT", "city": "VIOLA", "ncessch": "051356001112"}, {"name": "WALDRON MIDDLE SCHOOL", "lat": 34.903582, "lon": -94.113923, "proficiency": 0.42, "district": "WALDRON SCHOOL DISTRICT", "city": "WALDRON", "ncessch": "051368001121"}, {"name": "WATSON CHAPEL JR. HIGH SCHOOL", "lat": 34.189927, "lon": -92.065921, "proficiency": 0.17, "district": "WATSON CHAPEL SCHOOL DISTRICT", "city": "PINE BLUFF", "ncessch": "051393001212"}, {"name": "WEST FORK MIDDLE SCHOOL", "lat": 35.922461, "lon": -94.191461, "proficiency": 0.62, "district": "WEST FORK SCHOOL DISTRICT", "city": "WEST FORK", "ncessch": "051401001145"}, {"name": "WESTSIDE HIGH SCHOOL", "lat": 35.441798, "lon": -93.653984, "proficiency": 0.245, "district": "WESTSIDE SCHOOL DISTRICT", "city": "COAL HILL", "ncessch": "051402001267"}, {"name": "WEST SIDE HIGH SCHOOL", "lat": 35.580705, "lon": -92.166198, "proficiency": 0.345, "district": "WEST SIDE SCHOOL DISTRICT", "city": "GREERS FERRY", "ncessch": "051404001147"}, {"name": "WHITE HALL JUNIOR HIGH SCHOOL", "lat": 34.272538, "lon": -92.091222, "proficiency": 0.52, "district": "WHITE HALL SCHOOL DISTRICT", "city": "WHITE HALL", "ncessch": "051414001247"}, {"name": "WONDERVIEW HIGH SCHOOL", "lat": 35.328282, "lon": -92.729383, "proficiency": 0.695, "district": "WONDERVIEW SCHOOL DISTRICT", "city": "HATTIEVILLE", "ncessch": "051437001170"}, {"name": "WOODLAWN HIGH SCHOOL", "lat": 33.9672, "lon": -92.040875, "proficiency": 0.545, "district": "WOODLAWN SCHOOL DISTRICT", "city": "RISON", "ncessch": "051440001172"}, {"name": "WYNNE JUNIOR HIGH SCHOOL", "lat": 35.241846, "lon": -90.777857, "proficiency": 0.42, "district": "WYNNE SCHOOL DISTRICT", "city": "WYNNE", "ncessch": "051443001174"}, {"name": "YELLVILLE-SUMMIT HIGH SCHOOL", "lat": 36.24023, "lon": -92.689863, "proficiency": 0.345, "district": "YELLVILLE-SUMMIT SCHOOL DIST.", "city": "YELLVILLE", "ncessch": "051449001178"}], "districts": [{"name": "DEWITT SCHOOL DISTRICT", "lat": 34.277803, "lon": -91.348212, "proficiency": 0.67, "schoolCount": 1}, {"name": "WARREN SCHOOL DISTRICT", "lat": 33.62741, "lon": -92.067595, "proficiency": 0.37, "schoolCount": 1}, {"name": "CORNING SCHOOL DISTRICT", "lat": 36.419184, "lon": -90.580056, "proficiency": 0.37, "schoolCount": 1}, {"name": "RIVERSIDE SCHOOL DISTRICT", "lat": 35.820023, "lon": -90.454181, "proficiency": 0.32, "schoolCount": 1}, {"name": "SHERIDAN SCHOOL DISTRICT", "lat": 34.31098, "lon": -92.398113, "proficiency": 0.46, "schoolCount": 1}, {"name": "MARMADUKE SCHOOL DISTRICT", "lat": 36.193398, "lon": -90.393772, "proficiency": 0.32, "schoolCount": 1}, {"name": "PARAGOULD SCHOOL DISTRICT", "lat": 36.057542, "lon": -90.509842, "proficiency": 0.57, "schoolCount": 1}, {"name": "BATESVILLE SCHOOL DISTRICT", "lat": 35.7549, "lon": -91.62203, "proficiency": 0.52, "schoolCount": 1}, {"name": "MIDLAND SCHOOL DISTRICT", "lat": 35.547101, "lon": -91.624886, "proficiency": 0.15, "schoolCount": 1}, {"name": "IZARD CO. CONS. SCHOOL DIST.", "lat": 36.154832, "lon": -91.923646, "proficiency": 0.345, "schoolCount": 1}, {"name": "NEWPORT SCHOOL DISTRICT", "lat": 35.601469, "lon": -91.272273, "proficiency": 0.22, "schoolCount": 1}, {"name": "PINE BLUFF SCHOOL DISTRICT", "lat": 34.188956, "lon": -92.005563, "proficiency": 0.17, "schoolCount": 1}, {"name": "STAR CITY SCHOOL DISTRICT", "lat": 33.941072, "lon": -91.840762, "proficiency": 0.47, "schoolCount": 1}, {"name": "GOSNELL SCHOOL DISTRICT", "lat": 35.964172, "lon": -89.966709, "proficiency": 0.62, "schoolCount": 1}, {"name": "NEVADA SCHOOL DISTRICT", "lat": 33.591551, "lon": -93.295782, "proficiency": 0.245, "schoolCount": 1}, {"name": "BEARDEN SCHOOL DISTRICT", "lat": 33.730548, "lon": -92.621291, "proficiency": 0.345, "schoolCount": 1}, {"name": "ARK. SCHOOL FOR THE BLIND", "lat": 34.752798, "lon": -92.303108, "proficiency": 0.245, "schoolCount": 1}, {"name": "ARK. SCHOOL FOR THE DEAF", "lat": 34.7519, "lon": -92.2987, "proficiency": 0.245, "schoolCount": 1}, {"name": "WESTERN YELL CO. SCHOOL DIST.", "lat": 35.108888, "lon": -93.524271, "proficiency": 0.3, "schoolCount": 1}, {"name": "HAMBURG SCHOOL DISTRICT", "lat": 33.2089, "lon": -91.79403, "proficiency": 0.37, "schoolCount": 1}, {"name": "MAGNOLIA SCHOOL DISTRICT", "lat": 33.269926, "lon": -93.23429, "proficiency": 0.37, "schoolCount": 1}, {"name": "RIVERCREST SCHOOL DISTRICT #57", "lat": 35.612581, "lon": -90.106985, "proficiency": 0.27, "schoolCount": 1}, {"name": "TRUMANN SCHOOL DISTRICT", "lat": 35.673161, "lon": -90.5186, "proficiency": 0.37, "schoolCount": 1}, {"name": "EAST POINSETT CO. SCHOOL DIST.", "lat": 35.609971, "lon": -90.340744, "proficiency": 0.545, "schoolCount": 1}, {"name": "DEQUEEN SCHOOL DISTRICT", "lat": 34.029845, "lon": -94.358751, "proficiency": 0.72, "schoolCount": 1}, {"name": "PALESTINE-WHEATLEY SCH. DIST.", "lat": 34.969504, "lon": -90.904465, "proficiency": 0.245, "schoolCount": 1}, {"name": "BENTON COUNTY SCHOOL OF ARTS", "lat": 36.331116, "lon": -94.122098, "proficiency": 0.57, "schoolCount": 1}, {"name": "ACADEMICS PLUS CHARTER SCHOOL", "lat": 34.782978, "lon": -92.2513035, "proficiency": 0.5575, "schoolCount": 2}, {"name": "KIPP DELTA PUBLIC SCHOOLS", "lat": 35.215551000000005, "lon": -90.2549765, "proficiency": 0.335, "schoolCount": 2}, {"name": "LAFAYETTE COUNTY SCHOOL DISTRICT", "lat": 33.369897, "lon": -93.481056, "proficiency": 0.15, "schoolCount": 1}, {"name": "CLEVELAND COUNTY SCHOOL DIST.", "lat": 33.954667, "lon": -92.187596, "proficiency": 0.57, "schoolCount": 1}, {"name": "EMERSON-TAYLOR SCHOOL DISTRICT", "lat": 33.099828333333335, "lon": -93.43858566666667, "proficiency": 0.6783, "schoolCount": 3}, {"name": "CEDAR RIDGE SCHOOL DISTRICT", "lat": 35.720304, "lon": -91.445496, "proficiency": 0.245, "schoolCount": 1}, {"name": "HILLCREST SCHOOL DISTRICT", "lat": 35.965189, "lon": -91.322402, "proficiency": 0.345, "schoolCount": 1}, {"name": "DEER/MT. JUDEA SCHOOL DISTRICT", "lat": 35.8735635, "lon": -93.133713, "proficiency": 0.2725, "schoolCount": 2}, {"name": "OUACHITA RIVER SCHOOL DISTRICT", "lat": 34.6285915, "lon": -93.99349000000001, "proficiency": 0.395, "schoolCount": 2}, {"name": "LISA ACADEMY CHARTER", "lat": 34.775960999999995, "lon": -92.3005905, "proficiency": 0.57, "schoolCount": 2}, {"name": "OZARK MOUNTAIN SCHOOL DISTRICT", "lat": 36.102704333333335, "lon": -92.86790833333333, "proficiency": 0.4117, "schoolCount": 3}, {"name": "HAAS HALL ACADEMY", "lat": 36.213368, "lon": -94.12667233333333, "proficiency": 0.905, "schoolCount": 3}, {"name": "TWO RIVERS SCHOOL DISTRICT", "lat": 35.01082, "lon": -93.2732, "proficiency": 0.445, "schoolCount": 1}, {"name": "LAWRENCE COUNTY SCHOOL DISTRICT", "lat": 36.062143, "lon": -90.957295, "proficiency": 0.47, "schoolCount": 1}, {"name": "ARKANSAS VIRTUAL ACADEMY", "lat": 34.739703, "lon": -92.395167, "proficiency": 0.3, "schoolCount": 1}, {"name": "ESTEM HIGH CHARTER", "lat": 34.7446245, "lon": -92.2643165, "proficiency": 0.445, "schoolCount": 2}, {"name": "ARKANSAS LIGHTHOUSE ACADEMIES", "lat": 34.881175999999996, "lon": -92.1228525, "proficiency": 0.395, "schoolCount": 2}, {"name": "COSSATOT RIVER SCHOOL DISTRICT", "lat": 34.3305665, "lon": -94.2199685, "proficiency": 0.2825, "schoolCount": 2}, {"name": "FOUNDERS CLASSICAL ACADEMIES OF ARKANSAS", "lat": 36.361985, "lon": -94.228119, "proficiency": 0.545, "schoolCount": 1}, {"name": "ARKANSAS CONNECTIONS ACADEMY", "lat": 36.383173, "lon": -94.170616, "proficiency": 0.27, "schoolCount": 1}, {"name": "JACKSONVILLE NORTH PULASKI SCHOOL DISTRICT", "lat": 34.88427, "lon": -92.158681, "proficiency": 0.17, "schoolCount": 1}, {"name": "ALMA SCHOOL DISTRICT", "lat": 35.489001, "lon": -94.215007, "proficiency": 0.57, "schoolCount": 1}, {"name": "ALPENA SCHOOL DISTRICT", "lat": 36.291456, "lon": -93.294979, "proficiency": 0.645, "schoolCount": 1}, {"name": "ARKADELPHIA SCHOOL DISTRICT", "lat": 34.122449, "lon": -93.095203, "proficiency": 0.52, "schoolCount": 1}, {"name": "ARMOREL SCHOOL DISTRICT", "lat": 35.917188, "lon": -89.799526, "proficiency": 0.3, "schoolCount": 1}, {"name": "ASHDOWN SCHOOL DISTRICT", "lat": 33.665416, "lon": -94.113994, "proficiency": 0.47, "schoolCount": 1}, {"name": "ATKINS SCHOOL DISTRICT", "lat": 35.245708, "lon": -92.94434, "proficiency": 0.72, "schoolCount": 1}, {"name": "AUGUSTA SCHOOL DISTRICT", "lat": 35.283558, "lon": -91.355574, "proficiency": 0.3, "schoolCount": 1}, {"name": "BALD KNOB SCHOOL DISTRICT", "lat": 35.315839, "lon": -91.571351, "proficiency": 0.42, "schoolCount": 1}, {"name": "BARTON-LEXA SCHOOL DISTRICT", "lat": 34.552303, "lon": -90.76741, "proficiency": 0.52, "schoolCount": 1}, {"name": "BAUXITE SCHOOL DISTRICT", "lat": 34.554642, "lon": -92.511457, "proficiency": 0.37, "schoolCount": 1}, {"name": "BAY SCHOOL DISTRICT", "lat": 35.74775, "lon": -90.566336, "proficiency": 0.345, "schoolCount": 1}, {"name": "BEEBE SCHOOL DISTRICT", "lat": 35.063664, "lon": -91.894537, "proficiency": 0.62, "schoolCount": 1}, {"name": "BENTON SCHOOL DISTRICT", "lat": 34.567074, "lon": -92.57354, "proficiency": 0.67, "schoolCount": 1}, {"name": "PEA RIDGE SCHOOL DISTRICT", "lat": 36.454021, "lon": -94.123269, "proficiency": 0.52, "schoolCount": 1}, {"name": "BENTONVILLE SCHOOL DISTRICT", "lat": 36.36069833333333, "lon": -94.21274366666667, "proficiency": 0.67, "schoolCount": 3}, {"name": "BERGMAN SCHOOL DISTRICT", "lat": 36.313312, "lon": -93.021351, "proficiency": 0.62, "schoolCount": 1}, {"name": "BERRYVILLE SCHOOL DISTRICT", "lat": 36.369626, "lon": -93.574987, "proficiency": 0.47, "schoolCount": 1}, {"name": "BISMARCK SCHOOL DISTRICT", "lat": 34.315722, "lon": -93.176879, "proficiency": 0.77, "schoolCount": 1}, {"name": "BLEVINS SCHOOL DISTRICT", "lat": 33.874753, "lon": -93.572541, "proficiency": 0.345, "schoolCount": 1}, {"name": "BLYTHEVILLE SCHOOL DISTRICT", "lat": 35.930163, "lon": -89.911009, "proficiency": 0.17, "schoolCount": 1}, {"name": "LEAD HILL SCHOOL DISTRICT", "lat": 36.406871, "lon": -92.907469, "proficiency": 0.345, "schoolCount": 1}, {"name": "BOONEVILLE SCHOOL DISTRICT", "lat": 35.146212, "lon": -93.910529, "proficiency": 0.57, "schoolCount": 1}, {"name": "BRADFORD SCHOOL DISTRICT", "lat": 35.425623, "lon": -91.459602, "proficiency": 0.3, "schoolCount": 1}, {"name": "BRINKLEY SCHOOL DISTRICT", "lat": 34.877231, "lon": -91.195255, "proficiency": 0.245, "schoolCount": 1}, {"name": "BROOKLAND SCHOOL DISTRICT", "lat": 35.908358, "lon": -90.579837, "proficiency": 0.57, "schoolCount": 1}, {"name": "BRYANT SCHOOL DISTRICT", "lat": 34.629791499999996, "lon": -92.5218255, "proficiency": 0.66, "schoolCount": 2}, {"name": "BUFFALO IS. CENTRAL SCH. DIST.", "lat": 35.888965, "lon": -90.351228, "proficiency": 0.345, "schoolCount": 1}, {"name": "CABOT SCHOOL DISTRICT", "lat": 34.953615, "lon": -92.01450033333333, "proficiency": 0.555, "schoolCount": 3}, {"name": "CADDO HILLS SCHOOL DISTRICT", "lat": 34.419957, "lon": -93.631236, "proficiency": 0.345, "schoolCount": 1}, {"name": "CALICO ROCK SCHOOL DISTRICT", "lat": 36.122576, "lon": -92.126312, "proficiency": 0.9, "schoolCount": 1}, {"name": "CARLISLE SCHOOL DISTRICT", "lat": 34.779476, "lon": -91.732383, "proficiency": 0.445, "schoolCount": 1}, {"name": "WESTSIDE CONS. SCHOOL DISTRICT", "lat": 35.856332, "lon": -90.802889, "proficiency": 0.42, "schoolCount": 1}, {"name": "CAVE CITY SCHOOL DISTRICT", "lat": 35.95116, "lon": -91.55014, "proficiency": 0.67, "schoolCount": 1}, {"name": "CEDARVILLE SCHOOL DISTRICT", "lat": 35.577635, "lon": -94.369326, "proficiency": 0.545, "schoolCount": 1}, {"name": "GENOA CENTRAL SCHOOL DISTRICT", "lat": 33.376739, "lon": -93.88159, "proficiency": 0.62, "schoolCount": 1}, {"name": "WHITE CO. CENTRAL SCHOOL DIST.", "lat": 35.357721, "lon": -91.677761, "proficiency": 0.445, "schoolCount": 1}, {"name": "CHARLESTON SCHOOL DISTRICT", "lat": 35.29415, "lon": -94.04633, "proficiency": 0.57, "schoolCount": 1}, {"name": "CLARENDON SCHOOL DISTRICT", "lat": 34.695403, "lon": -91.306277, "proficiency": 0.245, "schoolCount": 1}, {"name": "RECTOR SCHOOL DISTRICT", "lat": 36.263209, "lon": -90.298688, "proficiency": 0.445, "schoolCount": 1}, {"name": "CLARKSVILLE SCHOOL DISTRICT", "lat": 35.460813, "lon": -93.488671, "proficiency": 0.37, "schoolCount": 1}, {"name": "CLINTON SCHOOL DISTRICT", "lat": 35.587428, "lon": -92.45842, "proficiency": 0.62, "schoolCount": 1}, {"name": "CONCORD SCHOOL DISTRICT", "lat": 35.664443, "lon": -91.846104, "proficiency": 0.695, "schoolCount": 1}, {"name": "CONWAY SCHOOL DISTRICT", "lat": 35.092689, "lon": -92.448861, "proficiency": 0.65, "schoolCount": 1}, {"name": "COTTER SCHOOL DISTRICT", "lat": 36.279027, "lon": -92.521168, "proficiency": 0.345, "schoolCount": 1}, {"name": "COUNTY LINE SCHOOL DISTRICT", "lat": 35.3074, "lon": -93.91684, "proficiency": 0.645, "schoolCount": 1}, {"name": "CROSSETT SCHOOL DISTRICT", "lat": 33.12074, "lon": -91.962539, "proficiency": 0.57, "schoolCount": 1}, {"name": "CUTTER-MORNING STAR SCH. DIST.", "lat": 34.504045, "lon": -92.989566, "proficiency": 0.245, "schoolCount": 1}, {"name": "DANVILLE SCHOOL DISTRICT", "lat": 35.051909, "lon": -93.391518, "proficiency": 0.42, "schoolCount": 1}, {"name": "DARDANELLE SCHOOL DISTRICT", "lat": 35.203291, "lon": -93.157837, "proficiency": 0.47, "schoolCount": 1}, {"name": "DECATUR SCHOOL DISTRICT", "lat": 36.3332, "lon": -94.44557, "proficiency": 0.245, "schoolCount": 1}, {"name": "DERMOTT SCHOOL DISTRICT", "lat": 33.523118, "lon": -91.428739, "proficiency": 0.1, "schoolCount": 1}, {"name": "DES ARC SCHOOL DISTRICT", "lat": 34.977896, "lon": -91.499066, "proficiency": 0.745, "schoolCount": 1}, {"name": "DIERKS SCHOOL DISTRICT", "lat": 34.119131, "lon": -94.030353, "proficiency": 0.545, "schoolCount": 1}, {"name": "DOVER SCHOOL DISTRICT", "lat": 35.399724, "lon": -93.116571, "proficiency": 0.52, "schoolCount": 1}, {"name": "DREW CENTRAL SCHOOL DISTRICT", "lat": 33.593015, "lon": -91.807537, "proficiency": 0.42, "schoolCount": 1}, {"name": "DUMAS SCHOOL DISTRICT", "lat": 33.884822, "lon": -91.487175, "proficiency": 0.42, "schoolCount": 1}, {"name": "EARLE SCHOOL DISTRICT", "lat": 35.276913, "lon": -90.448775, "proficiency": 0.1, "schoolCount": 1}, {"name": "EAST END SCHOOL DISTRICT", "lat": 34.997914, "lon": -92.632958, "proficiency": 0.445, "schoolCount": 1}, {"name": "EL DORADO SCHOOL DISTRICT", "lat": 33.215811, "lon": -92.668231, "proficiency": 0.44, "schoolCount": 1}, {"name": "ELKINS SCHOOL DISTRICT", "lat": 36.004965, "lon": -94.009939, "proficiency": 0.52, "schoolCount": 1}, {"name": "ENGLAND SCHOOL DISTRICT", "lat": 34.5426, "lon": -91.954555, "proficiency": 0.245, "schoolCount": 1}, {"name": "EUREKA SPRINGS SCHOOL DISTRICT", "lat": 36.382699, "lon": -93.733817, "proficiency": 0.645, "schoolCount": 1}, {"name": "CAMDEN FAIRVIEW SCHOOL DIST.", "lat": 33.593478, "lon": -92.84779, "proficiency": 0.22, "schoolCount": 1}, {"name": "FARMINGTON SCHOOL DISTRICT", "lat": 36.040713, "lon": -94.252928, "proficiency": 0.62, "schoolCount": 1}, {"name": "FAYETTEVILLE SCHOOL DISTRICT", "lat": 36.06825666666666, "lon": -94.160002, "proficiency": 0.6317, "schoolCount": 3}, {"name": "FLIPPIN SCHOOL DISTRICT", "lat": 36.280912, "lon": -92.600687, "proficiency": 0.47, "schoolCount": 1}, {"name": "FORDYCE SCHOOL DISTRICT", "lat": 33.819417, "lon": -92.434019, "proficiency": 0.27, "schoolCount": 1}, {"name": "FOREMAN SCHOOL DISTRICT", "lat": 33.712792, "lon": -94.393736, "proficiency": 0.545, "schoolCount": 1}, {"name": "FORREST CITY SCHOOL DISTRICT", "lat": 35.01982, "lon": -90.790753, "proficiency": 0.12, "schoolCount": 1}, {"name": "FORT SMITH SCHOOL DISTRICT", "lat": 35.372909400000005, "lon": -94.3915794, "proficiency": 0.435, "schoolCount": 5}, {"name": "FOUKE SCHOOL DISTRICT", "lat": 33.26393, "lon": -93.882623, "proficiency": 0.37, "schoolCount": 1}, {"name": "FOUNTAIN LAKE SCHOOL DISTRICT", "lat": 34.57297, "lon": -92.988331, "proficiency": 0.62, "schoolCount": 1}, {"name": "GENTRY SCHOOL DISTRICT", "lat": 36.256249, "lon": -94.494999, "proficiency": 0.62, "schoolCount": 1}, {"name": "GLEN ROSE SCHOOL DISTRICT", "lat": 34.456168, "lon": -92.730419, "proficiency": 0.67, "schoolCount": 1}, {"name": "CENTERPOINT SCHOOL DISTRICT", "lat": 34.287337, "lon": -93.511691, "proficiency": 0.32, "schoolCount": 1}, {"name": "GRAVETTE SCHOOL DISTRICT", "lat": 36.418165, "lon": -94.446156, "proficiency": 0.62, "schoolCount": 1}, {"name": "GREEN FOREST SCHOOL DISTRICT", "lat": 36.330213, "lon": -93.431043, "proficiency": 0.37, "schoolCount": 1}, {"name": "GREENBRIER SCHOOL DISTRICT", "lat": 35.231037, "lon": -92.39032, "proficiency": 0.72, "schoolCount": 1}, {"name": "GREENLAND SCHOOL DISTRICT", "lat": 35.995588, "lon": -94.17333, "proficiency": 0.47, "schoolCount": 1}, {"name": "GREENWOOD SCHOOL DISTRICT", "lat": 35.219592, "lon": -94.256017, "proficiency": 0.72, "schoolCount": 1}, {"name": "GURDON SCHOOL DISTRICT", "lat": 33.908118, "lon": -93.191081, "proficiency": 0.245, "schoolCount": 1}, {"name": "GUY-PERKINS SCHOOL DISTRICT", "lat": 35.324054, "lon": -92.32412, "proficiency": 0.495, "schoolCount": 1}, {"name": "HACKETT SCHOOL DISTRICT", "lat": 35.187004, "lon": -94.409227, "proficiency": 0.345, "schoolCount": 1}, {"name": "HAMPTON SCHOOL DISTRICT", "lat": 33.536864, "lon": -92.464332, "proficiency": 0.245, "schoolCount": 1}, {"name": "HARMONY GROVE SCHOOL DISTRICT", "lat": 34.079604, "lon": -92.71159650000001, "proficiency": 0.4075, "schoolCount": 2}, {"name": "HARRISON SCHOOL DISTRICT", "lat": 36.241849, "lon": -93.133261, "proficiency": 0.67, "schoolCount": 1}, {"name": "HAZEN SCHOOL DISTRICT", "lat": 34.784865, "lon": -91.579056, "proficiency": 0.345, "schoolCount": 1}, {"name": "HEBER SPRINGS SCHOOL DISTRICT", "lat": 35.497362, "lon": -92.036893, "proficiency": 0.57, "schoolCount": 1}, {"name": "HECTOR SCHOOL DISTRICT", "lat": 35.470061, "lon": -92.973784, "proficiency": 0.345, "schoolCount": 1}, {"name": "HELENA/ W.HELENA SCHOOL DIST.", "lat": 34.544609, "lon": -90.62577, "proficiency": 0.12, "schoolCount": 1}, {"name": "HERMITAGE SCHOOL DISTRICT", "lat": 33.452086, "lon": -92.170349, "proficiency": 0.245, "schoolCount": 1}, {"name": "CROSS COUNTY SCHOOL DISTRICT", "lat": 35.404243, "lon": -90.807384, "proficiency": 0.445, "schoolCount": 1}, {"name": "HIGHLAND SCHOOL DISTRICT", "lat": 36.262868, "lon": -91.534089, "proficiency": 0.57, "schoolCount": 1}, {"name": "HOPE SCHOOL DISTRICT", "lat": 33.662007, "lon": -93.591005, "proficiency": 0.3075, "schoolCount": 2}, {"name": "HORATIO SCHOOL DISTRICT", "lat": 33.948152, "lon": -94.347481, "proficiency": 0.445, "schoolCount": 1}, {"name": "HOT SPRINGS SCHOOL DISTRICT", "lat": 34.486214, "lon": -93.073825, "proficiency": 0.32, "schoolCount": 1}, {"name": "JESSIEVILLE SCHOOL DISTRICT", "lat": 34.701022, "lon": -93.061506, "proficiency": 0.47, "schoolCount": 1}, {"name": "HOXIE SCHOOL DISTRICT", "lat": 36.05097, "lon": -90.981693, "proficiency": 0.27, "schoolCount": 1}, {"name": "WEST MEMPHIS SCHOOL DISTRICT", "lat": 35.149324, "lon": -90.17686466666667, "proficiency": 0.2383, "schoolCount": 3}, {"name": "HUNTSVILLE SCHOOL DISTRICT", "lat": 35.954851500000004, "lon": -93.7551685, "proficiency": 0.3075, "schoolCount": 2}, {"name": "JASPER SCHOOL DISTRICT", "lat": 35.915882, "lon": -93.42830166666666, "proficiency": 0.4467, "schoolCount": 3}, {"name": "JONESBORO SCHOOL DISTRICT", "lat": 35.8270665, "lon": -90.7093155, "proficiency": 0.37, "schoolCount": 2}, {"name": "JUNCTION CITY SCHOOL DISTRICT", "lat": 33.020281, "lon": -92.728259, "proficiency": 0.245, "schoolCount": 1}, {"name": "RIVERVIEW SCHOOL DISTRICT", "lat": 35.254923, "lon": -91.689393, "proficiency": 0.37, "schoolCount": 1}, {"name": "KIRBY SCHOOL DISTRICT", "lat": 34.248462, "lon": -93.640202, "proficiency": 0.345, "schoolCount": 1}, {"name": "LAKE HAMILTON SCHOOL DISTRICT", "lat": 34.441182, "lon": -93.210599, "proficiency": 0.5, "schoolCount": 1}, {"name": "LAKESIDE SCHOOL DISTRICT (CHICOT COUNTY)", "lat": 33.324433, "lon": -91.312209, "proficiency": 0.22, "schoolCount": 1}, {"name": "LAKESIDE SCHOOL DISTRICT", "lat": 34.474053, "lon": -92.997309, "proficiency": 0.57, "schoolCount": 1}, {"name": "LAMAR SCHOOL DISTRICT", "lat": 35.434714, "lon": -93.395189, "proficiency": 0.47, "schoolCount": 1}, {"name": "LAVACA SCHOOL DISTRICT", "lat": 35.333419, "lon": -94.173831, "proficiency": 0.545, "schoolCount": 1}, {"name": "LINCOLN SCHOOL DISTRICT", "lat": 35.946584, "lon": -94.405493, "proficiency": 0.42, "schoolCount": 1}, {"name": "LITTLE ROCK SCHOOL DISTRICT", "lat": 34.72996857142857, "lon": -92.34447642857143, "proficiency": 0.3707, "schoolCount": 7}, {"name": "LONOKE SCHOOL DISTRICT", "lat": 34.778112, "lon": -91.914029, "proficiency": 0.42, "schoolCount": 1}, {"name": "MAGAZINE SCHOOL DISTRICT", "lat": 35.149359, "lon": -93.802269, "proficiency": 0.545, "schoolCount": 1}, {"name": "MAGNET COVE SCHOOL DIST.", "lat": 34.445365, "lon": -92.835791, "proficiency": 0.545, "schoolCount": 1}, {"name": "MALVERN SCHOOL DISTRICT", "lat": 34.353041, "lon": -92.807116, "proficiency": 0.37, "schoolCount": 1}, {"name": "MAMMOTH SPRING SCHOOL DISTRICT", "lat": 36.490816, "lon": -91.541131, "proficiency": 0.495, "schoolCount": 1}, {"name": "MANSFIELD SCHOOL DISTRICT", "lat": 35.062294, "lon": -94.248978, "proficiency": 0.52, "schoolCount": 1}, {"name": "LEE COUNTY SCHOOL DISTRICT", "lat": 34.783886, "lon": -90.780257, "proficiency": 0.05, "schoolCount": 1}, {"name": "MARION SCHOOL DISTRICT", "lat": 35.192755, "lon": -90.196802, "proficiency": 0.27, "schoolCount": 1}, {"name": "SEARCY COUNTY SCHOOL DISTRICT", "lat": 35.909198, "lon": -92.659041, "proficiency": 0.445, "schoolCount": 1}, {"name": "MARVELL SCHOOL DISTRICT", "lat": 34.561539, "lon": -90.915938, "proficiency": 0.1, "schoolCount": 1}, {"name": "MAYFLOWER SCHOOL DISTRICT", "lat": 34.955784, "lon": -92.441886, "proficiency": 0.62, "schoolCount": 1}, {"name": "MAYNARD SCHOOL DISTRICT", "lat": 36.418084, "lon": -90.898616, "proficiency": 0.245, "schoolCount": 1}, {"name": "MCCRORY SCHOOL DISTRICT", "lat": 35.26141, "lon": -91.198001, "proficiency": 0.445, "schoolCount": 1}, {"name": "MCGEHEE SCHOOL DISTRICT", "lat": 33.645316, "lon": -91.384133, "proficiency": 0.32, "schoolCount": 1}, {"name": "MELBOURNE SCHOOL DISTRICT", "lat": 36.070134, "lon": -91.834624, "proficiency": 0.62, "schoolCount": 1}, {"name": "MENA SCHOOL DISTRICT", "lat": 34.580384, "lon": -94.221172, "proficiency": 0.47, "schoolCount": 1}, {"name": "MINERAL SPRINGS SCHOOL DIST.", "lat": 33.877753, "lon": -93.919336, "proficiency": 0.15, "schoolCount": 1}, {"name": "MONTICELLO SCHOOL DISTRICT", "lat": 33.609807, "lon": -91.812778, "proficiency": 0.52, "schoolCount": 1}, {"name": "MOUNT IDA SCHOOL DISTRICT", "lat": 34.557099, "lon": -93.63748, "proficiency": 0.445, "schoolCount": 1}, {"name": "MT. VERNON/ENOLA SCHOOL DIST.", "lat": 35.226191, "lon": -92.13132, "proficiency": 0.545, "schoolCount": 1}, {"name": "MOUNTAIN PINE SCHOOL DISTRICT", "lat": 34.576372, "lon": -93.178825, "proficiency": 0.245, "schoolCount": 1}, {"name": "MOUNTAIN VIEW SCHOOL DISTRICT", "lat": 35.829816, "lon": -92.23034366666667, "proficiency": 0.7233, "schoolCount": 3}, {"name": "MULBERRY SCHOOL DISTRICT", "lat": 35.51734, "lon": -93.96535, "proficiency": 0.245, "schoolCount": 1}, {"name": "SOUTH PIKE COUNTY SCHOOL DISTRICT", "lat": 34.057332, "lon": -93.686254, "proficiency": 0.645, "schoolCount": 1}, {"name": "NASHVILLE SCHOOL DISTRICT", "lat": 33.954022, "lon": -93.854177, "proficiency": 0.42, "schoolCount": 1}, {"name": "NEMO VISTA SCHOOL DISTRICT", "lat": 35.36965, "lon": -92.563632, "proficiency": 0.545, "schoolCount": 1}, {"name": "NETTLETON SCHOOL DISTRICT", "lat": 35.813082, "lon": -90.647183, "proficiency": 0.37, "schoolCount": 1}, {"name": "NORFORK SCHOOL DISTRICT", "lat": 36.195803, "lon": -92.269859, "proficiency": 0.445, "schoolCount": 1}, {"name": "N. LITTLE ROCK SCHOOL DISTRICT", "lat": 34.788794, "lon": -92.231386, "proficiency": 0.27, "schoolCount": 1}, {"name": "OMAHA SCHOOL DISTRICT", "lat": 36.448833, "lon": -93.196179, "proficiency": 0.495, "schoolCount": 1}, {"name": "OSCEOLA SCHOOL DISTRICT", "lat": 35.704256, "lon": -89.975799, "proficiency": 0.17, "schoolCount": 1}, {"name": "OUACHITA SCHOOL DISTRICT", "lat": 34.23938, "lon": -92.963012, "proficiency": 0.545, "schoolCount": 1}, {"name": "PANGBURN SCHOOL DISTRICT", "lat": 35.42935, "lon": -91.835931, "proficiency": 0.445, "schoolCount": 1}, {"name": "PARIS SCHOOL DISTRICT", "lat": 35.296723, "lon": -93.721526, "proficiency": 0.57, "schoolCount": 1}, {"name": "PARKERS CHAPEL SCHOOL DIST.", "lat": 33.168107, "lon": -92.721577, "proficiency": 0.445, "schoolCount": 1}, {"name": "PERRYVILLE SCHOOL DISTRICT", "lat": 35.009533, "lon": -92.795445, "proficiency": 0.47, "schoolCount": 1}, {"name": "PIGGOTT SCHOOL DISTRICT", "lat": 36.381321, "lon": -90.184647, "proficiency": 0.37, "schoolCount": 1}, {"name": "POCAHONTAS SCHOOL DISTRICT", "lat": 36.28046, "lon": -90.984736, "proficiency": 0.42, "schoolCount": 1}, {"name": "POTTSVILLE SCHOOL DISTRICT", "lat": 35.236566, "lon": -93.033491, "proficiency": 0.62, "schoolCount": 1}, {"name": "POYEN SCHOOL DISTRICT", "lat": 34.325764, "lon": -92.643371, "proficiency": 0.445, "schoolCount": 1}, {"name": "PRAIRIE GROVE SCHOOL DISTRICT", "lat": 35.98473, "lon": -94.317732, "proficiency": 0.52, "schoolCount": 1}, {"name": "PRESCOTT SCHOOL DISTRICT", "lat": 33.791053, "lon": -93.37645, "proficiency": 0.27, "schoolCount": 1}, {"name": "PULASKI CO. SPEC. SCHOOL DIST.", "lat": 34.80737475, "lon": -92.34250374999999, "proficiency": 0.325, "schoolCount": 4}, {"name": "QUITMAN SCHOOL DISTRICT", "lat": 35.379384, "lon": -92.22161, "proficiency": 0.645, "schoolCount": 1}, {"name": "ROGERS SCHOOL DISTRICT", "lat": 36.324206000000004, "lon": -94.13278075, "proficiency": 0.5625, "schoolCount": 4}, {"name": "ROSE BUD SCHOOL DISTRICT", "lat": 35.334669, "lon": -92.071599, "proficiency": 0.42, "schoolCount": 1}, {"name": "RUSSELLVILLE SCHOOL DISTRICT", "lat": 35.290101, "lon": -93.152462, "proficiency": 0.59, "schoolCount": 1}, {"name": "SALEM SCHOOL DISTRICT", "lat": 36.359236, "lon": -91.816614, "proficiency": 0.62, "schoolCount": 1}, {"name": "SCRANTON SCHOOL DISTRICT", "lat": 35.361358, "lon": -93.541073, "proficiency": 0.495, "schoolCount": 1}, {"name": "SEARCY SCHOOL DISTRICT", "lat": 35.252077, "lon": -91.740221, "proficiency": 0.62, "schoolCount": 1}, {"name": "SHIRLEY SCHOOL DISTRICT", "lat": 35.660321, "lon": -92.309374, "proficiency": 0.345, "schoolCount": 1}, {"name": "SILOAM SPRINGS SCHOOL DISTRICT", "lat": 36.180067, "lon": -94.556271, "proficiency": 0.56, "schoolCount": 1}, {"name": "SLOAN-HENDRIX SCHOOL DIST.", "lat": 36.20042, "lon": -91.186577, "proficiency": 0.37, "schoolCount": 1}, {"name": "SMACKOVER SCHOOL DISTRICT", "lat": 33.310348, "lon": -92.66045, "proficiency": 0.27, "schoolCount": 1}, {"name": "SO. CONWAY CO. SCHOOL DISTRICT", "lat": 35.165992, "lon": -92.73496, "proficiency": 0.37, "schoolCount": 1}, {"name": "SOUTH SIDE SCHOOL DISTRICT", "lat": 35.429264, "lon": -92.387714, "proficiency": 0.445, "schoolCount": 1}, {"name": "SPRING HILL SCHOOL DISTRICT", "lat": 33.585313, "lon": -93.651048, "proficiency": 0.645, "schoolCount": 1}, {"name": "SPRINGDALE SCHOOL DISTRICT", "lat": 36.16639, "lon": -94.1232074, "proficiency": 0.45, "schoolCount": 5}, {"name": "STRONG-HUTTIG SCHOOL DISTRICT", "lat": 33.106404, "lon": -92.355626, "proficiency": 0.1, "schoolCount": 1}, {"name": "STUTTGART SCHOOL DISTRICT", "lat": 34.476869, "lon": -91.55748, "proficiency": 0.52, "schoolCount": 1}, {"name": "GREENE CO. TECH SCHOOL DIST.", "lat": 36.064154, "lon": -90.553497, "proficiency": 0.52, "schoolCount": 1}, {"name": "JACKSON CO. SCHOOL DISTRICT", "lat": 35.736172, "lon": -91.2007, "proficiency": 0.62, "schoolCount": 1}, {"name": "VALLEY SPRINGS SCHOOL DISTRICT", "lat": 36.157989, "lon": -92.993665, "proficiency": 0.67, "schoolCount": 1}, {"name": "VALLEY VIEW SCHOOL DISTRICT", "lat": 35.7782, "lon": -90.7391, "proficiency": 0.67, "schoolCount": 1}, {"name": "VAN BUREN SCHOOL DISTRICT", "lat": 35.458873, "lon": -94.3534945, "proficiency": 0.495, "schoolCount": 2}, {"name": "VILONIA SCHOOL DISTRICT", "lat": 35.080348, "lon": -92.19671, "proficiency": 0.72, "schoolCount": 1}, {"name": "VIOLA SCHOOL DISTRICT", "lat": 36.395556, "lon": -91.986116, "proficiency": 0.695, "schoolCount": 1}, {"name": "WALDRON SCHOOL DISTRICT", "lat": 34.903582, "lon": -94.113923, "proficiency": 0.42, "schoolCount": 1}, {"name": "WATSON CHAPEL SCHOOL DISTRICT", "lat": 34.189927, "lon": -92.065921, "proficiency": 0.17, "schoolCount": 1}, {"name": "WEST FORK SCHOOL DISTRICT", "lat": 35.922461, "lon": -94.191461, "proficiency": 0.62, "schoolCount": 1}, {"name": "WESTSIDE SCHOOL DISTRICT", "lat": 35.441798, "lon": -93.653984, "proficiency": 0.245, "schoolCount": 1}, {"name": "WEST SIDE SCHOOL DISTRICT", "lat": 35.580705, "lon": -92.166198, "proficiency": 0.345, "schoolCount": 1}, {"name": "WHITE HALL SCHOOL DISTRICT", "lat": 34.272538, "lon": -92.091222, "proficiency": 0.52, "schoolCount": 1}, {"name": "WONDERVIEW SCHOOL DISTRICT", "lat": 35.328282, "lon": -92.729383, "proficiency": 0.695, "schoolCount": 1}, {"name": "WOODLAWN SCHOOL DISTRICT", "lat": 33.9672, "lon": -92.040875, "proficiency": 0.545, "schoolCount": 1}, {"name": "WYNNE SCHOOL DISTRICT", "lat": 35.241846, "lon": -90.777857, "proficiency": 0.42, "schoolCount": 1}, {"name": "YELLVILLE-SUMMIT SCHOOL DIST.", "lat": 36.24023, "lon": -92.689863, "proficiency": 0.345, "schoolCount": 1}], "cities": [{"name": "DEWITT", "lat": 34.277803, "lon": -91.348212, "proficiency": 0.67, "schoolCount": 1}, {"name": "WARREN", "lat": 33.62741, "lon": -92.067595, "proficiency": 0.37, "schoolCount": 1}, {"name": "CORNING", "lat": 36.419184, "lon": -90.580056, "proficiency": 0.37, "schoolCount": 1}, {"name": "LAKE CITY", "lat": 35.820023, "lon": -90.454181, "proficiency": 0.32, "schoolCount": 1}, {"name": "SHERIDAN", "lat": 34.31098, "lon": -92.398113, "proficiency": 0.46, "schoolCount": 1}, {"name": "MARMADUKE", "lat": 36.193398, "lon": -90.393772, "proficiency": 0.32, "schoolCount": 1}, {"name": "PARAGOULD", "lat": 36.060848, "lon": -90.53166949999999, "proficiency": 0.545, "schoolCount": 2}, {"name": "BATESVILLE", "lat": 35.7549, "lon": -91.62203, "proficiency": 0.52, "schoolCount": 1}, {"name": "PLEASANT PLAINS", "lat": 35.547101, "lon": -91.624886, "proficiency": 0.15, "schoolCount": 1}, {"name": "BROCKWELL", "lat": 36.154832, "lon": -91.923646, "proficiency": 0.345, "schoolCount": 1}, {"name": "NEWPORT", "lat": 35.601469, "lon": -91.272273, "proficiency": 0.22, "schoolCount": 1}, {"name": "PINE BLUFF", "lat": 34.1894415, "lon": -92.035742, "proficiency": 0.17, "schoolCount": 2}, {"name": "STAR CITY", "lat": 33.941072, "lon": -91.840762, "proficiency": 0.47, "schoolCount": 1}, {"name": "BLYTHEVILLE", "lat": 35.934143666666664, "lon": -89.93259333333333, "proficiency": 0.3633, "schoolCount": 3}, {"name": "ROSSTON", "lat": 33.591551, "lon": -93.295782, "proficiency": 0.245, "schoolCount": 1}, {"name": "BEARDEN", "lat": 33.730548, "lon": -92.621291, "proficiency": 0.345, "schoolCount": 1}, {"name": "LITTLE ROCK", "lat": 34.74466421428571, "lon": -92.33471578571428, "proficiency": 0.3796, "schoolCount": 14}, {"name": "HAVANA", "lat": 35.108888, "lon": -93.524271, "proficiency": 0.3, "schoolCount": 1}, {"name": "HAMBURG", "lat": 33.2089, "lon": -91.79403, "proficiency": 0.37, "schoolCount": 1}, {"name": "MAGNOLIA", "lat": 33.269926, "lon": -93.23429, "proficiency": 0.37, "schoolCount": 1}, {"name": "WILSON", "lat": 35.612581, "lon": -90.106985, "proficiency": 0.27, "schoolCount": 1}, {"name": "TRUMANN", "lat": 35.673161, "lon": -90.5186, "proficiency": 0.37, "schoolCount": 1}, {"name": "LEPANTO", "lat": 35.609971, "lon": -90.340744, "proficiency": 0.545, "schoolCount": 1}, {"name": "DEQUEEN", "lat": 34.029845, "lon": -94.358751, "proficiency": 0.72, "schoolCount": 1}, {"name": "PALESTINE", "lat": 34.969504, "lon": -90.904465, "proficiency": 0.245, "schoolCount": 1}, {"name": "ROGERS", "lat": 36.32653833333333, "lon": -94.12841033333332, "proficiency": 0.6233, "schoolCount": 6}, {"name": "MAUMELLE", "lat": 34.8611205, "lon": -92.39665, "proficiency": 0.52, "schoolCount": 2}, {"name": "SCOTT", "lat": 34.70127, "lon": -92.098211, "proficiency": 0.495, "schoolCount": 1}, {"name": "HELENA", "lat": 34.523006, "lon": -90.589891, "proficiency": 0.37, "schoolCount": 1}, {"name": "LEWISVILLE", "lat": 33.369897, "lon": -93.481056, "proficiency": 0.15, "schoolCount": 1}, {"name": "RISON", "lat": 33.960933499999996, "lon": -92.1142355, "proficiency": 0.5575, "schoolCount": 2}, {"name": "BRADLEY", "lat": 33.101456, "lon": -93.66056, "proficiency": 0.695, "schoolCount": 1}, {"name": "EMERSON", "lat": 33.099003, "lon": -93.196868, "proficiency": 0.695, "schoolCount": 1}, {"name": "TAYLOR", "lat": 33.099026, "lon": -93.458329, "proficiency": 0.645, "schoolCount": 1}, {"name": "NEWARK", "lat": 35.720304, "lon": -91.445496, "proficiency": 0.245, "schoolCount": 1}, {"name": "STRAWBERRY", "lat": 35.965189, "lon": -91.322402, "proficiency": 0.345, "schoolCount": 1}, {"name": "DEER", "lat": 35.825827, "lon": -93.208043, "proficiency": 0.3, "schoolCount": 1}, {"name": "MT. JUDEA", "lat": 35.9213, "lon": -93.059383, "proficiency": 0.245, "schoolCount": 1}, {"name": "MENA", "lat": 34.608731500000005, "lon": -94.213999, "proficiency": 0.5075, "schoolCount": 2}, {"name": "ODEN", "lat": 34.620104, "lon": -93.780154, "proficiency": 0.245, "schoolCount": 1}, {"name": "SHERWOOD", "lat": 34.843512000000004, "lon": -92.21713299999999, "proficiency": 0.405, "schoolCount": 2}, {"name": "ST. JOE", "lat": 36.028463, "lon": -92.798476, "proficiency": 0.245, "schoolCount": 1}, {"name": "EVERTON", "lat": 36.18092, "lon": -92.849778, "proficiency": 0.495, "schoolCount": 1}, {"name": "WESTERN GROVE", "lat": 36.09873, "lon": -92.955471, "proficiency": 0.495, "schoolCount": 1}, {"name": "FARMINGTON", "lat": 36.0813195, "lon": -94.1981095, "proficiency": 0.7975, "schoolCount": 2}, {"name": "SPRINGDALE", "lat": 36.169806333333334, "lon": -94.122587, "proficiency": 0.5117, "schoolCount": 6}, {"name": "OLA", "lat": 35.01082, "lon": -93.2732, "proficiency": 0.445, "schoolCount": 1}, {"name": "WALNUT RIDGE", "lat": 36.062143, "lon": -90.957295, "proficiency": 0.47, "schoolCount": 1}, {"name": "LRAFB", "lat": 34.894197, "lon": -92.136893, "proficiency": 0.545, "schoolCount": 1}, {"name": "JACKSONVILLE", "lat": 34.8762125, "lon": -92.1337465, "proficiency": 0.2075, "schoolCount": 2}, {"name": "COVE", "lat": 34.383183, "lon": -94.386966, "proficiency": 0.32, "schoolCount": 1}, {"name": "UMPIRE", "lat": 34.27795, "lon": -94.052971, "proficiency": 0.245, "schoolCount": 1}, {"name": "BENTONVILLE", "lat": 36.365450599999996, "lon": -94.2073932, "proficiency": 0.565, "schoolCount": 5}, {"name": "ALMA", "lat": 35.489001, "lon": -94.215007, "proficiency": 0.57, "schoolCount": 1}, {"name": "ALPENA", "lat": 36.291456, "lon": -93.294979, "proficiency": 0.645, "schoolCount": 1}, {"name": "ARKADELPHIA", "lat": 34.122449, "lon": -93.095203, "proficiency": 0.52, "schoolCount": 1}, {"name": "ARMOREL", "lat": 35.917188, "lon": -89.799526, "proficiency": 0.3, "schoolCount": 1}, {"name": "ASHDOWN", "lat": 33.665416, "lon": -94.113994, "proficiency": 0.47, "schoolCount": 1}, {"name": "ATKINS", "lat": 35.245708, "lon": -92.94434, "proficiency": 0.72, "schoolCount": 1}, {"name": "AUGUSTA", "lat": 35.283558, "lon": -91.355574, "proficiency": 0.3, "schoolCount": 1}, {"name": "BALD KNOB", "lat": 35.315839, "lon": -91.571351, "proficiency": 0.42, "schoolCount": 1}, {"name": "BARTON", "lat": 34.552303, "lon": -90.76741, "proficiency": 0.52, "schoolCount": 1}, {"name": "BAUXITE", "lat": 34.554642, "lon": -92.511457, "proficiency": 0.37, "schoolCount": 1}, {"name": "BAY", "lat": 35.74775, "lon": -90.566336, "proficiency": 0.345, "schoolCount": 1}, {"name": "BEEBE", "lat": 35.063664, "lon": -91.894537, "proficiency": 0.62, "schoolCount": 1}, {"name": "BENTON", "lat": 34.537434, "lon": -92.6085925, "proficiency": 0.57, "schoolCount": 2}, {"name": "PEA RIDGE", "lat": 36.454021, "lon": -94.123269, "proficiency": 0.52, "schoolCount": 1}, {"name": "BERGMAN", "lat": 36.313312, "lon": -93.021351, "proficiency": 0.62, "schoolCount": 1}, {"name": "BERRYVILLE", "lat": 36.369626, "lon": -93.574987, "proficiency": 0.47, "schoolCount": 1}, {"name": "BISMARCK", "lat": 34.315722, "lon": -93.176879, "proficiency": 0.77, "schoolCount": 1}, {"name": "BLEVINS", "lat": 33.874753, "lon": -93.572541, "proficiency": 0.345, "schoolCount": 1}, {"name": "LEAD HILL", "lat": 36.406871, "lon": -92.907469, "proficiency": 0.345, "schoolCount": 1}, {"name": "BOONEVILLE", "lat": 35.146212, "lon": -93.910529, "proficiency": 0.57, "schoolCount": 1}, {"name": "BRADFORD", "lat": 35.425623, "lon": -91.459602, "proficiency": 0.3, "schoolCount": 1}, {"name": "BRINKLEY", "lat": 34.877231, "lon": -91.195255, "proficiency": 0.245, "schoolCount": 1}, {"name": "BROOKLAND", "lat": 35.908358, "lon": -90.579837, "proficiency": 0.57, "schoolCount": 1}, {"name": "BRYANT", "lat": 34.629791499999996, "lon": -92.5218255, "proficiency": 0.66, "schoolCount": 2}, {"name": "MONETTE", "lat": 35.888965, "lon": -90.351228, "proficiency": 0.345, "schoolCount": 1}, {"name": "CABOT", "lat": 34.953615, "lon": -92.01450033333333, "proficiency": 0.555, "schoolCount": 3}, {"name": "NORMAN", "lat": 34.419957, "lon": -93.631236, "proficiency": 0.345, "schoolCount": 1}, {"name": "CALICO ROCK", "lat": 36.122576, "lon": -92.126312, "proficiency": 0.9, "schoolCount": 1}, {"name": "CARLISLE", "lat": 34.779476, "lon": -91.732383, "proficiency": 0.445, "schoolCount": 1}, {"name": "JONESBORO", "lat": 35.8203494, "lon": -90.7215606, "proficiency": 0.44, "schoolCount": 5}, {"name": "CAVE CITY", "lat": 35.95116, "lon": -91.55014, "proficiency": 0.67, "schoolCount": 1}, {"name": "CEDARVILLE", "lat": 35.577635, "lon": -94.369326, "proficiency": 0.545, "schoolCount": 1}, {"name": "TEXARKANA", "lat": 33.376739, "lon": -93.88159, "proficiency": 0.62, "schoolCount": 1}, {"name": "JUDSONIA", "lat": 35.357721, "lon": -91.677761, "proficiency": 0.445, "schoolCount": 1}, {"name": "CHARLESTON", "lat": 35.29415, "lon": -94.04633, "proficiency": 0.57, "schoolCount": 1}, {"name": "CLARENDON", "lat": 34.695403, "lon": -91.306277, "proficiency": 0.245, "schoolCount": 1}, {"name": "RECTOR", "lat": 36.263209, "lon": -90.298688, "proficiency": 0.445, "schoolCount": 1}, {"name": "CLARKSVILLE", "lat": 35.460813, "lon": -93.488671, "proficiency": 0.37, "schoolCount": 1}, {"name": "CLINTON", "lat": 35.587428, "lon": -92.45842, "proficiency": 0.62, "schoolCount": 1}, {"name": "CONCORD", "lat": 35.664443, "lon": -91.846104, "proficiency": 0.695, "schoolCount": 1}, {"name": "CONWAY", "lat": 35.092689, "lon": -92.448861, "proficiency": 0.65, "schoolCount": 1}, {"name": "COTTER", "lat": 36.279027, "lon": -92.521168, "proficiency": 0.345, "schoolCount": 1}, {"name": "BRANCH", "lat": 35.3074, "lon": -93.91684, "proficiency": 0.645, "schoolCount": 1}, {"name": "CROSSETT", "lat": 33.12074, "lon": -91.962539, "proficiency": 0.57, "schoolCount": 1}, {"name": "HOT SPRINGS", "lat": 34.5093205, "lon": -93.01225775, "proficiency": 0.4387, "schoolCount": 4}, {"name": "DANVILLE", "lat": 35.051909, "lon": -93.391518, "proficiency": 0.42, "schoolCount": 1}, {"name": "DARDANELLE", "lat": 35.203291, "lon": -93.157837, "proficiency": 0.47, "schoolCount": 1}, {"name": "DECATUR", "lat": 36.3332, "lon": -94.44557, "proficiency": 0.245, "schoolCount": 1}, {"name": "DERMOTT", "lat": 33.523118, "lon": -91.428739, "proficiency": 0.1, "schoolCount": 1}, {"name": "DES ARC", "lat": 34.977896, "lon": -91.499066, "proficiency": 0.745, "schoolCount": 1}, {"name": "DIERKS", "lat": 34.119131, "lon": -94.030353, "proficiency": 0.545, "schoolCount": 1}, {"name": "DOVER", "lat": 35.399724, "lon": -93.116571, "proficiency": 0.52, "schoolCount": 1}, {"name": "MONTICELLO", "lat": 33.601411, "lon": -91.8101575, "proficiency": 0.47, "schoolCount": 2}, {"name": "DUMAS", "lat": 33.884822, "lon": -91.487175, "proficiency": 0.42, "schoolCount": 1}, {"name": "EARLE", "lat": 35.276913, "lon": -90.448775, "proficiency": 0.1, "schoolCount": 1}, {"name": "BIGELOW", "lat": 34.997914, "lon": -92.632958, "proficiency": 0.445, "schoolCount": 1}, {"name": "EL DORADO", "lat": 33.191959, "lon": -92.69490400000001, "proficiency": 0.4425, "schoolCount": 2}, {"name": "ELKINS", "lat": 36.004965, "lon": -94.009939, "proficiency": 0.52, "schoolCount": 1}, {"name": "ENGLAND", "lat": 34.5426, "lon": -91.954555, "proficiency": 0.245, "schoolCount": 1}, {"name": "EUREKA SPRINGS", "lat": 36.382699, "lon": -93.733817, "proficiency": 0.645, "schoolCount": 1}, {"name": "CAMDEN", "lat": 33.622446, "lon": -92.813669, "proficiency": 0.2825, "schoolCount": 2}, {"name": "FAYETTEVILLE", "lat": 36.06825666666666, "lon": -94.160002, "proficiency": 0.6317, "schoolCount": 3}, {"name": "FLIPPIN", "lat": 36.280912, "lon": -92.600687, "proficiency": 0.47, "schoolCount": 1}, {"name": "FORDYCE", "lat": 33.819417, "lon": -92.434019, "proficiency": 0.27, "schoolCount": 1}, {"name": "FOREMAN", "lat": 33.712792, "lon": -94.393736, "proficiency": 0.545, "schoolCount": 1}, {"name": "FORREST CITY", "lat": 35.01982, "lon": -90.790753, "proficiency": 0.12, "schoolCount": 1}, {"name": "FORT SMITH", "lat": 35.372909400000005, "lon": -94.3915794, "proficiency": 0.435, "schoolCount": 5}, {"name": "FOUKE", "lat": 33.26393, "lon": -93.882623, "proficiency": 0.37, "schoolCount": 1}, {"name": "GENTRY", "lat": 36.256249, "lon": -94.494999, "proficiency": 0.62, "schoolCount": 1}, {"name": "MALVERN", "lat": 34.41819133333333, "lon": -92.79110866666667, "proficiency": 0.5283, "schoolCount": 3}, {"name": "AMITY", "lat": 34.287337, "lon": -93.511691, "proficiency": 0.32, "schoolCount": 1}, {"name": "GRAVETTE", "lat": 36.418165, "lon": -94.446156, "proficiency": 0.62, "schoolCount": 1}, {"name": "GREEN FOREST", "lat": 36.330213, "lon": -93.431043, "proficiency": 0.37, "schoolCount": 1}, {"name": "GREENBRIER", "lat": 35.231037, "lon": -92.39032, "proficiency": 0.72, "schoolCount": 1}, {"name": "GREENLAND", "lat": 35.995588, "lon": -94.17333, "proficiency": 0.47, "schoolCount": 1}, {"name": "GREENWOOD", "lat": 35.219592, "lon": -94.256017, "proficiency": 0.72, "schoolCount": 1}, {"name": "GURDON", "lat": 33.908118, "lon": -93.191081, "proficiency": 0.245, "schoolCount": 1}, {"name": "GUY", "lat": 35.324054, "lon": -92.32412, "proficiency": 0.495, "schoolCount": 1}, {"name": "HACKETT", "lat": 35.187004, "lon": -94.409227, "proficiency": 0.345, "schoolCount": 1}, {"name": "HAMPTON", "lat": 33.536864, "lon": -92.464332, "proficiency": 0.245, "schoolCount": 1}, {"name": "HARRISON", "lat": 36.241849, "lon": -93.133261, "proficiency": 0.67, "schoolCount": 1}, {"name": "HAZEN", "lat": 34.784865, "lon": -91.579056, "proficiency": 0.345, "schoolCount": 1}, {"name": "HEBER SPRINGS", "lat": 35.497362, "lon": -92.036893, "proficiency": 0.57, "schoolCount": 1}, {"name": "HECTOR", "lat": 35.470061, "lon": -92.973784, "proficiency": 0.345, "schoolCount": 1}, {"name": "WEST HELENA", "lat": 34.544609, "lon": -90.62577, "proficiency": 0.12, "schoolCount": 1}, {"name": "HERMITAGE", "lat": 33.452086, "lon": -92.170349, "proficiency": 0.245, "schoolCount": 1}, {"name": "CHERRY VALLEY", "lat": 35.404243, "lon": -90.807384, "proficiency": 0.445, "schoolCount": 1}, {"name": "HARDY", "lat": 36.262868, "lon": -91.534089, "proficiency": 0.57, "schoolCount": 1}, {"name": "HOPE", "lat": 33.63644233333333, "lon": -93.61101933333333, "proficiency": 0.42, "schoolCount": 3}, {"name": "HORATIO", "lat": 33.948152, "lon": -94.347481, "proficiency": 0.445, "schoolCount": 1}, {"name": "JESSIEVILLE", "lat": 34.701022, "lon": -93.061506, "proficiency": 0.47, "schoolCount": 1}, {"name": "HOXIE", "lat": 36.05097, "lon": -90.981693, "proficiency": 0.27, "schoolCount": 1}, {"name": "WEST MEMPHIS", "lat": 35.149324, "lon": -90.17686466666667, "proficiency": 0.2383, "schoolCount": 3}, {"name": "HUNTSVILLE", "lat": 36.086298, "lon": -93.744492, "proficiency": 0.37, "schoolCount": 1}, {"name": "ST PAUL", "lat": 35.823405, "lon": -93.765845, "proficiency": 0.245, "schoolCount": 1}, {"name": "JASPER", "lat": 36.004821, "lon": -93.190901, "proficiency": 0.345, "schoolCount": 1}, {"name": "KINGSTON", "lat": 36.054114, "lon": -93.516532, "proficiency": 0.245, "schoolCount": 1}, {"name": "OARK", "lat": 35.688711, "lon": -93.577472, "proficiency": 0.75, "schoolCount": 1}, {"name": "JUNCTION CITY", "lat": 33.020281, "lon": -92.728259, "proficiency": 0.245, "schoolCount": 1}, {"name": "SEARCY", "lat": 35.2535, "lon": -91.71480700000001, "proficiency": 0.495, "schoolCount": 2}, {"name": "KIRBY", "lat": 34.248462, "lon": -93.640202, "proficiency": 0.345, "schoolCount": 1}, {"name": "PEARCY", "lat": 34.441182, "lon": -93.210599, "proficiency": 0.5, "schoolCount": 1}, {"name": "LAKE VILLAGE", "lat": 33.324433, "lon": -91.312209, "proficiency": 0.22, "schoolCount": 1}, {"name": "LAMAR", "lat": 35.434714, "lon": -93.395189, "proficiency": 0.47, "schoolCount": 1}, {"name": "LAVACA", "lat": 35.333419, "lon": -94.173831, "proficiency": 0.545, "schoolCount": 1}, {"name": "LINCOLN", "lat": 35.946584, "lon": -94.405493, "proficiency": 0.42, "schoolCount": 1}, {"name": "MABELVALE", "lat": 34.654973, "lon": -92.398948, "proficiency": 0.17, "schoolCount": 1}, {"name": "LONOKE", "lat": 34.778112, "lon": -91.914029, "proficiency": 0.42, "schoolCount": 1}, {"name": "MAGAZINE", "lat": 35.149359, "lon": -93.802269, "proficiency": 0.545, "schoolCount": 1}, {"name": "MAMMOTH SPRING", "lat": 36.490816, "lon": -91.541131, "proficiency": 0.495, "schoolCount": 1}, {"name": "MANSFIELD", "lat": 35.062294, "lon": -94.248978, "proficiency": 0.52, "schoolCount": 1}, {"name": "MARIANNA", "lat": 34.783886, "lon": -90.780257, "proficiency": 0.05, "schoolCount": 1}, {"name": "MARION", "lat": 35.192755, "lon": -90.196802, "proficiency": 0.27, "schoolCount": 1}, {"name": "MARSHALL", "lat": 35.909198, "lon": -92.659041, "proficiency": 0.445, "schoolCount": 1}, {"name": "MARVELL", "lat": 34.561539, "lon": -90.915938, "proficiency": 0.1, "schoolCount": 1}, {"name": "MAYFLOWER", "lat": 34.955784, "lon": -92.441886, "proficiency": 0.62, "schoolCount": 1}, {"name": "MAYNARD", "lat": 36.418084, "lon": -90.898616, "proficiency": 0.245, "schoolCount": 1}, {"name": "MCCRORY", "lat": 35.26141, "lon": -91.198001, "proficiency": 0.445, "schoolCount": 1}, {"name": "MCGEHEE", "lat": 33.645316, "lon": -91.384133, "proficiency": 0.32, "schoolCount": 1}, {"name": "MELBOURNE", "lat": 36.070134, "lon": -91.834624, "proficiency": 0.62, "schoolCount": 1}, {"name": "MINERAL SPRINGS", "lat": 33.877753, "lon": -93.919336, "proficiency": 0.15, "schoolCount": 1}, {"name": "MOUNT IDA", "lat": 34.557099, "lon": -93.63748, "proficiency": 0.445, "schoolCount": 1}, {"name": "MT VERNON", "lat": 35.226191, "lon": -92.13132, "proficiency": 0.545, "schoolCount": 1}, {"name": "MOUNTAIN PINE", "lat": 34.576372, "lon": -93.178825, "proficiency": 0.245, "schoolCount": 1}, {"name": "FOX", "lat": 35.754402, "lon": -92.288121, "proficiency": 0.9, "schoolCount": 1}, {"name": "TIMBO", "lat": 35.874821, "lon": -92.317981, "proficiency": 0.75, "schoolCount": 1}, {"name": "MOUNTAIN VIEW", "lat": 35.860225, "lon": -92.084929, "proficiency": 0.52, "schoolCount": 1}, {"name": "OZARK", "lat": 35.51734, "lon": -93.96535, "proficiency": 0.245, "schoolCount": 1}, {"name": "MURFREESBORO", "lat": 34.057332, "lon": -93.686254, "proficiency": 0.645, "schoolCount": 1}, {"name": "NASHVILLE", "lat": 33.954022, "lon": -93.854177, "proficiency": 0.42, "schoolCount": 1}, {"name": "CENTER RIDGE", "lat": 35.36965, "lon": -92.563632, "proficiency": 0.545, "schoolCount": 1}, {"name": "NORFORK", "lat": 36.195803, "lon": -92.269859, "proficiency": 0.445, "schoolCount": 1}, {"name": "NORTH LITTLE ROCK", "lat": 34.788794, "lon": -92.231386, "proficiency": 0.27, "schoolCount": 1}, {"name": "OMAHA", "lat": 36.448833, "lon": -93.196179, "proficiency": 0.495, "schoolCount": 1}, {"name": "OSCEOLA", "lat": 35.704256, "lon": -89.975799, "proficiency": 0.17, "schoolCount": 1}, {"name": "DONALDSON", "lat": 34.23938, "lon": -92.963012, "proficiency": 0.545, "schoolCount": 1}, {"name": "PANGBURN", "lat": 35.42935, "lon": -91.835931, "proficiency": 0.445, "schoolCount": 1}, {"name": "PARIS", "lat": 35.296723, "lon": -93.721526, "proficiency": 0.57, "schoolCount": 1}, {"name": "PERRYVILLE", "lat": 35.009533, "lon": -92.795445, "proficiency": 0.47, "schoolCount": 1}, {"name": "PIGGOTT", "lat": 36.381321, "lon": -90.184647, "proficiency": 0.37, "schoolCount": 1}, {"name": "POCAHONTAS", "lat": 36.28046, "lon": -90.984736, "proficiency": 0.42, "schoolCount": 1}, {"name": "POTTSVILLE", "lat": 35.236566, "lon": -93.033491, "proficiency": 0.62, "schoolCount": 1}, {"name": "POYEN", "lat": 34.325764, "lon": -92.643371, "proficiency": 0.445, "schoolCount": 1}, {"name": "PRAIRIE GROVE", "lat": 35.98473, "lon": -94.317732, "proficiency": 0.52, "schoolCount": 1}, {"name": "PRESCOTT", "lat": 33.791053, "lon": -93.37645, "proficiency": 0.27, "schoolCount": 1}, {"name": "QUITMAN", "lat": 35.379384, "lon": -92.22161, "proficiency": 0.645, "schoolCount": 1}, {"name": "ROSE BUD", "lat": 35.334669, "lon": -92.071599, "proficiency": 0.42, "schoolCount": 1}, {"name": "RUSSELLVILLE", "lat": 35.290101, "lon": -93.152462, "proficiency": 0.59, "schoolCount": 1}, {"name": "SALEM", "lat": 36.359236, "lon": -91.816614, "proficiency": 0.62, "schoolCount": 1}, {"name": "SCRANTON", "lat": 35.361358, "lon": -93.541073, "proficiency": 0.495, "schoolCount": 1}, {"name": "SHIRLEY", "lat": 35.660321, "lon": -92.309374, "proficiency": 0.345, "schoolCount": 1}, {"name": "SILOAM SPRINGS", "lat": 36.180067, "lon": -94.556271, "proficiency": 0.56, "schoolCount": 1}, {"name": "IMBODEN", "lat": 36.20042, "lon": -91.186577, "proficiency": 0.37, "schoolCount": 1}, {"name": "NORPHLET", "lat": 33.310348, "lon": -92.66045, "proficiency": 0.27, "schoolCount": 1}, {"name": "MORRILTON", "lat": 35.165992, "lon": -92.73496, "proficiency": 0.37, "schoolCount": 1}, {"name": "BEE BRANCH", "lat": 35.429264, "lon": -92.387714, "proficiency": 0.445, "schoolCount": 1}, {"name": "STRONG", "lat": 33.106404, "lon": -92.355626, "proficiency": 0.1, "schoolCount": 1}, {"name": "STUTTGART", "lat": 34.476869, "lon": -91.55748, "proficiency": 0.52, "schoolCount": 1}, {"name": "TUCKERMAN", "lat": 35.736172, "lon": -91.2007, "proficiency": 0.62, "schoolCount": 1}, {"name": "VALLEY SPRINGS", "lat": 36.157989, "lon": -92.993665, "proficiency": 0.67, "schoolCount": 1}, {"name": "VAN BUREN", "lat": 35.458873, "lon": -94.3534945, "proficiency": 0.495, "schoolCount": 2}, {"name": "VILONIA", "lat": 35.080348, "lon": -92.19671, "proficiency": 0.72, "schoolCount": 1}, {"name": "VIOLA", "lat": 36.395556, "lon": -91.986116, "proficiency": 0.695, "schoolCount": 1}, {"name": "WALDRON", "lat": 34.903582, "lon": -94.113923, "proficiency": 0.42, "schoolCount": 1}, {"name": "WEST FORK", "lat": 35.922461, "lon": -94.191461, "proficiency": 0.62, "schoolCount": 1}, {"name": "COAL HILL", "lat": 35.441798, "lon": -93.653984, "proficiency": 0.245, "schoolCount": 1}, {"name": "GREERS FERRY", "lat": 35.580705, "lon": -92.166198, "proficiency": 0.345, "schoolCount": 1}, {"name": "WHITE HALL", "lat": 34.272538, "lon": -92.091222, "proficiency": 0.52, "schoolCount": 1}, {"name": "HATTIEVILLE", "lat": 35.328282, "lon": -92.729383, "proficiency": 0.695, "schoolCount": 1}, {"name": "WYNNE", "lat": 35.241846, "lon": -90.777857, "proficiency": 0.42, "schoolCount": 1}, {"name": "YELLVILLE", "lat": 36.24023, "lon": -92.689863, "proficiency": 0.345, "schoolCount": 1}]}