{"state": "CO", "stateName": "Colorado", "year": 2018, "naep": {"text": "7 out of 10", "numerator": 7, "denominator": 10}, "schools": [{"name": "Cheyenne Wells Junior/High School", "lat": 38.822585, "lon": -102.353863, "proficiency": 0.245, "district": "Cheyenne County School District No. Re-5", "city": "CHEYENNE WELLS", "ncessch": "080000100215"}, {"name": "Rocky Mountain School of Expeditionary Learning", "lat": 39.6854, "lon": -104.9211, "proficiency": 0.445, "district": "DENVER 1", "city": "DENVER", "ncessch": "080000400709"}, {"name": "Yuma Middle School", "lat": 40.121014, "lon": -102.732147, "proficiency": 0.345, "district": "Yuma 1 School District", "city": "YUMA", "ncessch": "080001601819"}, {"name": "Idalia Junior-Senior High School", "lat": 39.705006, "lon": -102.29442, "proficiency": 0.245, "district": "Idalia RJ-3 School District", "city": "IDALIA", "ncessch": "080001801742"}, {"name": "Liberty School", "lat": 39.655308, "lon": -102.624259, "proficiency": -0.03, "district": "Liberty J-4 School District", "city": "JOES", "ncessch": "080001901744"}, {"name": "Academy of Charter Schools", "lat": 39.911475, "lon": -105.033546, "proficiency": 0.32, "district": "State Charter School Institute", "city": "WESTMINSTER", "ncessch": "080002000727"}, {"name": "Crown Pointe Charter Academy", "lat": 39.852125, "lon": -105.0239, "proficiency": 0.445, "district": "State Charter School Institute", "city": "WESTMINSTER", "ncessch": "080002001569"}, {"name": "Colorado Springs Charter Academy", "lat": 38.8696, "lon": -104.772307, "proficiency": 0.495, "district": "State Charter School Institute", "city": "COLORADO SPRINGS", "ncessch": "080002001912"}, {"name": "Ross Montessori School", "lat": 39.395413, "lon": -107.212398, "proficiency": 0.245, "district": "State Charter School Institute", "city": "CARBONDALE", "ncessch": "080002001913"}, {"name": "The Pinnacle Charter School", "lat": 39.850399, "lon": -104.9986, "proficiency": 0.32, "district": "State Charter School Institute", "city": "FEDERAL HEIGHTS", "ncessch": "080002001915"}, {"name": "Stone Creek School", "lat": 39.645554, "lon": -106.886184, "proficiency": 0.445, "district": "State Charter School Institute", "city": "EDWARDS", "ncessch": "080002002018"}, {"name": "High Point Academy", "lat": 39.819221, "lon": -104.761271, "proficiency": 0.22, "district": "State Charter School Institute", "city": "AURORA", "ncessch": "080002002033"}, {"name": "Caprock Academy", "lat": 39.108769, "lon": -108.597811, "proficiency": 0.17, "district": "State Charter School Institute", "city": "GRAND JUNCTION", "ncessch": "080002006305"}, {"name": "Ricardo Flores Magon Academy", "lat": 39.793452, "lon": -105.034942, "proficiency": 0.05, "district": "State Charter School Institute", "city": "DENVER", "ncessch": "080002006320"}, {"name": "Early College of Arvada", "lat": 39.805881, "lon": -105.050539, "proficiency": 0.15, "district": "State Charter School Institute", "city": "ARVADA", "ncessch": "080002006390"}, {"name": "Thomas MacLaren State Charter School", "lat": 38.858671, "lon": -104.748583, "proficiency": 0.62, "district": "State Charter School Institute", "city": "COLORADO SPRINGS", "ncessch": "080002006437"}, {"name": "Mountain Middle School", "lat": 37.2991, "lon": -107.872549, "proficiency": 0.445, "district": "State Charter School Institute", "city": "DURANGO", "ncessch": "080002006502"}, {"name": "Global Village Academy - North", "lat": 39.901495, "lon": -104.994537, "proficiency": 0.345, "district": "State Charter School Institute", "city": "THORNTON", "ncessch": "080002006503"}, {"name": "Colorado Early Colleges Fort Collins", "lat": 40.52572, "lon": -105.044416, "proficiency": 0.42, "district": "State Charter School Institute", "city": "FORT COLLINS", "ncessch": "080002006542"}, {"name": "Victory Preparatory Academy Middle State Charter S", "lat": 39.800208, "lon": -104.903957, "proficiency": 0.345, "district": "State Charter School Institute", "city": "COMMERCE CITY", "ncessch": "080002006579"}, {"name": "Colorado International Language Academy", "lat": 38.897182, "lon": -104.814908, "proficiency": 0.245, "district": "State Charter School Institute", "city": "COLORADO SPRINGS", "ncessch": "080002006586"}, {"name": "Mountain Song Community School", "lat": 38.852733, "lon": -104.867272, "proficiency": 0.245, "district": "State Charter School Institute", "city": "COLORADO SPRINGS", "ncessch": "080002006589"}, {"name": "Golden View Classical Academy", "lat": 39.718832, "lon": -105.190609, "proficiency": 0.445, "district": "State Charter School Institute", "city": "GOLDEN", "ncessch": "080002006639"}, {"name": "Salida Montessori Charter School", "lat": 38.530188, "lon": -106.00332, "proficiency": 0.75, "district": "State Charter School Institute", "city": "SALIDA", "ncessch": "080002006651"}, {"name": "Colorado Military Academy", "lat": 38.837168, "lon": -104.69945, "proficiency": 0.15, "district": "State Charter School Institute", "city": "COLORADO SPRINGS", "ncessch": "080002006708"}, {"name": "Colorado School for the Deaf and Blind", "lat": 38.834865, "lon": -104.806834, "proficiency": 0.245, "district": "Colorado School for the Deaf and Blind", "city": "COLORADO SPRINGS", "ncessch": "080002306410"}, {"name": "Colorado Preparatory Academy Middle School", "lat": 39.85134, "lon": -105.050971, "proficiency": 0.17, "district": "EDUCATION REENVISIONED BOCES", "city": "WESTMINSTER", "ncessch": "080028206764"}, {"name": "Spring Creek Youth Services Center", "lat": 38.786684, "lon": -104.774714, "proficiency": -0.02, "district": "Division of Youth Services", "city": "COLORADO SPRINGS", "ncessch": "080028606659"}, {"name": "Lookout Mountain", "lat": 39.741558, "lon": -105.206371, "proficiency": -0.02, "district": "Division of Youth Services", "city": "GOLDEN", "ncessch": "080028606668"}, {"name": "Platte Valley Youth Services Center", "lat": 40.451224, "lon": -104.713711, "proficiency": -0.03, "district": "Division of Youth Services", "city": "GREELEY", "ncessch": "080028606704"}, {"name": "Yampah Mountain School", "lat": 39.548286, "lon": -107.334392, "proficiency": -0.02, "district": "Colorado River BOCES", "city": "GLENWOOD SPRINGS", "ncessch": "080029201503"}, {"name": "Challenger Middle School", "lat": 38.978798, "lon": -104.774702, "proficiency": 0.67, "district": "Academy School District No. 20 in the county of El Paso an", "city": "COLORADO SPRINGS", "ncessch": "080192000001"}, {"name": "Aspen Valley Campus", "lat": 38.951358, "lon": -104.790944, "proficiency": 0.3, "district": "Academy School District No. 20 in the county of El Paso an", "city": "COLORADO SPRINGS", "ncessch": "080192000858"}, {"name": "Eagleview Middle School", "lat": 38.922875, "lon": -104.851127, "proficiency": 0.52, "district": "Academy School District No. 20 in the county of El Paso an", "city": "COLORADO SPRINGS", "ncessch": "080192001402"}, {"name": "Timberview Middle School", "lat": 38.961206, "lon": -104.738929, "proficiency": 0.56, "district": "Academy School District No. 20 in the county of El Paso an", "city": "COLORADO SPRINGS", "ncessch": "080192001462"}, {"name": "Mountain Ridge Middle School", "lat": 38.965029, "lon": -104.776578, "proficiency": 0.42, "district": "Academy School District No. 20 in the county of El Paso an", "city": "COLORADO SPRINGS", "ncessch": "080192001593"}, {"name": "The Classical Academy Middle School", "lat": 39.016573, "lon": -104.816602, "proficiency": 0.57, "district": "Academy School District No. 20 in the county of El Paso an", "city": "COLORADO SPRINGS", "ncessch": "080192001931"}, {"name": "TCA College Pathways", "lat": 38.992687, "lon": -104.790967, "proficiency": 0.645, "district": "Academy School District No. 20 in the county of El Paso an", "city": "COLORADO SPRINGS", "ncessch": "080192006447"}, {"name": "Journey K8", "lat": 38.957841, "lon": -104.707529, "proficiency": 0.15, "district": "Academy School District No. 20 in the county of El Paso an", "city": "COLORADO SPRINGS", "ncessch": "080192006478"}, {"name": "Discovery Canyon Campus Middle School", "lat": 39.03018, "lon": -104.796061, "proficiency": 0.72, "district": "Academy School District No. 20 in the county of El Paso an", "city": "COLORADO SPRINGS", "ncessch": "080192006616"}, {"name": "Adams City Middle School", "lat": 39.8282, "lon": -104.9354, "proficiency": 0.12, "district": "School District N. 14 in the county of Adams & State of Colo", "city": "COMMERCE CITY", "ncessch": "080195000009"}, {"name": "Kearney Middle School", "lat": 39.8085, "lon": -104.9167, "proficiency": 0.22, "district": "School District N. 14 in the county of Adams & State of Colo", "city": "COMMERCE CITY", "ncessch": "080195000015"}, {"name": "Agate Junior Senior High School", "lat": 39.462633, "lon": -103.941268, "proficiency": -0.03, "district": "Agate School District No. 300", "city": "AGATE", "ncessch": "080198000021"}, {"name": "Aguilar Junior-Senior High School", "lat": 37.406, "lon": -104.6539, "proficiency": 0.245, "district": "Aguilar Reorganized School District No. 6", "city": "AGUILAR", "ncessch": "080201000023"}, {"name": "Akron Elementary School", "lat": 40.164333, "lon": -103.204935, "proficiency": 0.1, "district": "Akron School District No. R-1", "city": "AKRON", "ncessch": "080204000024"}, {"name": "Ortega Middle School", "lat": 37.4762, "lon": -105.8872, "proficiency": 0.27, "district": "Alamosa School District No. Re-11J", "city": "ALAMOSA", "ncessch": "080207000026"}, {"name": "Antonito Middle School", "lat": 37.080075, "lon": -106.016932, "proficiency": 0.245, "district": "South Conejos School District No. Re10", "city": "ANTONITO", "ncessch": "080213001464"}, {"name": "Pagosa Springs Middle School", "lat": 37.2686, "lon": -107.0097, "proficiency": 0.42, "district": "Archuleta County School District No. 50 Jt", "city": "PAGOSA SPRINGS", "ncessch": "080219000040"}, {"name": "Arickaree Undivided High School", "lat": 39.7453, "lon": -103.0298, "proficiency": 0.245, "district": "Arickaree School District No. R-2", "city": "ANTON", "ncessch": "080222000042"}, {"name": "Flagler Public School", "lat": 39.29313, "lon": -103.071645, "proficiency": 0.245, "district": "Arriba-Flagler Consolidated School District No. 20", "city": "FLAGLER", "ncessch": "080226000509"}, {"name": "Aspen Middle School", "lat": 39.191433, "lon": -106.847964, "proficiency": 0.47, "district": "Aspen School District No. 1 in the county of Pitkin and Sta", "city": "ASPEN", "ncessch": "080228000046"}, {"name": "Aspen Community Charter School", "lat": 39.27703, "lon": -106.871052, "proficiency": 0.75, "district": "Aspen School District No. 1 in the county of Pitkin and Sta", "city": "WOODY CREEK", "ncessch": "080228001703"}, {"name": "Highland Middle School", "lat": 40.581336, "lon": -104.736959, "proficiency": 0.245, "district": "Weld County School District No. Re-9", "city": "AULT", "ncessch": "080231001466"}, {"name": "Aurora Hills Middle School", "lat": 39.6987, "lon": -104.8397, "proficiency": 0.025, "district": "Aurora Joint District No. 28 of the counties of Adams and A", "city": "AURORA", "ncessch": "080234000054"}, {"name": "Boston K-8 School", "lat": 39.737957, "lon": -104.88063, "proficiency": 0.15, "district": "Aurora Joint District No. 28 of the counties of Adams and A", "city": "AURORA", "ncessch": "080234000055"}, {"name": "Clyde Miller K-8", "lat": 39.746, "lon": -104.7578, "proficiency": 0.17, "district": "Aurora Joint District No. 28 of the counties of Adams and A", "city": "AURORA", "ncessch": "080234000057"}, {"name": "East Middle School", "lat": 39.7346, "lon": -104.8138, "proficiency": 0.18, "district": "Aurora Joint District No. 28 of the counties of Adams and A", "city": "AURORA", "ncessch": "080234000060"}, {"name": "Mrachek Middle School", "lat": 39.680044, "lon": -104.782466, "proficiency": 0.17, "district": "Aurora Joint District No. 28 of the counties of Adams and A", "city": "AURORA", "ncessch": "080234000073"}, {"name": "North Middle School Health Sciences and Technology", "lat": 39.7486, "lon": -104.8485, "proficiency": 0.075, "district": "Aurora Joint District No. 28 of the counties of Adams and A", "city": "AURORA", "ncessch": "080234000074"}, {"name": "South Middle School", "lat": 39.7207, "lon": -104.8441, "proficiency": 0.12, "district": "Aurora Joint District No. 28 of the counties of Adams and A", "city": "AURORA", "ncessch": "080234000079"}, {"name": "Aurora West College Preparatory Academy", "lat": 39.736, "lon": -104.8706, "proficiency": 0.075, "district": "Aurora Joint District No. 28 of the counties of Adams and A", "city": "AURORA", "ncessch": "080234000082"}, {"name": "Columbia Middle School", "lat": 39.6596, "lon": -104.7828, "proficiency": 0.17, "district": "Aurora Joint District No. 28 of the counties of Adams and A", "city": "AURORA", "ncessch": "080234001322"}, {"name": "Aurora Quest K-8", "lat": 39.720232, "lon": -104.78658, "proficiency": 0.87, "district": "Aurora Joint District No. 28 of the counties of Adams and A", "city": "AURORA", "ncessch": "080234001674"}, {"name": "Aurora Academy Charter School", "lat": 39.7186, "lon": -104.869, "proficiency": 0.445, "district": "Aurora Joint District No. 28 of the counties of Adams and A", "city": "AURORA", "ncessch": "080234001759"}, {"name": "Murphy Creek K-8 School", "lat": 39.6908, "lon": -104.7102, "proficiency": 0.645, "district": "Aurora Joint District No. 28 of the counties of Adams and A", "city": "AURORA", "ncessch": "080234001881"}, {"name": "Lotus School for Excellence", "lat": 39.7123, "lon": -104.8601, "proficiency": 0.27, "district": "Aurora Joint District No. 28 of the counties of Adams and A", "city": "AURORA", "ncessch": "080234001916"}, {"name": "Aurora Frontier K-8", "lat": 39.6585, "lon": -104.7463, "proficiency": 0.72, "district": "Aurora Joint District No. 28 of the counties of Adams and A", "city": "AURORA", "ncessch": "080234002009"}, {"name": "Global Village Academy Aurora", "lat": 39.710362, "lon": -104.796814, "proficiency": 0.12, "district": "Aurora Joint District No. 28 of the counties of Adams and A", "city": "AURORA", "ncessch": "080234006318"}, {"name": "Vanguard Classical School - West", "lat": 39.729327, "lon": -104.888382, "proficiency": 0.1, "district": "Aurora Joint District No. 28 of the counties of Adams and A", "city": "DENVER", "ncessch": "080234006322"}, {"name": "AXL Academy", "lat": 39.6814, "lon": -104.824, "proficiency": 0.15, "district": "Aurora Joint District No. 28 of the counties of Adams and A", "city": "AURORA", "ncessch": "080234006399"}, {"name": "Vista Peak P-8 Exploratory", "lat": 39.719355, "lon": -104.70113, "proficiency": 0.22, "district": "Aurora Joint District No. 28 of the counties of Adams and A", "city": "AURORA", "ncessch": "080234006483"}, {"name": "Vanguard Classical School - East", "lat": 39.702564, "lon": -104.786701, "proficiency": 0.15, "district": "Aurora Joint District No. 28 of the counties of Adams and A", "city": "AURORA", "ncessch": "080234006611"}, {"name": "Edna and John W. Mosley P-8", "lat": 39.717729, "lon": -104.787118, "proficiency": 0.17, "district": "Aurora Joint District No. 28 of the counties of Adams and A", "city": "AURORA", "ncessch": "080234006644"}, {"name": "Academy of Advanced Learning", "lat": 39.723447, "lon": -104.821159, "proficiency": 0.245, "district": "Aurora Joint District No. 28 of the counties of Adams and A", "city": "AURORA", "ncessch": "080234006736"}, {"name": "Fitzsimmons Middle School", "lat": 39.42134, "lon": -105.53665, "proficiency": 0.57, "district": "Platte Canyon School District No. 1 of  the county of Park", "city": "BAILEY", "ncessch": "080237001325"}, {"name": "Bayfield Middle School", "lat": 37.2407, "lon": -107.5926, "proficiency": 0.17, "district": "Bayfield School District No. 10Jt-R", "city": "BAYFIELD", "ncessch": "080240000089"}, {"name": "Bennett Middle School", "lat": 39.759085, "lon": -104.424565, "proficiency": 0.22, "district": "Bennett School District No. 29J", "city": "BENNETT", "ncessch": "080243000093"}, {"name": "Bethune Public Schools", "lat": 39.306226, "lon": -102.426175, "proficiency": 0.245, "district": "Bethune School District No. R- 5", "city": "BETHUNE", "ncessch": "080246000095"}, {"name": "Broomfield Heights Middle School", "lat": 39.9376, "lon": -105.0779, "proficiency": 0.42, "district": "Boulder Valley School District No. Re2", "city": "BROOMFIELD", "ncessch": "080249000102"}, {"name": "Manhattan Middle School of the Arts and Academics", "lat": 39.9941, "lon": -105.2288, "proficiency": 0.52, "district": "Boulder Valley School District No. Re2", "city": "BOULDER", "ncessch": "080249000104"}, {"name": "Casey Middle School", "lat": 40.0232, "lon": -105.2799, "proficiency": 0.37, "district": "Boulder Valley School District No. Re2", "city": "BOULDER", "ncessch": "080249000106"}, {"name": "Centennial Middle School", "lat": 40.0448, "lon": -105.2685, "proficiency": 0.47, "district": "Boulder Valley School District No. Re2", "city": "BOULDER", "ncessch": "080249000108"}, {"name": "Angevine Middle School", "lat": 39.9899, "lon": -105.1041, "proficiency": 0.42, "district": "Boulder Valley School District No. Re2", "city": "LAFAYETTE", "ncessch": "080249000122"}, {"name": "Louisville Middle School", "lat": 39.9843, "lon": -105.1329, "proficiency": 0.62, "district": "Boulder Valley School District No. Re2", "city": "LOUISVILLE", "ncessch": "080249000125"}, {"name": "Nederland Middle-Senior High School", "lat": 39.9528, "lon": -105.5251, "proficiency": 0.495, "district": "Boulder Valley School District No. Re2", "city": "NEDERLAND", "ncessch": "080249000131"}, {"name": "Nevin Platt Middle School", "lat": 40.003, "lon": -105.2096, "proficiency": 0.52, "district": "Boulder Valley School District No. Re2", "city": "BOULDER", "ncessch": "080249000132"}, {"name": "Southern Hills Middle School", "lat": 39.9747, "lon": -105.2448, "proficiency": 0.77, "district": "Boulder Valley School District No. Re2", "city": "BOULDER", "ncessch": "080249000134"}, {"name": "Summit Middle Charter School", "lat": 39.9831, "lon": -105.2407, "proficiency": 0.82, "district": "Boulder Valley School District No. Re2", "city": "BOULDER", "ncessch": "080249001517"}, {"name": "Monarch K-8 School", "lat": 39.9517, "lon": -105.1437, "proficiency": 0.47, "district": "Boulder Valley School District No. Re2", "city": "LOUISVILLE", "ncessch": "080249001573"}, {"name": "Aspen Creek K-8 School", "lat": 39.9469, "lon": -105.0567, "proficiency": 0.32, "district": "Boulder Valley School District No. Re2", "city": "BROOMFIELD", "ncessch": "080249001758"}, {"name": "Eldorado K-8 School", "lat": 39.9214, "lon": -105.1613, "proficiency": 0.62, "district": "Boulder Valley School District No. Re2", "city": "SUPERIOR", "ncessch": "080249001771"}, {"name": "Peak to Peak Charter School", "lat": 39.9915, "lon": -105.0782, "proficiency": 0.62, "district": "Boulder Valley School District No. Re2", "city": "LAFAYETTE", "ncessch": "080249001792"}, {"name": "Justice High Charter School", "lat": 39.9876, "lon": -105.0808, "proficiency": -0.02, "district": "Boulder Valley School District No. Re2", "city": "LAFAYETTE", "ncessch": "080249002013"}, {"name": "Horizons K-8 School", "lat": 39.9935, "lon": -105.2373, "proficiency": 0.495, "district": "Boulder Valley School District No. Re2", "city": "BOULDER", "ncessch": "080249006199"}, {"name": "Boulder Universal", "lat": 40.013513, "lon": -105.198032, "proficiency": -0.03, "district": "Boulder Valley School District No. Re2", "city": "BOULDER", "ncessch": "080249006463"}, {"name": "Meadowlark School", "lat": 40.033415, "lon": -105.083388, "proficiency": 0.3, "district": "Boulder Valley School District No. Re2", "city": "ERIE", "ncessch": "080249006716"}, {"name": "Branson School", "lat": 37.019067, "lon": -103.882854, "proficiency": 0.245, "district": "Branson Reorganized School District No. 82", "city": "BRANSON", "ncessch": "080252000141"}, {"name": "Branson School Online", "lat": 37.019067, "lon": -103.882854, "proficiency": 0.345, "district": "Branson Reorganized School District No. 82", "city": "BRANSON", "ncessch": "080252001728"}, {"name": "Briggsdale Undivided High School", "lat": 40.6335, "lon": -104.3244, "proficiency": -0.03, "district": "School District No. Re-10 in the county of Weld and State o", "city": "BRIGGSDALE", "ncessch": "080255000143"}, {"name": "Vikan Middle School", "lat": 39.978, "lon": -104.8118, "proficiency": 0.12, "district": "School District 27J", "city": "BRIGHTON", "ncessch": "080258000152"}, {"name": "Innovations & Options", "lat": 39.986308, "lon": -104.811907, "proficiency": -0.03, "district": "School District 27J", "city": "BRIGHTON", "ncessch": "080258000729"}, {"name": "Overland Trail Middle School", "lat": 39.9947, "lon": -104.8006, "proficiency": 0.12, "district": "School District 27J", "city": "BRIGHTON", "ncessch": "080258001377"}, {"name": "Bromley East Charter School", "lat": 39.98234, "lon": -104.746031, "proficiency": 0.27, "district": "School District 27J", "city": "BRIGHTON", "ncessch": "080258001729"}, {"name": "Belle Creek Charter School", "lat": 39.8916, "lon": -104.8799, "proficiency": 0.345, "district": "School District 27J", "city": "HENDERSON", "ncessch": "080258001948"}, {"name": "Landmark Academy at Reunion", "lat": 39.8892, "lon": -104.7946, "proficiency": 0.42, "district": "School District 27J", "city": "COMMERCE CITY", "ncessch": "080258006325"}, {"name": "Prairie Vista Youth Service Center", "lat": 39.982095, "lon": -104.734799, "proficiency": -0.02, "district": "School District 27J", "city": "BRIGHTON", "ncessch": "080258006343"}, {"name": "Prairie View Middle School", "lat": 39.91524, "lon": -104.8336, "proficiency": 0.17, "district": "School District 27J", "city": "HENDERSON", "ncessch": "080258006362"}, {"name": "Otho E Stuart Middle School", "lat": 39.881559, "lon": -104.801335, "proficiency": 0.17, "district": "School District 27J", "city": "COMMERCE CITY", "ncessch": "080258006420"}, {"name": "Foundations Academy", "lat": 39.9827, "lon": -104.7602, "proficiency": 0.57, "district": "School District 27J", "city": "BRIGHTON", "ncessch": "080258006465"}, {"name": "Rodger Quist Middle School", "lat": 39.941141, "lon": -104.885078, "proficiency": 0.27, "district": "School District 27J", "city": "THORNTON", "ncessch": "080258006753"}, {"name": "Brush Middle School", "lat": 40.259599, "lon": -103.637663, "proficiency": 0.22, "district": "School District No. Re-2 Brush", "city": "BRUSH", "ncessch": "080261000153"}, {"name": "Buena Vista Middle School", "lat": 38.837073, "lon": -106.127314, "proficiency": 0.42, "district": "Buena Vista School District No. R-31", "city": "BUENA VISTA", "ncessch": "080264000158"}, {"name": "Chaffee County High School", "lat": 38.843672, "lon": -106.125283, "proficiency": -0.02, "district": "Buena Vista School District No. R-31", "city": "BUENA VISTA", "ncessch": "080264006155"}, {"name": "Burlington Middle School", "lat": 39.3019, "lon": -102.2837, "proficiency": 0.1, "district": "Burlington Public School District No. RE-6J", "city": "BURLINGTON", "ncessch": "080267000161"}, {"name": "Byers Junior-Senior High School", "lat": 39.707721, "lon": -104.217401, "proficiency": 0.245, "district": "Byers School District No. 32J", "city": "BYERS", "ncessch": "080270000164"}, {"name": "Colorado Virtual Academy Middle School", "lat": 39.713117, "lon": -105.134583, "proficiency": 0.245, "district": "Byers School District No. 32J", "city": "LAKEWOOD", "ncessch": "080270006620"}, {"name": "Astravo Online Academy Middle School", "lat": 39.713117, "lon": -105.134583, "proficiency": -0.03, "district": "Byers School District No. 32J", "city": "LAKEWOOD", "ncessch": "080270006755"}, {"name": "Colorado Online Middle School", "lat": 39.713117, "lon": -105.134583, "proficiency": 0.245, "district": "Byers School District No. 32J", "city": "LAKEWOOD", "ncessch": "080270006759"}, {"name": "Campo Undivided High School", "lat": 37.10466, "lon": -102.57623, "proficiency": -0.03, "district": "Campo School District No. Re-6", "city": "CAMPO", "ncessch": "080276000170"}, {"name": "Canon City Middle School", "lat": 38.445476, "lon": -105.231325, "proficiency": 0.22, "district": "Fremont Re-1", "city": "CANON CITY", "ncessch": "080279000171"}, {"name": "Harrison School", "lat": 38.466678, "lon": -105.20645, "proficiency": 0.27, "district": "Fremont Re-1", "city": "CANON CITY", "ncessch": "080279000173"}, {"name": "Canon Exploratory School", "lat": 38.4678, "lon": -105.24, "proficiency": 0.495, "district": "Fremont Re-1", "city": "CANON CITY", "ncessch": "080279001433"}, {"name": "Mount View Core Knowledge Charter School", "lat": 38.4644, "lon": -105.2072, "proficiency": 0.495, "district": "Fremont Re-1", "city": "CANON CITY", "ncessch": "080279001538"}, {"name": "Skoglund Middle School", "lat": 37.751336, "lon": -106.114091, "proficiency": 0.345, "district": "Center Consolidated School District No. 26 Jt. of the count", "city": "CENTER", "ncessch": "080285000178"}, {"name": "Cheraw School", "lat": 38.109739, "lon": -103.509745, "proficiency": 0.3, "district": "Cheraw School District No. 31 in the county of Otero and S", "city": "CHERAW", "ncessch": "080288000182"}, {"name": "Thunder Ridge Middle School", "lat": 39.6214, "lon": -104.736862, "proficiency": 0.44, "district": "Cherry Creek School District No. 5 in the county of Arapah", "city": "AURORA", "ncessch": "080291000034"}, {"name": "Campus Middle School", "lat": 39.6295, "lon": -104.8775, "proficiency": 0.68, "district": "Cherry Creek School District No. 5 in the county of Arapah", "city": "GREENWOOD VILLAGE", "ncessch": "080291000185"}, {"name": "Laredo Middle School", "lat": 39.6253, "lon": -104.8031, "proficiency": 0.42, "district": "Cherry Creek School District No. 5 in the county of Arapah", "city": "AURORA", "ncessch": "080291000197"}, {"name": "Prairie Middle School", "lat": 39.6815, "lon": -104.8403, "proficiency": 0.21, "district": "Cherry Creek School District No. 5 in the county of Arapah", "city": "AURORA", "ncessch": "080291000201"}, {"name": "West Middle School", "lat": 39.6233, "lon": -104.9242, "proficiency": 0.72, "district": "Cherry Creek School District No. 5 in the county of Arapah", "city": "GREENWOOD VILLAGE", "ncessch": "080291000207"}, {"name": "Challenge School", "lat": 39.6977, "lon": -104.8766, "proficiency": 0.95, "district": "Cherry Creek School District No. 5 in the county of Arapah", "city": "DENVER", "ncessch": "080291000763"}, {"name": "Cherry Creek Charter Academy", "lat": 39.6028, "lon": -104.8753, "proficiency": 0.845, "district": "Cherry Creek School District No. 5 in the county of Arapah", "city": "GREENWOOD VILLAGE", "ncessch": "080291001152"}, {"name": "Horizon Middle School", "lat": 39.6433, "lon": -104.7715, "proficiency": 0.22, "district": "Cherry Creek School District No. 5 in the county of Arapah", "city": "AURORA", "ncessch": "080291001328"}, {"name": "Falcon Creek Middle School", "lat": 39.606, "lon": -104.7557, "proficiency": 0.42, "district": "Cherry Creek School District No. 5 in the county of Arapah", "city": "AURORA", "ncessch": "080291001672"}, {"name": "Liberty Middle School", "lat": 39.5786, "lon": -104.738, "proficiency": 0.47, "district": "Cherry Creek School District No. 5 in the county of Arapah", "city": "AURORA", "ncessch": "080291001711"}, {"name": "Sky Vista Middle School", "lat": 39.6344, "lon": -104.748, "proficiency": 0.32, "district": "Cherry Creek School District No. 5 in the county of Arapah", "city": "AURORA", "ncessch": "080291001878"}, {"name": "Marvin W Foote Youth Services", "lat": 39.584432, "lon": -104.833245, "proficiency": -0.03, "district": "Cherry Creek School District No. 5 in the county of Arapah", "city": "CENTENNIAL", "ncessch": "080291006344"}, {"name": "Fox Ridge Middle School", "lat": 39.5908, "lon": -104.6806, "proficiency": 0.58, "district": "Cherry Creek School District No. 5 in the county of Arapah", "city": "AURORA", "ncessch": "080291006367"}, {"name": "Options School", "lat": 39.586638, "lon": -104.818549, "proficiency": -0.03, "district": "Cherry Creek School District No. 5 in the county of Arapah", "city": "CENTENNIAL", "ncessch": "080291006563"}, {"name": "Infinity Middle School", "lat": 39.621677, "lon": -104.696402, "proficiency": -0.02, "district": "Cherry Creek School District No. 5 in the county of Arapah", "city": "AURORA", "ncessch": "080291006728"}, {"name": "Cheyenne Mountain Junior High School", "lat": 38.7995, "lon": -104.8495, "proficiency": 0.67, "district": "Cheyenne Mountain School District No. 12 in the county of E", "city": "COLORADO SPRINGS", "ncessch": "080294000209"}, {"name": "Clear Creek Middle School", "lat": 39.715839, "lon": -105.403852, "proficiency": 0.245, "district": "Clear Creek School District No. Re-1", "city": "EVERGREEN", "ncessch": "080300006157"}, {"name": "Plateau Valley Junior High School", "lat": 39.233568, "lon": -107.996509, "proficiency": 0.3, "district": "Plateau Valley School District No. 50 in the county of Mesa", "city": "COLLBRAN", "ncessch": "080303006288"}, {"name": "Buena Vista Elementary School", "lat": 38.8357, "lon": -104.8399, "proficiency": -0.02, "district": "Colorado Springs School District No. 11 in the county of E", "city": "COLORADO SPRINGS", "ncessch": "080306000225"}, {"name": "Nikola Tesla Education Opportunity Center", "lat": 38.864746, "lon": -104.767861, "proficiency": 0.1, "district": "Colorado Springs School District No. 11 in the county of E", "city": "COLORADO SPRINGS", "ncessch": "080306000232"}, {"name": "Sabin Middle School", "lat": 38.8821, "lon": -104.7504, "proficiency": 0.17, "district": "Colorado Springs School District No. 11 in the county of E", "city": "COLORADO SPRINGS", "ncessch": "080306000234"}, {"name": "Holmes Middle School", "lat": 38.8677, "lon": -104.8569, "proficiency": 0.32, "district": "Colorado Springs School District No. 11 in the county of E", "city": "COLORADO SPRINGS", "ncessch": "080306000241"}, {"name": "Mann Middle School", "lat": 38.8672, "lon": -104.8044, "proficiency": 0.27, "district": "Colorado Springs School District No. 11 in the county of E", "city": "COLORADO SPRINGS", "ncessch": "080306000242"}, {"name": "North Middle School", "lat": 38.8484, "lon": -104.8138, "proficiency": 0.17, "district": "Colorado Springs School District No. 11 in the county of E", "city": "COLORADO SPRINGS", "ncessch": "080306000256"}, {"name": "Russell Middle School", "lat": 38.9041, "lon": -104.7575, "proficiency": 0.27, "district": "Colorado Springs School District No. 11 in the county of E", "city": "COLORADO SPRINGS", "ncessch": "080306000263"}, {"name": "West Middle School", "lat": 38.8434, "lon": -104.8535, "proficiency": 0.42, "district": "Colorado Springs School District No. 11 in the county of E", "city": "COLORADO SPRINGS", "ncessch": "080306000272"}, {"name": "Jenkins Middle School", "lat": 38.9285, "lon": -104.7432, "proficiency": 0.42, "district": "Colorado Springs School District No. 11 in the county of E", "city": "COLORADO SPRINGS", "ncessch": "080306001683"}, {"name": "Galileo School of Math and Science", "lat": 38.8564, "lon": -104.7955, "proficiency": 0.12, "district": "Colorado Springs School District No. 11 in the county of E", "city": "COLORADO SPRINGS", "ncessch": "080306006379"}, {"name": "Jack Swigert Aerospace Academy", "lat": 38.8352, "lon": -104.7499, "proficiency": 0.17, "district": "Colorado Springs School District No. 11 in the county of E", "city": "COLORADO SPRINGS", "ncessch": "080306006421"}, {"name": "Achieve Online", "lat": 38.860984, "lon": -104.78191, "proficiency": 0.1, "district": "Colorado Springs School District No. 11 in the county of E", "city": "COLORADO SPRINGS", "ncessch": "080306006428"}, {"name": "Academy for Advanced and Creative Learning", "lat": 38.8684, "lon": -104.837, "proficiency": 0.495, "district": "Colorado Springs School District No. 11 in the county of E", "city": "COLORADO SPRINGS", "ncessch": "080306006456"}, {"name": "Montezuma-Cortez Middle School", "lat": 37.3471, "lon": -108.5915, "proficiency": 0.22, "district": "Montezuma-Cortez School District No. Re-1", "city": "CORTEZ", "ncessch": "080309000833"}, {"name": "Children's Kiva Montessori School", "lat": 37.355247, "lon": -108.573625, "proficiency": -0.03, "district": "Montezuma-Cortez School District No. Re-1", "city": "CORTEZ", "ncessch": "080309006622"}, {"name": "Cotopaxi Junior-Senior High School", "lat": 38.375586, "lon": -105.690192, "proficiency": 0.3, "district": "Fremont Re-3", "city": "COTOPAXI", "ncessch": "080312000277"}, {"name": "Creede School", "lat": 37.825682, "lon": -106.924624, "proficiency": -0.03, "district": "Creede School District", "city": "CREEDE", "ncessch": "080315000279"}, {"name": "Cripple Creek-Victor Junior-Senior High School", "lat": 38.750792, "lon": -105.183947, "proficiency": 0.1, "district": "Cripple Creek-Victor School District No. Re-1", "city": "CRIPPLE CREEK", "ncessch": "080318000281"}, {"name": "Crowley County Junior and Senior High School", "lat": 38.2223, "lon": -103.7574, "proficiency": 0.05, "district": "Crowley County School District No. Re-1-J", "city": "ORDWAY", "ncessch": "080321000282"}, {"name": "De Beque PK-12 School District 49JT", "lat": 39.336031, "lon": -108.212758, "proficiency": 0.245, "district": "De Beque Joint District No. 49 of the counties of Mesa and", "city": "DE BEQUE", "ncessch": "080324000286"}, {"name": "Deer Trail Junior-Senior High School", "lat": 39.608493, "lon": -104.040952, "proficiency": 0.245, "district": "Deer Trail School District No. 26J", "city": "DEER TRAIL", "ncessch": "080327000288"}, {"name": "Del Norte High Jr./Sr. High School", "lat": 37.673601, "lon": -106.34569, "proficiency": 0.245, "district": "Upper Rio Grande School District C-7", "city": "DEL NORTE", "ncessch": "080330000290"}, {"name": "Delta Middle School", "lat": 38.734733, "lon": -108.066771, "proficiency": 0.32, "district": "Delta County Joint District No. 50", "city": "DELTA", "ncessch": "080333000296"}, {"name": "Hotchkiss Elementary School", "lat": 38.8013, "lon": -107.7147, "proficiency": 0.445, "district": "Delta County Joint District No. 50", "city": "HOTCHKISS", "ncessch": "080333000299"}, {"name": "Cedaredge Middle School", "lat": 38.891151, "lon": -107.920389, "proficiency": 0.42, "district": "Delta County Joint District No. 50", "city": "CEDAREDGE", "ncessch": "080333001334"}, {"name": "Grand Mesa Choice Academy", "lat": 38.732751, "lon": -108.049716, "proficiency": -0.03, "district": "Delta County Joint District No. 50", "city": "DELTA", "ncessch": "080333001953"}, {"name": "Delta Academy of Applied Learning", "lat": 38.735823, "lon": -108.067192, "proficiency": -0.03, "district": "Delta County Joint District No. 50", "city": "DELTA", "ncessch": "080333002001"}, {"name": "Vision Charter Academy", "lat": 38.74325, "lon": -108.071171, "proficiency": 0.05, "district": "Delta County Joint District No. 50", "city": "DELTA", "ncessch": "080333002024"}, {"name": "Bryant Webster Dual Language ECE-8 School", "lat": 39.7674, "lon": -105.0084, "proficiency": 0.245, "district": "School District No. 1 in the county of Denver and State of C", "city": "DENVER", "ncessch": "080336000320"}, {"name": "Grant Beacon Middle School", "lat": 39.6855, "lon": -104.9798, "proficiency": 0.32, "district": "School District No. 1 in the county of Denver and State of C", "city": "DENVER", "ncessch": "080336000357"}, {"name": "Hamilton Middle School", "lat": 39.6599, "lon": -104.8921, "proficiency": 0.37, "district": "School District No. 1 in the county of Denver and State of C", "city": "DENVER", "ncessch": "080336000361"}, {"name": "Hill Campus of Arts and Sciences", "lat": 39.7238, "lon": -104.9354, "proficiency": 0.37, "district": "School District No. 1 in the county of Denver and State of C", "city": "DENVER", "ncessch": "080336000364"}, {"name": "Merrill Middle School", "lat": 39.6888, "lon": -104.946, "proficiency": 0.52, "district": "School District No. 1 in the county of Denver and State of C", "city": "DENVER", "ncessch": "080336000379"}, {"name": "Dora Moore ECE-8 School", "lat": 39.73, "lon": -104.9734, "proficiency": 0.3, "district": "School District No. 1 in the county of Denver and State of C", "city": "DENVER", "ncessch": "080336000385"}, {"name": "Morey Middle School", "lat": 39.7377, "lon": -104.977, "proficiency": 0.52, "district": "School District No. 1 in the county of Denver and State of C", "city": "DENVER", "ncessch": "080336000386"}, {"name": "Skinner Middle School", "lat": 39.7724, "lon": -105.0323, "proficiency": 0.52, "district": "School District No. 1 in the county of Denver and State of C", "city": "DENVER", "ncessch": "080336000403"}, {"name": "Whittier ECE-8 School", "lat": 39.7528, "lon": -104.973, "proficiency": 0.245, "district": "School District No. 1 in the county of Denver and State of C", "city": "DENVER", "ncessch": "080336000426"}, {"name": "McGlone Academy", "lat": 39.7803, "lon": -104.8376, "proficiency": 0.15, "district": "School District No. 1 in the county of Denver and State of C", "city": "DENVER", "ncessch": "080336001276"}, {"name": "Dr. Martin Luther King Jr. Early College", "lat": 39.781, "lon": -104.7602, "proficiency": 0.17, "district": "School District No. 1 in the county of Denver and State of C", "city": "DENVER", "ncessch": "080336001406"}, {"name": "Slavens K-8 School", "lat": 39.6619, "lon": -104.956, "proficiency": 0.82, "district": "School District No. 1 in the county of Denver and State of C", "city": "DENVER", "ncessch": "080336001524"}, {"name": "Denver School of the Arts", "lat": 39.7481, "lon": -104.9052, "proficiency": 0.67, "district": "School District No. 1 in the county of Denver and State of C", "city": "DENVER", "ncessch": "080336001574"}, {"name": "Odyssey School of Denver", "lat": 39.748172, "lon": -104.911752, "proficiency": 0.695, "district": "School District No. 1 in the county of Denver and State of C", "city": "DENVER", "ncessch": "080336001636"}, {"name": "Ridge View Academy Charter School", "lat": 39.66, "lon": -104.6708, "proficiency": -0.03, "district": "School District No. 1 in the county of Denver and State of C", "city": "WATKINS", "ncessch": "080336001724"}, {"name": "Grant Ranch ECE-8 School", "lat": 39.6176, "lon": -105.0645, "proficiency": 0.05, "district": "School District No. 1 in the county of Denver and State of C", "city": "DENVER", "ncessch": "080336001738"}, {"name": "Marie L. Greenwood Academy", "lat": 39.7867, "lon": -104.8172, "proficiency": 0.05, "district": "School District No. 1 in the county of Denver and State of C", "city": "DENVER", "ncessch": "080336001739"}, {"name": "Prep Academy", "lat": 39.7564, "lon": -104.9577, "proficiency": 0.245, "district": "School District No. 1 in the county of Denver and State of C", "city": "DENVER", "ncessch": "080336001795"}, {"name": "Highline Academy Southeast", "lat": 39.677063, "lon": -104.93091, "proficiency": 0.445, "district": "School District No. 1 in the county of Denver and State of C", "city": "DENVER", "ncessch": "080336001835"}, {"name": "Omar D Blair Charter School", "lat": 39.7867, "lon": -104.7661, "proficiency": 0.22, "district": "School District No. 1 in the county of Denver and State of C", "city": "DENVER", "ncessch": "080336001838"}, {"name": "KIPP Sunshine Peak Academy", "lat": 39.709893, "lon": -105.012463, "proficiency": 0.37, "district": "School District No. 1 in the county of Denver and State of C", "city": "DENVER", "ncessch": "080336001865"}, {"name": "Bruce Randolph School", "lat": 39.7721, "lon": -104.9513, "proficiency": 0.22, "district": "School District No. 1 in the county of Denver and State of C", "city": "DENVER", "ncessch": "080336001869"}, {"name": "Denver Center for International Studies", "lat": 39.7253, "lon": -104.9942, "proficiency": 0.17, "district": "School District No. 1 in the county of Denver and State of C", "city": "DENVER", "ncessch": "080336001917"}, {"name": "Farrell B. Howell ECE-8 School", "lat": 39.7765, "lon": -104.8326, "proficiency": 0.025, "district": "School District No. 1 in the county of Denver and State of C", "city": "DENVER", "ncessch": "080336001928"}, {"name": "Florida Pitt-Waller ECE-8 School", "lat": 39.7899, "lon": -104.7366, "proficiency": 0.22, "district": "School District No. 1 in the county of Denver and State of C", "city": "DENVER", "ncessch": "080336001933"}, {"name": "STRIVE Prep - Federal", "lat": 39.67814, "lon": -105.018666, "proficiency": 0.22, "district": "School District No. 1 in the county of Denver and State of C", "city": "DENVER", "ncessch": "080336002012"}, {"name": "William (Bill) Roberts ECE-8 School", "lat": 39.7481, "lon": -104.8828, "proficiency": 0.67, "district": "School District No. 1 in the county of Denver and State of C", "city": "DENVER", "ncessch": "080336006332"}, {"name": "Gilliam School", "lat": 39.7574, "lon": -104.9729, "proficiency": -0.03, "district": "School District No. 1 in the county of Denver and State of C", "city": "DENVER", "ncessch": "080336006345"}, {"name": "Place Bridge Academy", "lat": 39.688185, "lon": -104.905693, "proficiency": 0.12, "district": "School District No. 1 in the county of Denver and State of C", "city": "DENVER", "ncessch": "080336006398"}, {"name": "Kunsmiller Creative Arts Academy", "lat": 39.676, "lon": -105.0402, "proficiency": 0.32, "district": "School District No. 1 in the county of Denver and State of C", "city": "DENVER", "ncessch": "080336006442"}, {"name": "STRIVE Prep - Westwood", "lat": 39.695381, "lon": -105.028579, "proficiency": 0.12, "district": "School District No. 1 in the county of Denver and State of C", "city": "DENVER", "ncessch": "080336006444"}, {"name": "Denver Green School Southeast", "lat": 39.7072, "lon": -104.9093, "proficiency": 0.42, "district": "School District No. 1 in the county of Denver and State of C", "city": "DENVER", "ncessch": "080336006453"}, {"name": "STRIVE Prep - Sunnyside", "lat": 39.782013, "lon": -105.006806, "proficiency": 0.075, "district": "School District No. 1 in the county of Denver and State of C", "city": "DENVER", "ncessch": "080336006457"}, {"name": "Girls Athletic Leadership School Middle School", "lat": 39.72806, "lon": -104.995791, "proficiency": 0.57, "district": "School District No. 1 in the county of Denver and State of C", "city": "DENVER", "ncessch": "080336006473"}, {"name": "STRIVE Prep - Lake", "lat": 39.746, "lon": -105.0342, "proficiency": 0.17, "district": "School District No. 1 in the county of Denver and State of C", "city": "DENVER", "ncessch": "080336006479"}, {"name": "Denver Language School", "lat": 39.7228, "lon": -104.9101, "proficiency": 0.745, "district": "School District No. 1 in the county of Denver and State of C", "city": "DENVER", "ncessch": "080336006482"}, {"name": "Lake Middle School", "lat": 39.7456, "lon": -105.0345, "proficiency": 0.075, "district": "School District No. 1 in the county of Denver and State of C", "city": "DENVER", "ncessch": "080336006490"}, {"name": "Summit Academy", "lat": 39.67889, "lon": -105.056551, "proficiency": 0.1, "district": "School District No. 1 in the county of Denver and State of C", "city": "DENVER", "ncessch": "080336006491"}, {"name": "Vista Academy", "lat": 39.7857, "lon": -104.779911, "proficiency": 0.1, "district": "School District No. 1 in the county of Denver and State of C", "city": "DENVER", "ncessch": "080336006514"}, {"name": "Denver Center for 21st-Century Learning at Wyman", "lat": 39.7429, "lon": -104.9653, "proficiency": 0.1, "district": "School District No. 1 in the county of Denver and State of C", "city": "DENVER", "ncessch": "080336006516"}, {"name": "KIPP Northeast Denver Middle School", "lat": 39.780724, "lon": -104.778524, "proficiency": 0.22, "district": "School District No. 1 in the county of Denver and State of C", "city": "DENVER", "ncessch": "080336006519"}, {"name": "Noel Community Arts School", "lat": 39.78648, "lon": -104.827981, "proficiency": 0.05, "district": "School District No. 1 in the county of Denver and State of C", "city": "DENVER", "ncessch": "080336006520"}, {"name": "DSST: Cole Middle School", "lat": 39.762606, "lon": -104.968967, "proficiency": 0.17, "district": "School District No. 1 in the county of Denver and State of C", "city": "DENVER", "ncessch": "080336006523"}, {"name": "Montbello High School", "lat": 39.7872, "lon": -104.8279, "proficiency": 0.075, "district": "School District No. 1 in the county of Denver and State of C", "city": "DENVER", "ncessch": "080336006528"}, {"name": "STRIVE Prep - Noel", "lat": 39.788827, "lon": -104.800358, "proficiency": 0.17, "district": "School District No. 1 in the county of Denver and State of C", "city": "DENVER", "ncessch": "080336006537"}, {"name": "DSST: Green Valley Ranch Middle School", "lat": 39.784403, "lon": -104.780524, "proficiency": 0.42, "district": "School District No. 1 in the county of Denver and State of C", "city": "DENVER", "ncessch": "080336006546"}, {"name": "West Middle School", "lat": 39.7313, "lon": -104.9948, "proficiency": 0.075, "district": "School District No. 1 in the county of Denver and State of C", "city": "DENVER", "ncessch": "080336006547"}, {"name": "West High School", "lat": 39.7311, "lon": -104.9947, "proficiency": 0.12, "district": "School District No. 1 in the county of Denver and State of C", "city": "DENVER", "ncessch": "080336006551"}, {"name": "DSST: College View Middle School", "lat": 39.660284, "lon": -105.027319, "proficiency": 0.47, "district": "School District No. 1 in the county of Denver and State of C", "city": "DENVER", "ncessch": "080336006554"}, {"name": "STRIVE Prep - Green Valley Ranch", "lat": 39.785131, "lon": -104.778452, "proficiency": 0.17, "district": "School District No. 1 in the county of Denver and State of C", "city": "DENVER", "ncessch": "080336006556"}, {"name": "McAuliffe International School", "lat": 39.75377, "lon": -104.921731, "proficiency": 0.84, "district": "School District No. 1 in the county of Denver and State of C", "city": "DENVER", "ncessch": "080336006562"}, {"name": "DSST: Montview Middle School", "lat": 39.7479, "lon": -104.8904, "proficiency": 0.47, "district": "School District No. 1 in the county of Denver and State of C", "city": "DENVER", "ncessch": "080336006566"}, {"name": "Denver Montessori Junior/Senior High School", "lat": 39.77501, "lon": -105.009658, "proficiency": 0.245, "district": "School District No. 1 in the county of Denver and State of C", "city": "DENVER", "ncessch": "080336006568"}, {"name": "DSST: Byers Middle School", "lat": 39.7137, "lon": -104.9798, "proficiency": 0.67, "district": "School District No. 1 in the county of Denver and State of C", "city": "DENVER", "ncessch": "080336006572"}, {"name": "DSST: Conservatory Green Middle School", "lat": 39.789362, "lon": -104.889005, "proficiency": 0.37, "district": "School District No. 1 in the county of Denver and State of C", "city": "DENVER", "ncessch": "080336006618"}, {"name": "Denver Discovery School", "lat": 39.764808, "lon": -104.898046, "proficiency": 0.32, "district": "School District No. 1 in the county of Denver and State of C", "city": "DENVER", "ncessch": "080336006624"}, {"name": "Compass Academy", "lat": 39.67676, "lon": -105.02705, "proficiency": 0.075, "district": "School District No. 1 in the county of Denver and State of C", "city": "DENVER", "ncessch": "080336006645"}, {"name": "Bear Valley International School", "lat": 39.66075, "lon": -105.058552, "proficiency": 0.32, "district": "School District No. 1 in the county of Denver and State of C", "city": "DENVER", "ncessch": "080336006682"}, {"name": "Kepner Beacon Middle School", "lat": 39.699896, "lon": -105.028272, "proficiency": 0.12, "district": "School District No. 1 in the county of Denver and State of C", "city": "DENVER", "ncessch": "080336006686"}, {"name": "McAuliffe Manual Middle School", "lat": 39.756508, "lon": -104.967138, "proficiency": 0.37, "district": "School District No. 1 in the county of Denver and State of C", "city": "DENVER", "ncessch": "080336006687"}, {"name": "STRIVE Prep - Kepner", "lat": 39.699782, "lon": -105.02847, "proficiency": 0.12, "district": "School District No. 1 in the county of Denver and State of C", "city": "DENVER", "ncessch": "080336006688"}, {"name": "Dolores Secondary School", "lat": 37.476195, "lon": -108.493537, "proficiency": 0.17, "district": "Dolores School District No. Re-4A", "city": "DOLORES", "ncessch": "080339000432"}, {"name": "Dove Creek High School", "lat": 37.767571, "lon": -108.903406, "proficiency": 0.245, "district": "Dolores County School District RE-2J", "city": "DOVE CREEK", "ncessch": "080342000429"}, {"name": "Castle Rock Middle School", "lat": 39.4097, "lon": -104.8921, "proficiency": 0.35, "district": "Douglas County School District No. Re 1", "city": "CASTLE ROCK", "ncessch": "080345000438"}, {"name": "Sagewood Middle School", "lat": 39.4318, "lon": -104.74, "proficiency": 0.37, "district": "Douglas County School District No. Re 1", "city": "PARKER", "ncessch": "080345000443"}, {"name": "Academy Charter School", "lat": 39.3838, "lon": -104.8713, "proficiency": 0.545, "district": "Douglas County School District No. Re 1", "city": "CASTLE ROCK", "ncessch": "080345000492"}, {"name": "Parker Core Knowledge Charter School", "lat": 39.5321, "lon": -104.757, "proficiency": 0.87, "district": "Douglas County School District No. Re 1", "city": "PARKER", "ncessch": "080345000812"}, {"name": "Ranch View Middle School", "lat": 39.5327, "lon": -105.0082, "proficiency": 0.58, "district": "Douglas County School District No. Re 1", "city": "HIGHLANDS RANCH", "ncessch": "080345001528"}, {"name": "DC Montessori Charter School", "lat": 39.4723, "lon": -104.8801, "proficiency": 0.495, "district": "Douglas County School District No. Re 1", "city": "CASTLE ROCK", "ncessch": "080345001581"}, {"name": "Sierra Middle School", "lat": 39.5465, "lon": -104.7628, "proficiency": 0.38, "district": "Douglas County School District No. Re 1", "city": "PARKER", "ncessch": "080345001582"}, {"name": "Platte River Charter Academy", "lat": 39.5519, "lon": -104.9414, "proficiency": 0.745, "district": "Douglas County School District No. Re 1", "city": "HIGHLANDS RANCH", "ncessch": "080345001584"}, {"name": "Mountain Ridge Middle School", "lat": 39.522098, "lon": -104.962633, "proficiency": 0.48, "district": "Douglas County School District No. Re 1", "city": "HIGHLANDS RANCH", "ncessch": "080345001747"}, {"name": "Challenge to Excellence Charter School", "lat": 39.5464, "lon": -104.7904, "proficiency": 0.745, "district": "Douglas County School District No. Re 1", "city": "PARKER", "ncessch": "080345001874"}, {"name": "American Academy", "lat": 39.46365, "lon": -104.88762, "proficiency": 0.67, "district": "Douglas County School District No. Re 1", "city": "CASTLE PINES", "ncessch": "080345001896"}, {"name": "Rocky Heights Middle School", "lat": 39.5151, "lon": -104.9212, "proficiency": 0.54, "district": "Douglas County School District No. Re 1", "city": "LITTLETON", "ncessch": "080345001962"}, {"name": "North Star Academy", "lat": 39.5371, "lon": -104.7955, "proficiency": 0.545, "district": "Douglas County School District No. Re 1", "city": "PARKER", "ncessch": "080345002011"}, {"name": "Cresthill Middle School", "lat": 39.5488, "lon": -104.9304, "proficiency": 0.58, "district": "Douglas County School District No. Re 1", "city": "HIGHLANDS RANCH", "ncessch": "080345006219"}, {"name": "Mesa Middle School", "lat": 39.37373, "lon": -104.79635, "proficiency": 0.42, "district": "Douglas County School District No. Re 1", "city": "CASTLE ROCK", "ncessch": "080345006371"}, {"name": "eDCSD", "lat": 39.560351, "lon": -104.866969, "proficiency": -0.02, "district": "Douglas County School District No. Re 1", "city": "ENGLEWOOD", "ncessch": "080345006372"}, {"name": "Cimarron Middle", "lat": 39.495274, "lon": -104.724562, "proficiency": 0.49, "district": "Douglas County School District No. Re 1", "city": "PARKER", "ncessch": "080345006404"}, {"name": "Skyview Academy", "lat": 39.56294, "lon": -104.917321, "proficiency": 0.57, "district": "Douglas County School District No. Re 1", "city": "HIGHLANDS RANCH", "ncessch": "080345006455"}, {"name": "Ben Franklin Academy", "lat": 39.559125, "lon": -105.016445, "proficiency": 0.77, "district": "Douglas County School District No. Re 1", "city": "HIGHLANDS RANCH", "ncessch": "080345006492"}, {"name": "STEM School Highlands Ranch", "lat": 39.5559, "lon": -104.9979, "proficiency": 0.62, "district": "Douglas County School District No. Re 1", "city": "HIGHLANDS RANCH", "ncessch": "080345006493"}, {"name": "HOPE Online Learning Academy Middle School", "lat": 39.538593, "lon": -104.865246, "proficiency": 0.075, "district": "Douglas County School District No. Re 1", "city": "ENGLEWOOD", "ncessch": "080345006578"}, {"name": "Aspen View Academy", "lat": 39.395015, "lon": -104.885108, "proficiency": 0.3, "district": "Douglas County School District No. Re 1", "city": "CASTLE ROCK", "ncessch": "080345006588"}, {"name": "World Compass Academy", "lat": 39.34903, "lon": -104.870244, "proficiency": 0.495, "district": "Douglas County School District No. Re 1", "city": "CASTLE ROCK", "ncessch": "080345006666"}, {"name": "Parker Performing Arts", "lat": 39.559435, "lon": -104.814718, "proficiency": 0.545, "district": "Douglas County School District No. Re 1", "city": "ENGLEWOOD", "ncessch": "080345006690"}, {"name": "Renaissance Secondary School", "lat": 39.401102, "lon": -104.856405, "proficiency": 0.15, "district": "Douglas County School District No. Re 1", "city": "CASTLE ROCK", "ncessch": "080345006714"}, {"name": "Leman Classical Academy", "lat": 39.477105, "lon": -104.762446, "proficiency": 0.245, "district": "Douglas County School District No. Re 1", "city": "PARKER", "ncessch": "080345006765"}, {"name": "Miller Middle School", "lat": 37.2945, "lon": -107.8777, "proficiency": 0.52, "district": "Durango School District No. 9-R", "city": "DURANGO", "ncessch": "080348000452"}, {"name": "Escalante Middle School", "lat": 37.2265, "lon": -107.8644, "proficiency": 0.32, "district": "Durango School District No. 9-R", "city": "DURANGO", "ncessch": "080348000456"}, {"name": "Colorado Connections Academy @ Durango", "lat": 37.27242, "lon": -107.893051, "proficiency": 0.15, "district": "Durango School District No. 9-R", "city": "ENGLEWOOD", "ncessch": "080348006696"}, {"name": "Eads Middle School", "lat": 38.483499, "lon": -102.782102, "proficiency": 0.75, "district": "Kiowa County School District No. Re-1", "city": "EADS", "ncessch": "080351001277"}, {"name": "Eagle County Charter Academy", "lat": 39.641959, "lon": -106.568757, "proficiency": 0.645, "district": "Eagle County School District No. Re 50", "city": "EDWARDS", "ncessch": "080354000851"}, {"name": "Eagle Valley Middle School", "lat": 39.6556, "lon": -106.8206, "proficiency": 0.62, "district": "Eagle County School District No. Re 50", "city": "EAGLE", "ncessch": "080354001309"}, {"name": "Homestake Peak School", "lat": 39.6188, "lon": -106.4736, "proficiency": 0.32, "district": "Eagle County School District No. Re 50", "city": "AVON", "ncessch": "080354001478"}, {"name": "Berry Creek Middle School", "lat": 39.6421, "lon": -106.5753, "proficiency": 0.075, "district": "Eagle County School District No. Re 50", "city": "EDWARDS", "ncessch": "080354001531"}, {"name": "Gypsum Creek Middle School", "lat": 39.6232, "lon": -106.9561, "proficiency": 0.27, "district": "Eagle County School District No. Re 50", "city": "GYPSUM", "ncessch": "080354001723"}, {"name": "Vail Ski and Snowboard Academy (VSSA)", "lat": 39.564172, "lon": -106.413343, "proficiency": 0.3, "district": "Eagle County School District No. Re 50", "city": "MINTURN", "ncessch": "080354006422"}, {"name": "World Academy High School", "lat": 39.655374, "lon": -106.828206, "proficiency": -0.03, "district": "Eagle County School District No. Re 50", "city": "EAGLE", "ncessch": "080354006533"}, {"name": "Eaton Middle School", "lat": 40.526798, "lon": -104.71891, "proficiency": 0.27, "district": "Weld County School District No. Re-2", "city": "EATON", "ncessch": "080360000475"}, {"name": "Edison Junior-Senior High School", "lat": 38.619599, "lon": -104.165516, "proficiency": 0.75, "district": "Edison Joint District No. 54 of the counties of El Paso and", "city": "YODER", "ncessch": "080363001278"}, {"name": "Elbert Junior-Senior High School", "lat": 39.224761, "lon": -104.538228, "proficiency": 0.245, "district": "Elbert School District No. 200", "city": "ELBERT", "ncessch": "080369000481"}, {"name": "Elizabeth Middle School", "lat": 39.366299, "lon": -104.609613, "proficiency": 0.32, "district": "ELIZABETH SCHOOL DISTRICT", "city": "ELIZABETH", "ncessch": "080372000482"}, {"name": "Legacy Academy", "lat": 39.358855, "lon": -104.628159, "proficiency": 0.3, "district": "ELIZABETH SCHOOL DISTRICT", "city": "ELIZABETH", "ncessch": "080372001586"}, {"name": "Ellicott Middle School", "lat": 38.8248, "lon": -104.3875, "proficiency": 0.22, "district": "Ellicott School District No. 22 in the county of El Paso a", "city": "ELLICOTT", "ncessch": "080375001735"}, {"name": "Englewood Leadership Academy", "lat": 39.647052, "lon": -104.981934, "proficiency": 0.9, "district": "Englewood School District No. 1 in the county of Arapahoe", "city": "ENGLEWOOD", "ncessch": "080378001772"}, {"name": "Englewood Middle School", "lat": 39.647052, "lon": -104.981934, "proficiency": 0.025, "district": "Englewood School District No. 1 in the county of Arapahoe", "city": "ENGLEWOOD", "ncessch": "080378006331"}, {"name": "Estes Park Middle School", "lat": 40.3694, "lon": -105.4968, "proficiency": 0.27, "district": "Estes Park School District R-3", "city": "ESTES PARK", "ncessch": "080381000499"}, {"name": "Estes Park Options School", "lat": 40.33772, "lon": -105.566339, "proficiency": -0.02, "district": "Estes Park School District R-3", "city": "ESTES PARK", "ncessch": "080381006426"}, {"name": "Lake George Charter School", "lat": 38.973878, "lon": -105.354048, "proficiency": -0.02, "district": "Park County School District No. Re-2", "city": "LAKE GEORGE", "ncessch": "080384000501"}, {"name": "South Park Middle School", "lat": 39.22451, "lon": -105.999346, "proficiency": 0.245, "district": "Park County School District No. Re-2", "city": "FAIRPLAY", "ncessch": "080384000622"}, {"name": "Guffey Charter School", "lat": 38.750937, "lon": -105.521047, "proficiency": -0.03, "district": "Park County School District No. Re-2", "city": "GUFFEY", "ncessch": "080384001695"}, {"name": "Falcon Middle School", "lat": 38.973422, "lon": -104.620939, "proficiency": 0.42, "district": "El Paso County Colorado School District 49", "city": "PEYTON", "ncessch": "080387000506"}, {"name": "Horizon Middle School", "lat": 38.8619, "lon": -104.7051, "proficiency": 0.42, "district": "El Paso County Colorado School District 49", "city": "COLORADO SPRINGS", "ncessch": "080387001393"}, {"name": "Skyview Middle School", "lat": 38.9204, "lon": -104.7102, "proficiency": 0.37, "district": "El Paso County Colorado School District 49", "city": "COLORADO SPRINGS", "ncessch": "080387001799"}, {"name": "Pikes Peak School Expeditionary Learning", "lat": 38.999458, "lon": -104.60506, "proficiency": 0.545, "district": "El Paso County Colorado School District 49", "city": "FALCON", "ncessch": "080387001844"}, {"name": "Rocky Mountain Classical Academy", "lat": 38.898412, "lon": -104.688844, "proficiency": 0.27, "district": "El Paso County Colorado School District 49", "city": "COLORADO SPRINGS", "ncessch": "080387002000"}, {"name": "Banning Lewis Ranch Academy", "lat": 38.933638, "lon": -104.675167, "proficiency": 0.37, "district": "El Paso County Colorado School District 49", "city": "COLORADO SPRINGS", "ncessch": "080387002027"}, {"name": "Grand Peak Academy", "lat": 38.952323, "lon": -104.695972, "proficiency": 0.345, "district": "El Paso County Colorado School District 49", "city": "COLORADO SPRINGS", "ncessch": "080387006386"}, {"name": "Springs Studio for Academic Excellence", "lat": 38.869307, "lon": -104.713611, "proficiency": 0.495, "district": "El Paso County Colorado School District 49", "city": "COLORADO SPRINGS", "ncessch": "080387006462"}, {"name": "Power Technical Early College", "lat": 38.868827, "lon": -104.698267, "proficiency": 0.05, "district": "El Paso County Colorado School District 49", "city": "COLORADO SPRINGS", "ncessch": "080387006693"}, {"name": "Liberty Tree Academy", "lat": 38.95969, "lon": -104.586478, "proficiency": 0.695, "district": "El Paso County Colorado School District 49", "city": "FALCON", "ncessch": "080387006744"}, {"name": "Fleming High School", "lat": 40.684921, "lon": -102.841982, "proficiency": 0.495, "district": "School District No. Re-3 Frenchman", "city": "FLEMING", "ncessch": "080393000512"}, {"name": "Blevins Middle School", "lat": 40.5595, "lon": -105.116, "proficiency": 0.47, "district": "Poudre School District R-1", "city": "FORT COLLINS", "ncessch": "080399000522"}, {"name": "Boltz Middle School", "lat": 40.5425, "lon": -105.0628, "proficiency": 0.37, "district": "Poudre School District R-1", "city": "FORT COLLINS", "ncessch": "080399000523"}, {"name": "Cache La Poudre Middle School", "lat": 40.6268, "lon": -105.1441, "proficiency": 0.57, "district": "Poudre School District R-1", "city": "LAPORTE", "ncessch": "080399000524"}, {"name": "Lincoln Middle School", "lat": 40.599432, "lon": -105.106134, "proficiency": 0.37, "district": "Poudre School District R-1", "city": "FORT COLLINS", "ncessch": "080399000536"}, {"name": "Wellington Middle-High School", "lat": 40.7086, "lon": -105.002, "proficiency": 0.32, "district": "Poudre School District R-1", "city": "WELLINGTON", "ncessch": "080399000551"}, {"name": "Preston Middle School", "lat": 40.5186, "lon": -105.0252, "proficiency": 0.68, "district": "Poudre School District R-1", "city": "FORT COLLINS", "ncessch": "080399001091"}, {"name": "Lesher Middle School", "lat": 40.5687, "lon": -105.0662, "proficiency": 0.57, "district": "Poudre School District R-1", "city": "FORT COLLINS", "ncessch": "080399001408"}, {"name": "Liberty Common Charter School", "lat": 40.5638, "lon": -105.0306, "proficiency": 0.67, "district": "Poudre School District R-1", "city": "FORT COLLINS", "ncessch": "080399001608"}, {"name": "Ridgeview Classical Schools", "lat": 40.5628, "lon": -105.0573, "proficiency": 0.445, "district": "Poudre School District R-1", "city": "FORT COLLINS", "ncessch": "080399001717"}, {"name": "Kinard Core Knowledge Middle School", "lat": 40.5043, "lon": -105.0218, "proficiency": 0.72, "district": "Poudre School District R-1", "city": "FORT COLLINS", "ncessch": "080399001849"}, {"name": "Poudre Community Academy", "lat": 40.5897, "lon": -105.1247, "proficiency": 0.245, "district": "Poudre School District R-1", "city": "FORT COLLINS", "ncessch": "080399001938"}, {"name": "Webber Middle School", "lat": 40.5275, "lon": -105.105, "proficiency": 0.67, "district": "Poudre School District R-1", "city": "FORT COLLINS", "ncessch": "080399006162"}, {"name": "Polaris Expeditionary Learning School", "lat": 40.578129, "lon": -105.111343, "proficiency": 0.445, "district": "Poudre School District R-1", "city": "FORT COLLINS", "ncessch": "080399006334"}, {"name": "PSD Global Academy", "lat": 40.566564, "lon": -105.066913, "proficiency": 0.75, "district": "Poudre School District R-1", "city": "FORT COLLINS", "ncessch": "080399006431"}, {"name": "Mountain Sage Community School", "lat": 40.567696, "lon": -105.035234, "proficiency": 0.695, "district": "Poudre School District R-1", "city": "FORT COLLINS", "ncessch": "080399006573"}, {"name": "Compass Community Collaborative School", "lat": 40.560206, "lon": -105.078319, "proficiency": 0.3, "district": "Poudre School District R-1", "city": "FORT COLLINS", "ncessch": "080399006762"}, {"name": "Fort Lupton Middle School", "lat": 40.0779, "lon": -104.8136, "proficiency": 0.22, "district": "Weld re-8 schools", "city": "FORT LUPTON", "ncessch": "080402000553"}, {"name": "Kenneth Homyak PK-8", "lat": 40.057335, "lon": -104.962939, "proficiency": 0.695, "district": "Weld re-8 schools", "city": "DACONO", "ncessch": "080402006606"}, {"name": "Fort Morgan Middle School", "lat": 40.238437, "lon": -103.809234, "proficiency": 0.37, "district": "School District No. Re-3 Fort Morgan", "city": "FORT MORGAN", "ncessch": "080405001281"}, {"name": "Welte Education Center", "lat": 38.692916, "lon": -104.705711, "proficiency": -0.03, "district": "Fountain School District No. 8 in the county of El Paso an", "city": "FOUNTAIN", "ncessch": "080408000096"}, {"name": "Carson Middle School", "lat": 38.732573, "lon": -104.801622, "proficiency": 0.32, "district": "Fountain School District No. 8 in the county of El Paso an", "city": "FORT CARSON", "ncessch": "080408000561"}, {"name": "Fountain Middle School", "lat": 38.685971, "lon": -104.706112, "proficiency": 0.34, "district": "Fountain School District No. 8 in the county of El Paso an", "city": "FOUNTAIN", "ncessch": "080408000563"}, {"name": "Fowler Junior High School", "lat": 38.127589, "lon": -104.030107, "proficiency": 0.3, "district": "Fowler School District No. R4J", "city": "FOWLER", "ncessch": "080411000567"}, {"name": "Sierra Grande K-12 School", "lat": 37.431201, "lon": -105.456399, "proficiency": 0.3, "district": "Sierra Grande School District No. R-30", "city": "BLANCA", "ncessch": "080414000572"}, {"name": "North Valley Middle School", "lat": 40.287226, "lon": -104.778714, "proficiency": 0.37, "district": "Weld County Reorganized School District No. Re-1", "city": "GILCREST", "ncessch": "080420000577"}, {"name": "South Valley Middle School", "lat": 40.2096, "lon": -104.8241, "proficiency": 0.37, "district": "Weld County Reorganized School District No. Re-1", "city": "PLATTEVILLE", "ncessch": "080420000579"}, {"name": "Gilpin County Undivided High School", "lat": 39.833334, "lon": -105.520283, "proficiency": 0.445, "district": "Gilpin County School District No. Re-1", "city": "BLACK HAWK", "ncessch": "080423001298"}, {"name": "Basalt Middle School", "lat": 39.365557, "lon": -107.029182, "proficiency": 0.42, "district": "Roaring Fork School District No. Re-1", "city": "BASALT", "ncessch": "080426000133"}, {"name": "Carbondale Middle School", "lat": 39.392299, "lon": -107.207102, "proficiency": 0.47, "district": "Roaring Fork School District No. Re-1", "city": "CARBONDALE", "ncessch": "080426000586"}, {"name": "Glenwood Springs Middle School", "lat": 39.5636, "lon": -107.3587, "proficiency": 0.32, "district": "Roaring Fork School District No. Re-1", "city": "GLENWOOD SPRINGS", "ncessch": "080426000587"}, {"name": "Carbondale Community Charter School", "lat": 39.412708, "lon": -107.225233, "proficiency": 0.245, "district": "Roaring Fork School District No. Re-1", "city": "CARBONDALE", "ncessch": "080426001505"}, {"name": "Riverview School", "lat": 39.484158, "lon": -107.298206, "proficiency": 0.15, "district": "Roaring Fork School District No. Re-1", "city": "GLENWOOD SPRINGS", "ncessch": "080426006715"}, {"name": "Granada Undivided High School", "lat": 38.059709, "lon": -102.305506, "proficiency": 0.3, "district": "Granada School District No. Re-1", "city": "GRANADA", "ncessch": "080429000593"}, {"name": "East Grand Middle School", "lat": 40.092, "lon": -105.9472, "proficiency": 0.37, "district": "East Grand School District No. 2", "city": "GRANBY", "ncessch": "080432001343"}, {"name": "Redlands Middle School", "lat": 39.0847, "lon": -108.644, "proficiency": 0.47, "district": "Mesa County Valley School District No. 51", "city": "GRAND JUNCTION", "ncessch": "080435000205"}, {"name": "Bookcliff Middle School", "lat": 39.082, "lon": -108.5091, "proficiency": 0.17, "district": "Mesa County Valley School District No. 51", "city": "GRAND JUNCTION", "ncessch": "080435000598"}, {"name": "East Middle School", "lat": 39.074, "lon": -108.5582, "proficiency": 0.42, "district": "Mesa County Valley School District No. 51", "city": "GRAND JUNCTION", "ncessch": "080435000605"}, {"name": "Gateway School", "lat": 38.682672, "lon": -108.971478, "proficiency": -0.03, "district": "Mesa County Valley School District No. 51", "city": "GATEWAY", "ncessch": "080435000611"}, {"name": "Orchard Mesa Middle School", "lat": 39.049354, "lon": -108.546714, "proficiency": 0.22, "district": "Mesa County Valley School District No. 51", "city": "GRAND JUNCTION", "ncessch": "080435000619"}, {"name": "R-5 High School", "lat": 39.071333, "lon": -108.541072, "proficiency": -0.02, "district": "Mesa County Valley School District No. 51", "city": "GRAND JUNCTION", "ncessch": "080435000623"}, {"name": "West Middle School", "lat": 39.0842, "lon": -108.5714, "proficiency": 0.27, "district": "Mesa County Valley School District No. 51", "city": "GRAND JUNCTION", "ncessch": "080435000629"}, {"name": "Mount Garfield Middle School", "lat": 39.0966, "lon": -108.4083, "proficiency": 0.17, "district": "Mesa County Valley School District No. 51", "city": "CLIFTON", "ncessch": "080435001345"}, {"name": "Grand Mesa Middle School", "lat": 39.0898, "lon": -108.4698, "proficiency": 0.17, "district": "Mesa County Valley School District No. 51", "city": "GRAND JUNCTION", "ncessch": "080435001656"}, {"name": "Independence Academy", "lat": 39.101782, "lon": -108.518818, "proficiency": 0.75, "district": "Mesa County Valley School District No. 51", "city": "GRAND JUNCTION", "ncessch": "080435001980"}, {"name": "Fruita 8/9 School", "lat": 39.148485, "lon": -108.711952, "proficiency": 0.22, "district": "Mesa County Valley School District No. 51", "city": "FRUITA", "ncessch": "080435002020"}, {"name": "Mesa Valley Community School", "lat": 39.093415, "lon": -108.591688, "proficiency": 0.345, "district": "Mesa County Valley School District No. 51", "city": "GRAND JUNCTION", "ncessch": "080435006384"}, {"name": "Grand River Academy", "lat": 39.072691, "lon": -108.548628, "proficiency": 0.1, "district": "Mesa County Valley School District No. 51", "city": "GRAND JUNCTION", "ncessch": "080435006498"}, {"name": "Juniper Ridge Community School", "lat": 39.094296, "lon": -108.564991, "proficiency": 0.1, "district": "Mesa County Valley School District No. 51", "city": "GRAND JUNCTION", "ncessch": "080435006581"}, {"name": "Grand Valley Middle School", "lat": 39.444718, "lon": -108.018061, "proficiency": 0.3, "district": "Grand Valley School District No. 16 in the county of Garfi", "city": "PARACHUTE", "ncessch": "080438001368"}, {"name": "Brentwood Middle School", "lat": 40.395568, "lon": -104.720898, "proficiency": 0.27, "district": "GreeleySchool District No. 6 in the county of Weld and Sta", "city": "GREELEY", "ncessch": "080441000634"}, {"name": "Chappelow K-8 Magnet School", "lat": 40.3819, "lon": -104.7093, "proficiency": 0.52, "district": "GreeleySchool District No. 6 in the county of Weld and Sta", "city": "EVANS", "ncessch": "080441000637"}, {"name": "Franklin Middle School", "lat": 40.42484, "lon": -104.733952, "proficiency": 0.17, "district": "GreeleySchool District No. 6 in the county of Weld and Sta", "city": "GREELEY", "ncessch": "080441000639"}, {"name": "Heath Middle School", "lat": 40.415126, "lon": -104.714521, "proficiency": 0.075, "district": "GreeleySchool District No. 6 in the county of Weld and Sta", "city": "GREELEY", "ncessch": "080441000642"}, {"name": "Prairie Heights Middle School", "lat": 40.374441, "lon": -104.785632, "proficiency": 0.32, "district": "GreeleySchool District No. 6 in the county of Weld and Sta", "city": "EVANS", "ncessch": "080441000645"}, {"name": "S. Christa McAuliffe STEM Academy", "lat": 40.4282, "lon": -104.7653, "proficiency": 0.47, "district": "GreeleySchool District No. 6 in the county of Weld and Sta", "city": "GREELEY", "ncessch": "080441001483"}, {"name": "Frontier Charter Academy", "lat": 40.390145, "lon": -104.723312, "proficiency": 0.42, "district": "GreeleySchool District No. 6 in the county of Weld and Sta", "city": "GREELEY", "ncessch": "080441001614"}, {"name": "Union Colony Preparatory School", "lat": 40.406658, "lon": -104.767602, "proficiency": 0.075, "district": "GreeleySchool District No. 6 in the county of Weld and Sta", "city": "GREELEY", "ncessch": "080441001615"}, {"name": "University Schools", "lat": 40.4115, "lon": -104.7881, "proficiency": 0.22, "district": "GreeleySchool District No. 6 in the county of Weld and Sta", "city": "GREELEY", "ncessch": "080441001696"}, {"name": "Winograd K-8 Elementary School", "lat": 40.4362, "lon": -104.7909, "proficiency": 0.37, "district": "GreeleySchool District No. 6 in the county of Weld and Sta", "city": "GREELEY", "ncessch": "080441001989"}, {"name": "Bella Romero Academy of Applied Technology", "lat": 40.405472, "lon": -104.656549, "proficiency": 0.27, "district": "GreeleySchool District No. 6 in the county of Weld and Sta", "city": "GREELEY", "ncessch": "080441001990"}, {"name": "Jefferson Junior/Senior High", "lat": 40.417584, "lon": -104.684319, "proficiency": 0.1, "district": "GreeleySchool District No. 6 in the county of Weld and Sta", "city": "GREELEY", "ncessch": "080441006461"}, {"name": "West Ridge Academy", "lat": 40.424381, "lon": -104.790529, "proficiency": 0.495, "district": "GreeleySchool District No. 6 in the county of Weld and Sta", "city": "GREELEY", "ncessch": "080441006504"}, {"name": "Salida del Sol Academy", "lat": 40.395926, "lon": -104.676906, "proficiency": 0.075, "district": "GreeleySchool District No. 6 in the county of Weld and Sta", "city": "GREELEY", "ncessch": "080441006638"}, {"name": "Fred Tjardes School of Innovation", "lat": 40.427637, "lon": -104.689788, "proficiency": 0.245, "district": "GreeleySchool District No. 6 in the county of Weld and Sta", "city": "GREELEY", "ncessch": "080441006719"}, {"name": "Pawnee School PK-12", "lat": 40.8682, "lon": -104.2308, "proficiency": -0.03, "district": "School District No. Re-12 in the county of Weld and State of", "city": "GROVER", "ncessch": "080444000653"}, {"name": "Crested Butte Secondary School", "lat": 38.865104, "lon": -106.975755, "proficiency": 0.52, "district": "Gunnison Watershed School District Re1J", "city": "CRESTED BUTTE", "ncessch": "080447000655"}, {"name": "Marble Charter School", "lat": 39.07168, "lon": -107.19297, "proficiency": -0.03, "district": "Gunnison Watershed School District Re1J", "city": "MARBLE", "ncessch": "080447001507"}, {"name": "Gunnison Middle School", "lat": 38.55369, "lon": -106.937459, "proficiency": 0.17, "district": "Gunnison Watershed School District Re1J", "city": "GUNNISON", "ncessch": "080447001600"}, {"name": "Hanover Junior-Senior High School", "lat": 38.5844, "lon": -104.4624, "proficiency": 0.1, "district": "Hanover School District No. 28 in the county of El Paso an", "city": "COLORADO SPRINGS", "ncessch": "080450000661"}, {"name": "Carmel Community School", "lat": 38.807622, "lon": -104.765571, "proficiency": 0.075, "district": "Harrison School District No. 2 in the county of El Paso an", "city": "COLORADO SPRINGS", "ncessch": "080453000662"}, {"name": "Fox Meadow Middle School", "lat": 38.7835, "lon": -104.8013, "proficiency": 0.27, "district": "Harrison School District No. 2 in the county of El Paso an", "city": "COLORADO SPRINGS", "ncessch": "080453000666"}, {"name": "Panorama Middle School", "lat": 38.8035, "lon": -104.7419, "proficiency": 0.22, "district": "Harrison School District No. 2 in the county of El Paso an", "city": "COLORADO SPRINGS", "ncessch": "080453000669"}, {"name": "Mountain Vista Community School", "lat": 38.8124, "lon": -104.7816, "proficiency": 0.27, "district": "Harrison School District No. 2 in the county of El Paso an", "city": "COLORADO SPRINGS", "ncessch": "080453001903"}, {"name": "James Irwin Charter Middle School", "lat": 38.79728, "lon": -104.728431, "proficiency": 0.57, "district": "Harrison School District No. 2 in the county of El Paso an", "city": "COLORADO SPRINGS", "ncessch": "080453001964"}, {"name": "Atlas Preparatory Middle School", "lat": 38.810759, "lon": -104.750733, "proficiency": 0.52, "district": "Harrison School District No. 2 in the county of El Paso an", "city": "COLORADO SPRINGS", "ncessch": "080453006691"}, {"name": "Haxtun Elementary School", "lat": 40.6477, "lon": -102.6292, "proficiency": 0.245, "district": "Haxtun School District No. Re-2J", "city": "HAXTUN", "ncessch": "080456000673"}, {"name": "Hayden Middle School", "lat": 40.4935, "lon": -107.2613, "proficiency": 0.3, "district": "Hayden School District No. Re 1", "city": "HAYDEN", "ncessch": "080459000676"}, {"name": "Lake City Community School", "lat": 38.033214, "lon": -107.314641, "proficiency": -0.03, "district": "Hinsdale County School District No. Re-1", "city": "LAKE CITY", "ncessch": "080462001969"}, {"name": "Hoehne Schools", "lat": 37.279113, "lon": -104.378906, "proficiency": 0.15, "district": "Hoehne Reorganized School District No. 3", "city": "HOEHNE", "ncessch": "080465000680"}, {"name": "Holyoke Senior High School", "lat": 40.582, "lon": -102.2963, "proficiency": 0.245, "district": "Holyoke School District No. Re-1J", "city": "HOLYOKE", "ncessch": "080471000684"}, {"name": "Holyoke Alternative School", "lat": 40.582219, "lon": -102.297156, "proficiency": -0.02, "district": "Holyoke School District No. Re-1J", "city": "HOLYOKE", "ncessch": "080471006610"}, {"name": "Genoa-Hugo School", "lat": 39.1388, "lon": -103.4773, "proficiency": 0.245, "district": "Genoa-Hugo School District No. C-113", "city": "HUGO", "ncessch": "080474000686"}, {"name": "Ignacio Middle School", "lat": 37.116392, "lon": -107.640146, "proficiency": 0.15, "district": "Ignacio School District No. 11Jt", "city": "IGNACIO", "ncessch": "080477000688"}, {"name": "Alameda International Junior/Senior High School", "lat": 39.6938, "lon": -105.0843, "proficiency": 0.12, "district": "Jefferson County School District No. R-1", "city": "LAKEWOOD", "ncessch": "080480000691"}, {"name": "Bear Creek K-8 School", "lat": 39.6603, "lon": -105.1047, "proficiency": 0.32, "district": "Jefferson County School District No. R-1", "city": "LAKEWOOD", "ncessch": "080480000696"}, {"name": "Bell Middle School", "lat": 39.7337, "lon": -105.1952, "proficiency": 0.48, "district": "Jefferson County School District No. R-1", "city": "GOLDEN", "ncessch": "080480000698"}, {"name": "Carmody Middle School", "lat": 39.6796, "lon": -105.1087, "proficiency": 0.37, "district": "Jefferson County School District No. R-1", "city": "LAKEWOOD", "ncessch": "080480000703"}, {"name": "Coal Creek Canyon K-8 Elementary School", "lat": 39.9026, "lon": -105.3559, "proficiency": 0.245, "district": "Jefferson County School District No. R-1", "city": "GOLDEN", "ncessch": "080480000704"}, {"name": "Creighton Middle School", "lat": 39.717, "lon": -105.1071, "proficiency": 0.32, "district": "Jefferson County School District No. R-1", "city": "LAKEWOOD", "ncessch": "080480000708"}, {"name": "Drake Junior High School", "lat": 39.79, "lon": -105.1411, "proficiency": 0.57, "district": "Jefferson County School District No. R-1", "city": "ARVADA", "ncessch": "080480000712"}, {"name": "Dunstan Middle School", "lat": 39.684, "lon": -105.1385, "proficiency": 0.52, "district": "Jefferson County School District No. R-1", "city": "LAKEWOOD", "ncessch": "080480000713"}, {"name": "Evergreen Middle School", "lat": 39.6775, "lon": -105.3614, "proficiency": 0.62, "district": "Jefferson County School District No. R-1", "city": "EVERGREEN", "ncessch": "080480000718"}, {"name": "Everitt Middle School", "lat": 39.7706, "lon": -105.1068, "proficiency": 0.17, "district": "Jefferson County School District No. R-1", "city": "WHEAT RIDGE", "ncessch": "080480000720"}, {"name": "Jefferson Junior/Senior High School", "lat": 39.7504, "lon": -105.0731, "proficiency": 0.025, "district": "Jefferson County School District No. R-1", "city": "EDGEWATER", "ncessch": "080480000739"}, {"name": "Ken Caryl Middle School", "lat": 39.5817, "lon": -105.0698, "proficiency": 0.41, "district": "Jefferson County School District No. R-1", "city": "LITTLETON", "ncessch": "080480000742"}, {"name": "Miller Special Education", "lat": 39.7197, "lon": -105.1081, "proficiency": -0.03, "district": "Jefferson County School District No. R-1", "city": "LAKEWOOD", "ncessch": "080480000756"}, {"name": "North Arvada Middle School", "lat": 39.8282, "lon": -105.0735, "proficiency": 0.27, "district": "Jefferson County School District No. R-1", "city": "ARVADA", "ncessch": "080480000760"}, {"name": "Jefferson County Open Secondary", "lat": 39.73356, "lon": -105.083642, "proficiency": 0.245, "district": "Jefferson County School District No. R-1", "city": "LAKEWOOD", "ncessch": "080480000765"}, {"name": "West Jefferson Middle School", "lat": 39.546303, "lon": -105.304143, "proficiency": 0.47, "district": "Jefferson County School District No. R-1", "city": "CONIFER", "ncessch": "080480000795"}, {"name": "Bradford K8 North", "lat": 39.5832, "lon": -105.1678, "proficiency": 0.345, "district": "Jefferson County School District No. R-1", "city": "LITTLETON", "ncessch": "080480000913"}, {"name": "D'Evelyn Junior/Senior High School", "lat": 39.6435, "lon": -105.1145, "proficiency": 0.72, "district": "Jefferson County School District No. R-1", "city": "DENVER", "ncessch": "080480000964"}, {"name": "Collegiate Academy of Colorado", "lat": 39.5668, "lon": -105.1134, "proficiency": 0.245, "district": "Jefferson County School District No. R-1", "city": "LITTLETON", "ncessch": "080480001036"}, {"name": "Summit Ridge Middle School", "lat": 39.6036, "lon": -105.1313, "proficiency": 0.43, "district": "Jefferson County School District No. R-1", "city": "LITTLETON", "ncessch": "080480001054"}, {"name": "Oberon Middle School", "lat": 39.8303, "lon": -105.1218, "proficiency": 0.47, "district": "Jefferson County School District No. R-1", "city": "ARVADA", "ncessch": "080480001283"}, {"name": "Deer Creek Middle School", "lat": 39.5867, "lon": -105.1021, "proficiency": 0.62, "district": "Jefferson County School District No. R-1", "city": "LITTLETON", "ncessch": "080480001315"}, {"name": "Moore Middle School", "lat": 39.8571, "lon": -105.0892, "proficiency": 0.22, "district": "Jefferson County School District No. R-1", "city": "ARVADA", "ncessch": "080480001317"}, {"name": "Mandalay Middle School", "lat": 39.872, "lon": -105.0741, "proficiency": 0.47, "district": "Jefferson County School District No. R-1", "city": "WESTMINSTER", "ncessch": "080480001384"}, {"name": "Excel Academy Charter School", "lat": 39.8509, "lon": -105.1285, "proficiency": 0.345, "district": "Jefferson County School District No. R-1", "city": "ARVADA", "ncessch": "080480001508"}, {"name": "Lincoln Charter Academy", "lat": 39.825882, "lon": -105.117094, "proficiency": 0.445, "district": "Jefferson County School District No. R-1", "city": "ARVADA", "ncessch": "080480001605"}, {"name": "Rocky Mountain Deaf School", "lat": 39.642935, "lon": -105.111183, "proficiency": 0.245, "district": "Jefferson County School District No. R-1", "city": "GOLDEN", "ncessch": "080480001606"}, {"name": "Montessori Peaks Charter Academy", "lat": 39.6052, "lon": -105.109, "proficiency": -0.02, "district": "Jefferson County School District No. R-1", "city": "LITTLETON", "ncessch": "080480001607"}, {"name": "Manning Options School", "lat": 39.7611, "lon": -105.148, "proficiency": 0.52, "district": "Jefferson County School District No. R-1", "city": "GOLDEN", "ncessch": "080480001746"}, {"name": "Compass Montessori - Golden Charter School", "lat": 39.775, "lon": -105.1896, "proficiency": 0.345, "district": "Jefferson County School District No. R-1", "city": "GOLDEN", "ncessch": "080480001766"}, {"name": "Woodrow Wilson Charter Academy", "lat": 39.8672, "lon": -105.0923, "proficiency": 0.645, "district": "Jefferson County School District No. R-1", "city": "WESTMINSTER", "ncessch": "080480001807"}, {"name": "Rocky Mountain Academy of Evergreen", "lat": 39.6604, "lon": -105.3572, "proficiency": 0.345, "district": "Jefferson County School District No. R-1", "city": "EVERGREEN", "ncessch": "080480001812"}, {"name": "Free Horizon Montessori", "lat": 39.732081, "lon": -105.178232, "proficiency": 0.245, "district": "Jefferson County School District No. R-1", "city": "GOLDEN", "ncessch": "080480001920"}, {"name": "Jefferson Academy", "lat": 39.900598, "lon": -105.075281, "proficiency": 0.72, "district": "Jefferson County School District No. R-1", "city": "BROOMFIELD", "ncessch": "080480001921"}, {"name": "Falcon Bluffs Middle School", "lat": 39.5634, "lon": -105.1025, "proficiency": 0.47, "district": "Jefferson County School District No. R-1", "city": "LITTLETON", "ncessch": "080480001970"}, {"name": "Wayne Carle Middle School", "lat": 39.8773, "lon": -105.1122, "proficiency": 0.47, "district": "Jefferson County School District No. R-1", "city": "WESTMINSTER", "ncessch": "080480002036"}, {"name": "McLain Community High School", "lat": 39.715057, "lon": -105.152045, "proficiency": -0.02, "district": "Jefferson County School District No. R-1", "city": "LAKEWOOD", "ncessch": "080480006163"}, {"name": "Connections Learning Center on the Earle Johnson C", "lat": 39.73635, "lon": -105.199218, "proficiency": 0.1, "district": "Jefferson County School District No. R-1", "city": "GOLDEN", "ncessch": "080480006306"}, {"name": "Sobesky Academy", "lat": 39.772987, "lon": -105.075274, "proficiency": 0.245, "district": "Jefferson County School District No. R-1", "city": "LAKEWOOD", "ncessch": "080480006307"}, {"name": "Mountain Phoenix Community School", "lat": 39.783418, "lon": -105.114877, "proficiency": 0.495, "district": "Jefferson County School District No. R-1", "city": "WHEATRIDGE", "ncessch": "080480006311"}, {"name": "Mountview Youth Service Center", "lat": 39.648533, "lon": -105.087669, "proficiency": -0.02, "district": "Jefferson County School District No. R-1", "city": "DENVER", "ncessch": "080480006347"}, {"name": "Jeffco Virtual Academy", "lat": 39.688887, "lon": -105.123999, "proficiency": 0.245, "district": "Jefferson County School District No. R-1", "city": "GOLDEN", "ncessch": "080480006439"}, {"name": "Two Roads Charter School", "lat": 39.823055, "lon": -105.071685, "proficiency": 0.245, "district": "Jefferson County School District No. R-1", "city": "ARVADA", "ncessch": "080480006466"}, {"name": "Arvada K-8", "lat": 39.801, "lon": -105.0892, "proficiency": 0.075, "district": "Jefferson County School District No. R-1", "city": "ARVADA", "ncessch": "080480006489"}, {"name": "Addenbrooke Classical Academy", "lat": 39.649402, "lon": -105.07712, "proficiency": 0.27, "district": "Jefferson County School District No. R-1", "city": "LAKEWOOD", "ncessch": "080480006587"}, {"name": "Doral Academy of Colorado", "lat": 39.861864, "lon": -105.097278, "proficiency": 0.3, "district": "Jefferson County School District No. R-1", "city": "ARVADA", "ncessch": "080480006695"}, {"name": "Milliken Middle School", "lat": 40.3274, "lon": -104.8575, "proficiency": 0.17, "district": "Weld County School District No. Re-5J", "city": "MILLIKEN", "ncessch": "080483000809"}, {"name": "Knowledge Quest Academy", "lat": 40.323723, "lon": -104.836259, "proficiency": 0.245, "district": "Weld County School District No. Re-5J", "city": "MILLIKEN", "ncessch": "080483002029"}, {"name": "Julesburg High School", "lat": 40.9908, "lon": -102.2679, "proficiency": -0.02, "district": "Julesburg School District No. Re1", "city": "JULESBURG", "ncessch": "080486000813"}, {"name": "Karval Junior-Senior High School", "lat": 38.7383, "lon": -103.5348, "proficiency": -0.03, "district": "Karval School District No. Re 23", "city": "KARVAL", "ncessch": "080489000815"}, {"name": "Cardinal Community Academy Charter School", "lat": 40.0455, "lon": -104.4522, "proficiency": 0.495, "district": "Weld County School District RE-3J", "city": "KEENESBURG", "ncessch": "080492001760"}, {"name": "Weld Central Middle School", "lat": 40.072767, "lon": -104.509193, "proficiency": 0.17, "district": "Weld County School District RE-3J", "city": "KEENESBURG", "ncessch": "080492002026"}, {"name": "Platte Valley Middle School", "lat": 40.3909, "lon": -104.5572, "proficiency": 0.32, "district": "Weld County School District No. Re-7", "city": "KERSEY", "ncessch": "080495001697"}, {"name": "Kim Undivided High School", "lat": 37.247002, "lon": -103.353608, "proficiency": -0.03, "district": "Kim Reorganized School District No. 88", "city": "KIM", "ncessch": "080498000823"}, {"name": "Kiowa Middle School", "lat": 39.346902, "lon": -104.46033, "proficiency": 0.1, "district": "School District No. C-2 in the county of Elbert and State of", "city": "KIOWA", "ncessch": "080501001587"}, {"name": "Kit Carson Junior-Senior High School", "lat": 38.767176, "lon": -102.791472, "proficiency": -0.02, "district": "Kit Carson School District No. R-1", "city": "KIT CARSON", "ncessch": "080504000826"}, {"name": "West Grand Elementary and Middle School", "lat": 40.0622, "lon": -106.3862, "proficiency": 0.3, "district": "West Grand School District No. 1", "city": "KREMMLING", "ncessch": "080507000829"}, {"name": "Centauri Middle School", "lat": 37.24909, "lon": -105.969169, "proficiency": 0.32, "district": "North Conejos School District No. Re1J", "city": "LA JARA", "ncessch": "080510000842"}, {"name": "North Conejos Alternative Program", "lat": 37.275109, "lon": -105.956824, "proficiency": -0.03, "district": "North Conejos School District No. Re1J", "city": "LAJARA", "ncessch": "080510006601"}, {"name": "La Junta Jr/Sr High School", "lat": 37.9703, "lon": -103.538214, "proficiency": 0.12, "district": "East Otero School District No. R1", "city": "LA JUNTA", "ncessch": "080513006484"}, {"name": "La Veta Junior-Senior High School", "lat": 37.505, "lon": -105.0083, "proficiency": 0.245, "district": "La Veta School District Re-2", "city": "LA VETA", "ncessch": "080516000854"}, {"name": "Lake County High School", "lat": 39.24395, "lon": -106.304561, "proficiency": 0.27, "district": "Lake County School District No. R-1", "city": "LEADVILLE", "ncessch": "080519000857"}, {"name": "Lamar Middle School", "lat": 38.0835, "lon": -102.6197, "proficiency": 0.32, "district": "Lamar School District No. Re-2", "city": "LAMAR", "ncessch": "080522000861"}, {"name": "Las Animas Junior High School", "lat": 38.071194, "lon": -103.229805, "proficiency": 0.495, "district": "Las Animas School District No. Re-1", "city": "LAS ANIMAS", "ncessch": "080525000867"}, {"name": "Academy of Las Animas Online School", "lat": 38.23479, "lon": -104.625738, "proficiency": 0.025, "district": "Las Animas School District No. Re-1", "city": "PUEBLO", "ncessch": "080525006678"}, {"name": "Limon Junior-Senior High School", "lat": 39.269299, "lon": -103.688063, "proficiency": 0.1, "district": "Limon School District No. Re 4J", "city": "LIMON", "ncessch": "080528000871"}, {"name": "Euclid Middle School", "lat": 39.5978, "lon": -104.9956, "proficiency": 0.52, "district": "Littleton School District No. 6 in the county of Arapahoe", "city": "LITTLETON", "ncessch": "080531000876"}, {"name": "Goddard Middle School", "lat": 39.6157, "lon": -105.0396, "proficiency": 0.62, "district": "Littleton School District No. 6 in the county of Arapahoe", "city": "LITTLETON", "ncessch": "080531000879"}, {"name": "Newton Middle School", "lat": 39.5961, "lon": -104.9403, "proficiency": 0.57, "district": "Littleton School District No. 6 in the county of Arapahoe", "city": "CENTENNIAL", "ncessch": "080531000885"}, {"name": "John Wesley Powell Middle School", "lat": 39.5735, "lon": -104.9779, "proficiency": 0.67, "district": "Littleton School District No. 6 in the county of Arapahoe", "city": "LITTLETON", "ncessch": "080531001351"}, {"name": "Littleton Academy", "lat": 39.5731, "lon": -105.0026, "proficiency": 0.745, "district": "Littleton School District No. 6 in the county of Arapahoe", "city": "LITTLETON", "ncessch": "080531001515"}, {"name": "Littleton Prep Charter School", "lat": 39.619336, "lon": -104.991618, "proficiency": 0.545, "district": "Littleton School District No. 6 in the county of Arapahoe", "city": "LITTLETON", "ncessch": "080531001626"}, {"name": "Lone Star Middle School", "lat": 40.351053, "lon": -102.852216, "proficiency": -0.02, "district": "Lone Star School District No. 101", "city": "OTIS", "ncessch": "080534006376"}, {"name": "Erie Middle School", "lat": 40.0508, "lon": -105.0537, "proficiency": 0.52, "district": "St. Vrain Valley School District No. Re1J", "city": "ERIE", "ncessch": "080537000900"}, {"name": "Thunder Valley PK-8", "lat": 40.0978, "lon": -104.9327, "proficiency": 0.025, "district": "St. Vrain Valley School District No. Re1J", "city": "FREDERICK", "ncessch": "080537000901"}, {"name": "Sunset Middle School", "lat": 40.1442, "lon": -105.1204, "proficiency": 0.27, "district": "St. Vrain Valley School District No. Re1J", "city": "LONGMONT", "ncessch": "080537000908"}, {"name": "Longs Peak Middle School", "lat": 40.1841, "lon": -105.1181, "proficiency": 0.22, "district": "St. Vrain Valley School District No. Re1J", "city": "LONGMONT", "ncessch": "080537000910"}, {"name": "Lyons Middle/Senior High School", "lat": 40.2145, "lon": -105.2645, "proficiency": 0.545, "district": "St. Vrain Valley School District No. Re1J", "city": "LYONS", "ncessch": "080537000912"}, {"name": "Mead Middle School", "lat": 40.2325, "lon": -105.004, "proficiency": 0.67, "district": "St. Vrain Valley School District No. Re1J", "city": "MEAD", "ncessch": "080537000915"}, {"name": "Twin Peaks Charter Academy", "lat": 40.15467, "lon": -105.118601, "proficiency": 0.52, "district": "St. Vrain Valley School District No. Re1J", "city": "LONGMONT", "ncessch": "080537001572"}, {"name": "Coal Ridge Middle School", "lat": 40.155353, "lon": -104.935103, "proficiency": 0.37, "district": "St. Vrain Valley School District No. Re1J", "city": "FIRESTONE", "ncessch": "080537001774"}, {"name": "Altona Middle School", "lat": 40.1446, "lon": -105.1625, "proficiency": 0.72, "district": "St. Vrain Valley School District No. Re1J", "city": "LONGMONT", "ncessch": "080537001886"}, {"name": "Carbon Valley Academy", "lat": 40.1133, "lon": -104.9778, "proficiency": 0.245, "district": "St. Vrain Valley School District No. Re1J", "city": "FREDERICK", "ncessch": "080537001887"}, {"name": "Flagstaff Charter Academy", "lat": 40.140706, "lon": -105.127316, "proficiency": 0.57, "district": "St. Vrain Valley School District No. Re1J", "city": "LONGMONT", "ncessch": "080537001890"}, {"name": "Trail Ridge Middle School", "lat": 40.1772, "lon": -105.0583, "proficiency": 0.27, "district": "St. Vrain Valley School District No. Re1J", "city": "LONGMONT", "ncessch": "080537001891"}, {"name": "Westview Middle School", "lat": 40.1861, "lon": -105.157, "proficiency": 0.57, "district": "St. Vrain Valley School District No. Re1J", "city": "LONGMONT", "ncessch": "080537006198"}, {"name": "Firestone Charter Academy", "lat": 40.1639, "lon": -104.9475, "proficiency": 0.545, "district": "St. Vrain Valley School District No. Re1J", "city": "FIRESTONE", "ncessch": "080537006388"}, {"name": "St. Vrain Community Montessori School", "lat": 40.154863, "lon": -105.109949, "proficiency": -0.03, "district": "St. Vrain Valley School District No. Re1J", "city": "LONGMONT", "ncessch": "080537006430"}, {"name": "Aspen Ridge Preparatory School", "lat": 40.033448, "lon": -105.053894, "proficiency": 0.245, "district": "St. Vrain Valley School District No. Re1J", "city": "ERIE", "ncessch": "080537006530"}, {"name": "Timberline PK-8", "lat": 40.180134, "lon": -105.086677, "proficiency": 0.17, "district": "St. Vrain Valley School District No. Re1J", "city": "LONGMONT", "ncessch": "080537006594"}, {"name": "Soaring Heights PK-8", "lat": 40.050322, "lon": -105.016425, "proficiency": 0.32, "district": "St. Vrain Valley School District No. Re1J", "city": "ERIE", "ncessch": "080537006739"}, {"name": "Conrad Ball Middle School", "lat": 40.4193, "lon": -105.0672, "proficiency": 0.27, "district": "Thompson School District R-2J", "city": "LOVELAND", "ncessch": "080540000925"}, {"name": "Bill Reed Middle School", "lat": 40.3952, "lon": -105.0808, "proficiency": 0.32, "district": "Thompson School District R-2J", "city": "LOVELAND", "ncessch": "080540000929"}, {"name": "Walt Clark Middle School", "lat": 40.3838, "lon": -105.1134, "proficiency": 0.32, "district": "Thompson School District R-2J", "city": "LOVELAND", "ncessch": "080540001286"}, {"name": "Turner Middle School", "lat": 40.3066, "lon": -105.0872, "proficiency": 0.52, "district": "Thompson School District R-2J", "city": "BERTHOUD", "ncessch": "080540001354"}, {"name": "Lucile Erwin Middle School", "lat": 40.4404, "lon": -105.1117, "proficiency": 0.32, "district": "Thompson School District R-2J", "city": "LOVELAND", "ncessch": "080540001655"}, {"name": "New Vision Charter School", "lat": 40.3924, "lon": -105.0423, "proficiency": 0.445, "district": "Thompson School District R-2J", "city": "LOVELAND", "ncessch": "080540002006"}, {"name": "Loveland Classical School", "lat": 40.3793, "lon": -105.13, "proficiency": 0.495, "district": "Thompson School District R-2J", "city": "LOVELAND", "ncessch": "080540006534"}, {"name": "High Plains School", "lat": 40.41559, "lon": -105.019817, "proficiency": 0.345, "district": "Thompson School District R-2J", "city": "LOVELAND", "ncessch": "080540006697"}, {"name": "Manitou Springs Middle School", "lat": 38.8548, "lon": -104.9061, "proficiency": 0.32, "district": "Manitou Springs School District No. 14 in the county of El", "city": "MANITOU SPRINGS", "ncessch": "080549000945"}, {"name": "Manzanola Junior-Senior High School", "lat": 38.104622, "lon": -103.867141, "proficiency": 0.245, "district": "Manzanola Joint District No. 3J of the counties of Otero a", "city": "MANZANOLA", "ncessch": "080552001375"}, {"name": "Mapleton Expeditionary School of the Arts", "lat": 39.857551, "lon": -104.956803, "proficiency": 0.17, "district": "Mapleton School District No. 1 in the county of Adams & St", "city": "THORNTON", "ncessch": "080555001857"}, {"name": "Achieve Academy", "lat": 39.8622, "lon": -104.961, "proficiency": 0.15, "district": "Mapleton School District No. 1 in the county of Adams & St", "city": "THORNTON", "ncessch": "080555002004"}, {"name": "Clayton Partnership School", "lat": 39.85729, "lon": -104.958167, "proficiency": 0.05, "district": "Mapleton School District No. 1 in the county of Adams & St", "city": "THORNTON", "ncessch": "080555002016"}, {"name": "York International", "lat": 39.8653, "lon": -104.9585, "proficiency": 0.17, "district": "Mapleton School District No. 1 in the county of Adams & St", "city": "THORNTON", "ncessch": "080555002017"}, {"name": "Monterey Community School", "lat": 39.8522, "lon": -104.961, "proficiency": 0.345, "district": "Mapleton School District No. 1 in the county of Adams & St", "city": "DENVER", "ncessch": "080555002021"}, {"name": "Meadow Community School", "lat": 39.8608, "lon": -104.9436, "proficiency": 0.05, "district": "Mapleton School District No. 1 in the county of Adams & St", "city": "THORNTON", "ncessch": "080555002031"}, {"name": "Global Intermediate Academy", "lat": 39.831498, "lon": -104.985924, "proficiency": 0.05, "district": "Mapleton School District No. 1 in the county of Adams & St", "city": "DENVER", "ncessch": "080555006672"}, {"name": "McClave Undivided High School", "lat": 38.138504, "lon": -102.849389, "proficiency": 0.495, "district": "McClave School District No. Re-2", "city": "MC CLAVE", "ncessch": "080558000963"}, {"name": "Barone Middle School", "lat": 40.0426, "lon": -107.9023, "proficiency": 0.645, "district": "Meeker School District Re1", "city": "MEEKER", "ncessch": "080561000966"}, {"name": "Merino Junior Senior High School", "lat": 40.4833, "lon": -103.3571, "proficiency": -0.03, "district": "School District No. Re-4 Buffalo", "city": "MERINO", "ncessch": "080564000970"}, {"name": "Miami-Yoder Middle/High School", "lat": 38.828531, "lon": -104.092407, "proficiency": 0.1, "district": "Miami-Yoder Joint District No. 60 of the counties of El Pas", "city": "RUSH", "ncessch": "080567000972"}, {"name": "Moffat Prek-12 School", "lat": 37.998257, "lon": -105.911613, "proficiency": 0.245, "district": "Moffat School District No. 2 in the county of Saguache and", "city": "MOFFAT", "ncessch": "080570000974"}, {"name": "Crestone Charter School", "lat": 37.991222, "lon": -105.696302, "proficiency": -0.03, "district": "Moffat School District No. 2 in the county of Saguache and", "city": "CRESTONE", "ncessch": "080570001511"}, {"name": "Craig Middle School", "lat": 40.5223, "lon": -107.5465, "proficiency": 0.17, "district": "Moffat County School District RE: No. 1", "city": "CRAIG", "ncessch": "080573000977"}, {"name": "Byron Syring Delta Center", "lat": 37.582278, "lon": -106.153724, "proficiency": -0.02, "district": "Monte Vista School District No. C-8", "city": "MONTE VISTA", "ncessch": "080576000984"}, {"name": "Monte Vista Middle School", "lat": 37.57311, "lon": -106.098143, "proficiency": 0.12, "district": "Monte Vista School District No. C-8", "city": "MONTE VISTA", "ncessch": "080576000986"}, {"name": "Monte Vista On-Line Academy", "lat": 37.582278, "lon": -106.153724, "proficiency": -0.03, "district": "Monte Vista School District No. C-8", "city": "MONTE VISTA", "ncessch": "080576001560"}, {"name": "Centennial Middle School", "lat": 38.48, "lon": -107.8632, "proficiency": 0.32, "district": "Montrose County School District Re-1J", "city": "MONTROSE", "ncessch": "080579000987"}, {"name": "Columbine Middle School", "lat": 38.470736, "lon": -107.862483, "proficiency": 0.42, "district": "Montrose County School District Re-1J", "city": "MONTROSE", "ncessch": "080579000989"}, {"name": "Olathe Middle School", "lat": 38.605906, "lon": -107.977055, "proficiency": 0.17, "district": "Montrose County School District Re-1J", "city": "OLATHE", "ncessch": "080579000997"}, {"name": "Peak Virtual Academy", "lat": 38.48507, "lon": -107.879871, "proficiency": 0.495, "district": "Montrose County School District Re-1J", "city": "MONTROSE", "ncessch": "080579006499"}, {"name": "Lewis-Palmer Middle School", "lat": 39.1022, "lon": -104.8607, "proficiency": 0.64, "district": "Lewis-Palmer Consolidated School District No. 38 in the co", "city": "MONUMENT", "ncessch": "080582001002"}, {"name": "Monument Charter Academy Secondary School", "lat": 39.096941, "lon": -104.767865, "proficiency": 0.495, "district": "Lewis-Palmer Consolidated School District No. 38 in the co", "city": "COLORADO SPRINGS", "ncessch": "080582001536"}, {"name": "Paradox Valley Charter School", "lat": 38.3703, "lon": -108.9627, "proficiency": -0.03, "district": "West End School District No. Re-2", "city": "PARADOX", "ncessch": "080585001693"}, {"name": "Nucla Middle School", "lat": 38.271, "lon": -108.5482, "proficiency": 0.1, "district": "West End School District No. Re-2", "city": "NUCLA", "ncessch": "080585006727"}, {"name": "Norwood Public Schools", "lat": 38.132491, "lon": -108.294361, "proficiency": 0.245, "district": "Norwood School District No. R-2J", "city": "NORWOOD", "ncessch": "080588001012"}, {"name": "Soroco Middle School", "lat": 40.273553, "lon": -106.952065, "proficiency": 0.3, "district": "South Routt School District No. Re 3", "city": "OAK CREEK", "ncessch": "080591001013"}, {"name": "Otis Junior-Senior High School", "lat": 40.153821, "lon": -102.967983, "proficiency": 0.245, "district": "Otis School District No. R-3", "city": "OTIS", "ncessch": "080594001017"}, {"name": "Ouray Middle School", "lat": 38.0242, "lon": -107.6691, "proficiency": 0.245, "district": "Ouray School District No. R-1 of  the county of Ouray and", "city": "OURAY", "ncessch": "080597001662"}, {"name": "Revere Junior-Senior High School", "lat": 40.964385, "lon": -102.387026, "proficiency": -0.02, "district": "Revere School District", "city": "OVID", "ncessch": "080600001021"}, {"name": "Peetz Junior-Senior High School", "lat": 40.961721, "lon": -103.117334, "proficiency": -0.03, "district": "School District No. Re-5 Plateau", "city": "PEETZ", "ncessch": "080603001023"}, {"name": "Peyton Junior High School", "lat": 39.0328, "lon": -104.4934, "proficiency": 0.345, "district": "Peyton School District No. 23 in the county of El Paso and", "city": "PEYTON", "ncessch": "080606001399"}, {"name": "Peyton Online Academy", "lat": 39.029102, "lon": -104.484847, "proficiency": -0.03, "district": "Peyton School District No. 23 in the county of El Paso and", "city": "PEYTON", "ncessch": "080606006692"}, {"name": "Pritchett Middle School", "lat": 37.372592, "lon": -102.862237, "proficiency": -0.03, "district": "Pritchett School District No. Re-3", "city": "PRITCHETT", "ncessch": "080609001952"}, {"name": "Goodnight Elementary School", "lat": 38.2552, "lon": -104.6706, "proficiency": 0.445, "district": "Pueblo School District No. 60 in the county of Pueblo and", "city": "PUEBLO", "ncessch": "080612001046"}, {"name": "Risley International Academy of Innovation", "lat": 38.2735, "lon": -104.5874, "proficiency": 0.075, "district": "Pueblo School District No. 60 in the county of Pueblo and", "city": "PUEBLO", "ncessch": "080612001051"}, {"name": "Pueblo Academy of Arts", "lat": 38.2418, "lon": -104.6586, "proficiency": 0.12, "district": "Pueblo School District No. 60 in the county of Pueblo and", "city": "PUEBLO", "ncessch": "080612001055"}, {"name": "Roncalli Stem Academy", "lat": 38.2308, "lon": -104.6677, "proficiency": 0.12, "district": "Pueblo School District No. 60 in the county of Pueblo and", "city": "PUEBLO", "ncessch": "080612001061"}, {"name": "W H Heaton Middle School", "lat": 38.3026, "lon": -104.5879, "proficiency": 0.22, "district": "Pueblo School District No. 60 in the county of Pueblo and", "city": "PUEBLO", "ncessch": "080612001067"}, {"name": "Pueblo Charter School for the Arts & Sciences", "lat": 38.2377, "lon": -104.6395, "proficiency": 0.345, "district": "Pueblo School District No. 60 in the county of Pueblo and", "city": "PUEBLO", "ncessch": "080612001106"}, {"name": "Chavez/Huerta K-12 Preparatory Academy", "lat": 38.284512, "lon": -104.650719, "proficiency": 0.075, "district": "Pueblo School District No. 60 in the county of Pueblo and", "city": "PUEBLO", "ncessch": "080612001730"}, {"name": "Pueblo Youth Service Center", "lat": 38.282, "lon": -104.6266, "proficiency": -0.02, "district": "Pueblo School District No. 60 in the county of Pueblo and", "city": "PUEBLO", "ncessch": "080612006350"}, {"name": "Corwin International Magnet School", "lat": 38.2347, "lon": -104.6298, "proficiency": 0.22, "district": "Pueblo School District No. 60 in the county of Pueblo and", "city": "PUEBLO", "ncessch": "080612006361"}, {"name": "The Connect Charter School", "lat": 38.2732, "lon": -104.6067, "proficiency": 0.87, "district": "Pueblo County School District 70", "city": "PUEBLO", "ncessch": "080615000632"}, {"name": "Beulah Middle School", "lat": 38.0756, "lon": -104.9783, "proficiency": 0.3, "district": "Pueblo County School District 70", "city": "BEULAH", "ncessch": "080615001072"}, {"name": "Craver Middle School", "lat": 37.9576, "lon": -104.8279, "proficiency": 0.15, "district": "Pueblo County School District 70", "city": "COLORADO CITY", "ncessch": "080615001074"}, {"name": "Pleasant View Middle School", "lat": 38.2518, "lon": -104.5494, "proficiency": 0.42, "district": "Pueblo County School District 70", "city": "PUEBLO", "ncessch": "080615001078"}, {"name": "Vineland Middle School", "lat": 38.2435, "lon": -104.4584, "proficiency": 0.27, "district": "Pueblo County School District 70", "city": "PUEBLO", "ncessch": "080615001085"}, {"name": "Liberty Point International School", "lat": 38.3173, "lon": -104.7291, "proficiency": 0.22, "district": "Pueblo County School District 70", "city": "PUEBLO WEST", "ncessch": "080615001357"}, {"name": "Swallows Charter Academy", "lat": 38.322991, "lon": -104.74379, "proficiency": 0.245, "district": "Pueblo County School District 70", "city": "PUEBLO WEST", "ncessch": "080615001559"}, {"name": "Sky View Middle School", "lat": 38.3046, "lon": -104.7802, "proficiency": 0.27, "district": "Pueblo County School District 70", "city": "PUEBLO WEST", "ncessch": "080615001714"}, {"name": "70 Online", "lat": 38.272265, "lon": -104.520621, "proficiency": 0.05, "district": "Pueblo County School District 70", "city": "PUEBLO", "ncessch": "080615006496"}, {"name": "Rangely Junior/Senior High School", "lat": 40.0846, "lon": -108.8018, "proficiency": 0.15, "district": "Rangely School District RE4", "city": "RANGELY", "ncessch": "080618001088"}, {"name": "Ridgway Middle School", "lat": 38.163604, "lon": -107.756574, "proficiency": 0.495, "district": "Ridgway School District No. R-2  of  the county of Ouray a", "city": "RIDGWAY", "ncessch": "080621006166"}, {"name": "Rifle Middle School", "lat": 39.5353, "lon": -107.7848, "proficiency": 0.12, "district": "Garfield School District No. Re-2", "city": "RIFLE", "ncessch": "080624001096"}, {"name": "Riverside School", "lat": 39.582872, "lon": -107.530548, "proficiency": 0.27, "district": "Garfield School District No. Re-2", "city": "NEW CASTLE", "ncessch": "080624001098"}, {"name": "Rocky Ford Junior/Senior High School", "lat": 38.0429, "lon": -103.7346, "proficiency": 0.245, "district": "Rocky Ford School District No. R2", "city": "ROCKY FORD", "ncessch": "080627001103"}, {"name": "Mountain Valley School", "lat": 38.084149, "lon": -106.135597, "proficiency": -0.03, "district": "Mountain Valley School District No. Re 1", "city": "SAGUACHE", "ncessch": "080630001415"}, {"name": "Salida Middle School", "lat": 38.5268, "lon": -105.9942, "proficiency": 0.47, "district": "Salida School District No. R-32", "city": "SALIDA", "ncessch": "080633001107"}, {"name": "Crest Academy", "lat": 38.526455, "lon": -105.984338, "proficiency": -0.03, "district": "Salida School District No. R-32", "city": "SALIDA", "ncessch": "080633006500"}, {"name": "Centennial School", "lat": 37.209144, "lon": -105.423738, "proficiency": 0.245, "district": "Centennial School District No. R-1", "city": "SAN LUIS", "ncessch": "080636001416"}, {"name": "Sanford Junior/Senior High School", "lat": 37.257373, "lon": -105.908956, "proficiency": 0.3, "district": "Sanford School District No. 6 in the county of Conejos and", "city": "SANFORD", "ncessch": "080639001114"}, {"name": "Sangre de Cristo Undivided High School", "lat": 37.678072, "lon": -105.880054, "proficiency": 0.1, "district": "Sangre de Cristo School District No. Re-22J", "city": "MOSCA", "ncessch": "080642001116"}, {"name": "Sargent Junior High School", "lat": 37.676916, "lon": -106.111228, "proficiency": 0.3, "district": "Sargent School District No. Re-33J", "city": "MONTE VISTA", "ncessch": "080645002015"}, {"name": "Janitell Junior High School", "lat": 38.7209, "lon": -104.698, "proficiency": 0.37, "district": "School District No. 3 in the county of El Paso and State of", "city": "FOUNTAIN", "ncessch": "080648001120"}, {"name": "Sproul Junior High School", "lat": 38.7633, "lon": -104.7473, "proficiency": 0.52, "district": "School District No. 3 in the county of El Paso and State of", "city": "COLORADO SPRINGS", "ncessch": "080648001125"}, {"name": "Watson Junior High School", "lat": 38.7379, "lon": -104.723, "proficiency": 0.32, "district": "School District No. 3 in the county of El Paso and State of", "city": "COLORADO SPRINGS", "ncessch": "080648001126"}, {"name": "James Madison Charter Academy School", "lat": 38.724, "lon": -104.7155, "proficiency": 0.75, "district": "School District No. 3 in the county of El Paso and State of", "city": "COLORADO SPRINGS", "ncessch": "080648001885"}, {"name": "Hi-Plains School District R-23", "lat": 39.298344, "lon": -102.862743, "proficiency": 0.245, "district": "Hi-Plains R-23", "city": "SEIBERT", "ncessch": "080651001130"}, {"name": "Fort Logan Northgate", "lat": 39.644751, "lon": -105.033319, "proficiency": 0.12, "district": "Sheridan School District No. 2", "city": "DENVER", "ncessch": "080654001135"}, {"name": "SOAR Academy", "lat": 39.640579, "lon": -105.02668, "proficiency": -0.02, "district": "Sheridan School District No. 2", "city": "ENGLEWOOD", "ncessch": "080654006565"}, {"name": "Silverton Middle School", "lat": 37.812302, "lon": -107.666125, "proficiency": -0.03, "district": "Silverton School District No. 1 in the county of San Juan", "city": "SILVERTON", "ncessch": "080657001985"}, {"name": "Simla Junior High School", "lat": 39.138928, "lon": -104.091082, "proficiency": 0.495, "district": "Big Sandy School District No. 100J", "city": "SIMLA", "ncessch": "080660001140"}, {"name": "Springfield Junior/Senior High School", "lat": 37.409793, "lon": -102.621306, "proficiency": 0.245, "district": "Springfield School District No. Re-4", "city": "SPRINGFIELD", "ncessch": "080663001142"}, {"name": "Steamboat Springs Middle School", "lat": 40.495, "lon": -106.8185, "proficiency": 0.62, "district": "Steamboat Springs School District No. Re 2", "city": "STEAMBOAT SPRINGS", "ncessch": "080666001146"}, {"name": "North Routt Community Charter School", "lat": 40.712751, "lon": -106.918287, "proficiency": 0.75, "district": "Steamboat Springs School District No. Re 2", "city": "CLARK", "ncessch": "080666001749"}, {"name": "Caliche Junior-Senior High School", "lat": 40.8238, "lon": -102.9593, "proficiency": 0.1, "district": "School District No. Re-1 Valley", "city": "ILIFF", "ncessch": "080669001147"}, {"name": "Sterling Middle School", "lat": 40.6388, "lon": -103.2185, "proficiency": 0.42, "district": "School District No. Re-1 Valley", "city": "STERLING", "ncessch": "080669001154"}, {"name": "Prairie Junior-Senior High School", "lat": 40.615742, "lon": -103.802453, "proficiency": 0.245, "district": "School District No. Re-11 in the county of Weld and State of", "city": "NEW RAYMER", "ncessch": "080672001158"}, {"name": "Hemphill Middle School", "lat": 39.746039, "lon": -104.325517, "proficiency": 0.345, "district": "Strasburg School District 31J", "city": "STRASBURG", "ncessch": "080675001160"}, {"name": "Stratton Middle School", "lat": 39.3042, "lon": -102.6007, "proficiency": 0.245, "district": "School District No. R-4 in the county of Kit Carson and Stat", "city": "STRATTON", "ncessch": "080678000138"}, {"name": "Summit Middle School", "lat": 39.583454, "lon": -106.088686, "proficiency": 0.42, "district": "Summit School District No. Re 1", "city": "FRISCO", "ncessch": "080681001400"}, {"name": "Snowy Peaks Junior/Senior High School", "lat": 39.583454, "lon": -106.088686, "proficiency": 0.245, "district": "Summit School District No. Re 1", "city": "FRISCO", "ncessch": "080681006464"}, {"name": "Swink Junior-Senior High School", "lat": 38.010755, "lon": -103.626609, "proficiency": 0.495, "district": "Swink School District No. 33 in the county of Otero and St", "city": "SWINK", "ncessch": "080684001169"}, {"name": "Telluride Middle School", "lat": 37.9417, "lon": -107.8195, "proficiency": 0.545, "district": "Telluride School District No. R-1", "city": "TELLURIDE", "ncessch": "080687001304"}, {"name": "Stargate Charter School", "lat": 39.95981, "lon": -104.977555, "proficiency": 0.77, "district": "Adams 12 Five Star Schools", "city": "THORNTON", "ncessch": "080690000728"}, {"name": "Vantage Point", "lat": 39.894, "lon": -104.9958, "proficiency": 0.05, "district": "Adams 12 Five Star Schools", "city": "NORTHGLENN", "ncessch": "080690001172"}, {"name": "Hulstrom Options K-8 School", "lat": 39.905737, "lon": -104.96563, "proficiency": 0.745, "district": "Adams 12 Five Star Schools", "city": "NORTHGLENN", "ncessch": "080690001178"}, {"name": "Silver Hills Middle School", "lat": 39.922822, "lon": -104.994981, "proficiency": 0.31, "district": "Adams 12 Five Star Schools", "city": "NORTHGLENN", "ncessch": "080690001179"}, {"name": "Thornton Middle School", "lat": 39.8675, "lon": -104.9768, "proficiency": 0.09, "district": "Adams 12 Five Star Schools", "city": "THORNTON", "ncessch": "080690001183"}, {"name": "Shadow Ridge Middle School", "lat": 39.9222, "lon": -104.9236, "proficiency": 0.27, "district": "Adams 12 Five Star Schools", "city": "THORNTON", "ncessch": "080690001186"}, {"name": "Northglenn Middle School", "lat": 39.8965, "lon": -104.9725, "proficiency": 0.27, "district": "Adams 12 Five Star Schools", "city": "NORTHGLENN", "ncessch": "080690001187"}, {"name": "Westlake Middle School", "lat": 39.9416, "lon": -105.0196, "proficiency": 0.53, "district": "Adams 12 Five Star Schools", "city": "BROOMFIELD", "ncessch": "080690001194"}, {"name": "Century Middle School", "lat": 39.9322, "lon": -104.9672, "proficiency": 0.42, "district": "Adams 12 Five Star Schools", "city": "THORNTON", "ncessch": "080690001620"}, {"name": "Rocky Top Middle School", "lat": 39.9518, "lon": -104.9578, "proficiency": 0.55, "district": "Adams 12 Five Star Schools", "city": "THORNTON", "ncessch": "080690001726"}, {"name": "Westgate Community School", "lat": 39.92411, "lon": -104.976621, "proficiency": 0.245, "district": "Adams 12 Five Star Schools", "city": "THORNTON", "ncessch": "080690006417"}, {"name": "STEM Lab", "lat": 39.9084, "lon": -104.9672, "proficiency": 0.745, "district": "Adams 12 Five Star Schools", "city": "NORTHGLENN", "ncessch": "080690006468"}, {"name": "Prospect Ridge Academy", "lat": 39.9943, "lon": -105.0175, "proficiency": 0.57, "district": "Adams 12 Five Star Schools", "city": "BROOMFIELD", "ncessch": "080690006507"}, {"name": "Pathways Future Center", "lat": 39.9208, "lon": -104.9822, "proficiency": -0.03, "district": "Adams 12 Five Star Schools", "city": "THORNTON", "ncessch": "080690006550"}, {"name": "STEM Launch", "lat": 39.8688, "lon": -105.0047, "proficiency": 0.27, "district": "Adams 12 Five Star Schools", "city": "THORNTON", "ncessch": "080690006561"}, {"name": "Thunder Vista P-8", "lat": 39.989246, "lon": -105.032455, "proficiency": 0.645, "district": "Adams 12 Five Star Schools", "city": "BROOMFIELD", "ncessch": "080690006740"}, {"name": "Plainview Junior-Senior High School", "lat": 38.469647, "lon": -102.217383, "proficiency": -0.03, "district": "Kiowa County School District No. Re-2", "city": "SHERIDAN LAKE", "ncessch": "080693001199"}, {"name": "Trinidad Middle School", "lat": 37.170642, "lon": -104.515331, "proficiency": 0.17, "district": "Trinidad School District 1 in the county of Las Animas and", "city": "TRINIDAD", "ncessch": "080696001204"}, {"name": "Vilas Undivided High School", "lat": 37.373651, "lon": -102.449444, "proficiency": -0.03, "district": "Vilas School District Re-5", "city": "VILAS", "ncessch": "080699001207"}, {"name": "North Park School", "lat": 40.732373, "lon": -106.277145, "proficiency": 0.245, "district": "North Park School District R-1", "city": "WALDEN", "ncessch": "080705001209"}, {"name": "Gardner Valley School", "lat": 37.7836, "lon": -105.168, "proficiency": 0.245, "district": "Huerfano School District Re-1", "city": "GARDNER", "ncessch": "080708001211"}, {"name": "Peakview School", "lat": 37.632111, "lon": -104.791787, "proficiency": 0.1, "district": "Huerfano School District Re-1", "city": "WALSENBURG", "ncessch": "080708001845"}, {"name": "Walsh High School", "lat": 37.386464, "lon": -102.283761, "proficiency": 0.75, "district": "Walsh School District No. Re-1", "city": "WALSH", "ncessch": "080711001216"}, {"name": "Weldon Valley Jr/Sr High School", "lat": 40.35009, "lon": -103.967918, "proficiency": 0.245, "district": "School District No. Re-20 Weldon Valley", "city": "WELDONA", "ncessch": "080714001218"}, {"name": "Custer Middle School", "lat": 38.136481, "lon": -105.460783, "proficiency": 0.3, "district": "Custer County School District Consolidate 1", "city": "WESTCLIFFE", "ncessch": "080720001732"}, {"name": "Colorado Sports Leadership Academy", "lat": 39.8244, "lon": -105.0034, "proficiency": 0.025, "district": "Westminster Public Schools", "city": "DENVER", "ncessch": "080723001241"}, {"name": "Shaw Heights Middle School", "lat": 39.8558, "lon": -105.0378, "proficiency": 0.22, "district": "Westminster Public Schools", "city": "WESTMINSTER", "ncessch": "080723001244"}, {"name": "Iver C. Ranum Middle School", "lat": 39.8427, "lon": -105.0166, "proficiency": 0.075, "district": "Westminster Public Schools", "city": "DENVER", "ncessch": "080723006458"}, {"name": "Colorado STEM Academy", "lat": 39.8284, "lon": -105.0319, "proficiency": 0.645, "district": "Westminster Public Schools", "city": "WESTMINSTER", "ncessch": "080723006567"}, {"name": "Westminster Academy for International Studies", "lat": 39.832379, "lon": -105.029295, "proficiency": 0.3, "district": "Westminster Public Schools", "city": "WESTMINSTER", "ncessch": "080723006675"}, {"name": "Primero Junior-Senior High School", "lat": 37.128165, "lon": -104.793057, "proficiency": -0.03, "district": "Primero Reorganized School District No. 2", "city": "WESTON", "ncessch": "080726001255"}, {"name": "Wiggins Middle School", "lat": 40.227085, "lon": -104.07671, "proficiency": 0.15, "district": "School District No. Re-50 Wiggins", "city": "WIGGINS", "ncessch": "080729006394"}, {"name": "Wiley Junior-Senior High School", "lat": 38.1565, "lon": -102.7209, "proficiency": 0.1, "district": "Wiley School District No. Re-13 Jt", "city": "WILEY", "ncessch": "080732001261"}, {"name": "Windsor Middle School", "lat": 40.4805, "lon": -104.9107, "proficiency": 0.37, "district": "Weld County Reorganized School District No. Re-4", "city": "WINDSOR", "ncessch": "080735001265"}, {"name": "Severance Middle School", "lat": 40.496875, "lon": -104.867942, "proficiency": 0.37, "district": "Weld County Reorganized School District No. Re-4", "city": "SEVERANCE", "ncessch": "080735006427"}, {"name": "Windsor Charter Academy Early College High School", "lat": 40.469235, "lon": -104.88786, "proficiency": 0.27, "district": "Weld County Reorganized School District No. Re-4", "city": "WINDSOR", "ncessch": "080735006650"}, {"name": "Woodland Park Middle School", "lat": 39.0086, "lon": -105.0479, "proficiency": 0.37, "district": "Woodland Park School District No. Re-2", "city": "WOODLAND PARK", "ncessch": "080738001268"}, {"name": "Woodlin Undivided High School", "lat": 39.78914, "lon": -103.516796, "proficiency": 0.245, "district": "Woodlin School District No. R-104", "city": "WOODROW", "ncessch": "080741001271"}, {"name": "Southwest Colorado eSchool", "lat": 37.272184, "lon": -107.884379, "proficiency": -0.03, "district": "San Juan boces", "city": "DURANGO", "ncessch": "089930006497"}], "districts": [{"name": "Cheyenne County School District No. Re-5", "lat": 38.822585, "lon": -102.353863, "proficiency": 0.245, "schoolCount": 1}, {"name": "DENVER 1", "lat": 39.6854, "lon": -104.9211, "proficiency": 0.445, "schoolCount": 1}, {"name": "Yuma 1 School District", "lat": 40.121014, "lon": -102.732147, "proficiency": 0.345, "schoolCount": 1}, {"name": "Idalia RJ-3 School District", "lat": 39.705006, "lon": -102.29442, "proficiency": 0.245, "schoolCount": 1}, {"name": "Liberty J-4 School District", "lat": 39.655308, "lon": -102.624259, "proficiency": -0.03, "schoolCount": 1}, {"name": "State Charter School Institute", "lat": 39.3636593, "lon": -105.52555494999999, "proficiency": 0.3435, "schoolCount": 20}, {"name": "Colorado School for the Deaf and Blind", "lat": 38.834865, "lon": -104.806834, "proficiency": 0.245, "schoolCount": 1}, {"name": "EDUCATION REENVISIONED BOCES", "lat": 39.85134, "lon": -105.050971, "proficiency": 0.17, "schoolCount": 1}, {"name": "Division of Youth Services", "lat": 39.659822, "lon": -104.89826533333333, "proficiency": -0.0233, "schoolCount": 3}, {"name": "Colorado River BOCES", "lat": 39.548286, "lon": -107.334392, "proficiency": -0.02, "schoolCount": 1}, {"name": "Academy School District No. 20 in the county of El Paso an", "lat": 38.97517188888889, "lon": -104.78260433333334, "proficiency": 0.5061, "schoolCount": 9}, {"name": "School District N. 14 in the county of Adams & State of Colo", "lat": 39.81835, "lon": -104.92605, "proficiency": 0.17, "schoolCount": 2}, {"name": "Agate School District No. 300", "lat": 39.462633, "lon": -103.941268, "proficiency": -0.03, "schoolCount": 1}, {"name": "Aguilar Reorganized School District No. 6", "lat": 37.406, "lon": -104.6539, "proficiency": 0.245, "schoolCount": 1}, {"name": "Akron School District No. R-1", "lat": 40.164333, "lon": -103.204935, "proficiency": 0.1, "schoolCount": 1}, {"name": "Alamosa School District No. Re-11J", "lat": 37.4762, "lon": -105.8872, "proficiency": 0.27, "schoolCount": 1}, {"name": "South Conejos School District No. Re10", "lat": 37.080075, "lon": -106.016932, "proficiency": 0.245, "schoolCount": 1}, {"name": "Archuleta County School District No. 50 Jt", "lat": 37.2686, "lon": -107.0097, "proficiency": 0.42, "schoolCount": 1}, {"name": "Arickaree School District No. R-2", "lat": 39.7453, "lon": -103.0298, "proficiency": 0.245, "schoolCount": 1}, {"name": "Arriba-Flagler Consolidated School District No. 20", "lat": 39.29313, "lon": -103.071645, "proficiency": 0.245, "schoolCount": 1}, {"name": "Aspen School District No. 1 in the county of Pitkin and Sta", "lat": 39.23423150000001, "lon": -106.859508, "proficiency": 0.61, "schoolCount": 2}, {"name": "Weld County School District No. Re-9", "lat": 40.581336, "lon": -104.736959, "proficiency": 0.245, "schoolCount": 1}, {"name": "Aurora Joint District No. 28 of the counties of Adams and A", "lat": 39.71175319047619, "lon": -104.80942285714285, "proficiency": 0.2495, "schoolCount": 21}, {"name": "Platte Canyon School District No. 1 of  the county of Park", "lat": 39.42134, "lon": -105.53665, "proficiency": 0.57, "schoolCount": 1}, {"name": "Bayfield School District No. 10Jt-R", "lat": 37.2407, "lon": -107.5926, "proficiency": 0.17, "schoolCount": 1}, {"name": "Bennett School District No. 29J", "lat": 39.759085, "lon": -104.424565, "proficiency": 0.22, "schoolCount": 1}, {"name": "Bethune School District No. R- 5", "lat": 39.306226, "lon": -102.426175, "proficiency": 0.245, "schoolCount": 1}, {"name": "Boulder Valley School District No. Re2", "lat": 39.98483488888889, "lon": -105.18620666666668, "proficiency": 0.4556, "schoolCount": 18}, {"name": "Branson Reorganized School District No. 82", "lat": 37.019067, "lon": -103.882854, "proficiency": 0.295, "schoolCount": 2}, {"name": "School District No. Re-10 in the county of Weld and State o", "lat": 40.6335, "lon": -104.3244, "proficiency": -0.03, "schoolCount": 1}, {"name": "School District 27J", "lat": 39.94771663636364, "lon": -104.80544090909092, "proficiency": 0.2186, "schoolCount": 11}, {"name": "School District No. Re-2 Brush", "lat": 40.259599, "lon": -103.637663, "proficiency": 0.22, "schoolCount": 1}, {"name": "Buena Vista School District No. R-31", "lat": 38.8403725, "lon": -106.12629849999999, "proficiency": 0.2, "schoolCount": 2}, {"name": "Burlington Public School District No. RE-6J", "lat": 39.3019, "lon": -102.2837, "proficiency": 0.1, "schoolCount": 1}, {"name": "Byers School District No. 32J", "lat": 39.711768, "lon": -104.9052875, "proficiency": 0.1762, "schoolCount": 4}, {"name": "Campo School District No. Re-6", "lat": 37.10466, "lon": -102.57623, "proficiency": -0.03, "schoolCount": 1}, {"name": "Fremont Re-1", "lat": 38.4610885, "lon": -105.22124375, "proficiency": 0.37, "schoolCount": 4}, {"name": "Center Consolidated School District No. 26 Jt. of the count", "lat": 37.751336, "lon": -106.114091, "proficiency": 0.345, "schoolCount": 1}, {"name": "Cheraw School District No. 31 in the county of Otero and S", "lat": 38.109739, "lon": -103.509745, "proficiency": 0.3, "schoolCount": 1}, {"name": "Cherry Creek School District No. 5 in the county of Arapah", "lat": 39.621823133333336, "lon": -104.79839053333333, "proficiency": 0.413, "schoolCount": 15}, {"name": "Cheyenne Mountain School District No. 12 in the county of E", "lat": 38.7995, "lon": -104.8495, "proficiency": 0.67, "schoolCount": 1}, {"name": "Clear Creek School District No. Re-1", "lat": 39.715839, "lon": -105.403852, "proficiency": 0.245, "schoolCount": 1}, {"name": "Plateau Valley School District No. 50 in the county of Mesa", "lat": 39.233568, "lon": -107.996509, "proficiency": 0.3, "schoolCount": 1}, {"name": "Colorado Springs School District No. 11 in the county of E", "lat": 38.866371538461536, "lon": -104.79629007692309, "proficiency": 0.2312, "schoolCount": 13}, {"name": "Montezuma-Cortez School District No. Re-1", "lat": 37.3511735, "lon": -108.5825625, "proficiency": 0.095, "schoolCount": 2}, {"name": "Fremont Re-3", "lat": 38.375586, "lon": -105.690192, "proficiency": 0.3, "schoolCount": 1}, {"name": "Creede School District", "lat": 37.825682, "lon": -106.924624, "proficiency": -0.03, "schoolCount": 1}, {"name": "Cripple Creek-Victor School District No. Re-1", "lat": 38.750792, "lon": -105.183947, "proficiency": 0.1, "schoolCount": 1}, {"name": "Crowley County School District No. Re-1-J", "lat": 38.2223, "lon": -103.7574, "proficiency": 0.05, "schoolCount": 1}, {"name": "De Beque Joint District No. 49 of the counties of Mesa and", "lat": 39.336031, "lon": -108.212758, "proficiency": 0.245, "schoolCount": 1}, {"name": "Deer Trail School District No. 26J", "lat": 39.608493, "lon": -104.040952, "proficiency": 0.245, "schoolCount": 1}, {"name": "Upper Rio Grande School District C-7", "lat": 37.673601, "lon": -106.34569, "proficiency": 0.245, "schoolCount": 1}, {"name": "Delta County Joint District No. 50", "lat": 38.773168, "lon": -107.9816565, "proficiency": 0.1958, "schoolCount": 6}, {"name": "School District No. 1 in the county of Denver and State of C", "lat": 39.734665540983606, "lon": -104.93182736065573, "proficiency": 0.2875, "schoolCount": 61}, {"name": "Dolores School District No. Re-4A", "lat": 37.476195, "lon": -108.493537, "proficiency": 0.17, "schoolCount": 1}, {"name": "Dolores County School District RE-2J", "lat": 37.767571, "lon": -108.903406, "proficiency": 0.245, "schoolCount": 1}, {"name": "Douglas County School District No. Re 1", "lat": 39.493136461538455, "lon": -104.8659371923077, "proficiency": 0.4829, "schoolCount": 26}, {"name": "Durango School District No. 9-R", "lat": 37.264473333333335, "lon": -107.87838366666666, "proficiency": 0.33, "schoolCount": 3}, {"name": "Kiowa County School District No. Re-1", "lat": 38.483499, "lon": -102.782102, "proficiency": 0.75, "schoolCount": 1}, {"name": "Eagle County School District No. Re 50", "lat": 39.62874357142857, "lon": -106.66227228571428, "proficiency": 0.3143, "schoolCount": 7}, {"name": "Weld County School District No. Re-2", "lat": 40.526798, "lon": -104.71891, "proficiency": 0.27, "schoolCount": 1}, {"name": "Edison Joint District No. 54 of the counties of El Paso and", "lat": 38.619599, "lon": -104.165516, "proficiency": 0.75, "schoolCount": 1}, {"name": "Elbert School District No. 200", "lat": 39.224761, "lon": -104.538228, "proficiency": 0.245, "schoolCount": 1}, {"name": "ELIZABETH SCHOOL DISTRICT", "lat": 39.362577, "lon": -104.618886, "proficiency": 0.31, "schoolCount": 2}, {"name": "Ellicott School District No. 22 in the county of El Paso a", "lat": 38.8248, "lon": -104.3875, "proficiency": 0.22, "schoolCount": 1}, {"name": "Englewood School District No. 1 in the county of Arapahoe", "lat": 39.647052, "lon": -104.981934, "proficiency": 0.4625, "schoolCount": 2}, {"name": "Estes Park School District R-3", "lat": 40.35356, "lon": -105.53156949999999, "proficiency": 0.125, "schoolCount": 2}, {"name": "Park County School District No. Re-2", "lat": 38.983108333333334, "lon": -105.62481366666667, "proficiency": 0.065, "schoolCount": 3}, {"name": "El Paso County Colorado School District 49", "lat": 38.9237377, "lon": -104.6699638, "proficiency": 0.398, "schoolCount": 10}, {"name": "School District No. Re-3 Frenchman", "lat": 40.684921, "lon": -102.841982, "proficiency": 0.495, "schoolCount": 1}, {"name": "Poudre School District R-1", "lat": 40.5715516875, "lon": -105.0721026875, "proficiency": 0.5181, "schoolCount": 16}, {"name": "Weld re-8 schools", "lat": 40.0676175, "lon": -104.8882695, "proficiency": 0.4575, "schoolCount": 2}, {"name": "School District No. Re-3 Fort Morgan", "lat": 40.238437, "lon": -103.809234, "proficiency": 0.37, "schoolCount": 1}, {"name": "Fountain School District No. 8 in the county of El Paso an", "lat": 38.70382, "lon": -104.737815, "proficiency": 0.21, "schoolCount": 3}, {"name": "Fowler School District No. R4J", "lat": 38.127589, "lon": -104.030107, "proficiency": 0.3, "schoolCount": 1}, {"name": "Sierra Grande School District No. R-30", "lat": 37.431201, "lon": -105.456399, "proficiency": 0.3, "schoolCount": 1}, {"name": "Weld County Reorganized School District No. Re-1", "lat": 40.248413, "lon": -104.801407, "proficiency": 0.37, "schoolCount": 2}, {"name": "Gilpin County School District No. Re-1", "lat": 39.833334, "lon": -105.520283, "proficiency": 0.445, "schoolCount": 1}, {"name": "Roaring Fork School District No. Re-1", "lat": 39.4436644, "lon": -107.2236846, "proficiency": 0.321, "schoolCount": 5}, {"name": "Granada School District No. Re-1", "lat": 38.059709, "lon": -102.305506, "proficiency": 0.3, "schoolCount": 1}, {"name": "East Grand School District No. 2", "lat": 40.092, "lon": -105.9472, "proficiency": 0.37, "schoolCount": 1}, {"name": "Mesa County Valley School District No. 51", "lat": 39.058952, "lon": -108.58258149999999, "proficiency": 0.2396, "schoolCount": 14}, {"name": "Grand Valley School District No. 16 in the county of Garfi", "lat": 39.444718, "lon": -108.018061, "proficiency": 0.3, "schoolCount": 1}, {"name": "GreeleySchool District No. 6 in the county of Weld and Sta", "lat": 40.40903853333334, "lon": -104.73317386666668, "proficiency": 0.273, "schoolCount": 15}, {"name": "School District No. Re-12 in the county of Weld and State of", "lat": 40.8682, "lon": -104.2308, "proficiency": -0.03, "schoolCount": 1}, {"name": "Gunnison Watershed School District Re1J", "lat": 38.830158000000004, "lon": -107.03539466666666, "proficiency": 0.22, "schoolCount": 3}, {"name": "Hanover School District No. 28 in the county of El Paso an", "lat": 38.5844, "lon": -104.4624, "proficiency": 0.1, "schoolCount": 1}, {"name": "Harrison School District No. 2 in the county of El Paso an", "lat": 38.802510166666664, "lon": -104.76158916666667, "proficiency": 0.3208, "schoolCount": 6}, {"name": "Haxtun School District No. Re-2J", "lat": 40.6477, "lon": -102.6292, "proficiency": 0.245, "schoolCount": 1}, {"name": "Hayden School District No. Re 1", "lat": 40.4935, "lon": -107.2613, "proficiency": 0.3, "schoolCount": 1}, {"name": "Hinsdale County School District No. Re-1", "lat": 38.033214, "lon": -107.314641, "proficiency": -0.03, "schoolCount": 1}, {"name": "Hoehne Reorganized School District No. 3", "lat": 37.279113, "lon": -104.378906, "proficiency": 0.15, "schoolCount": 1}, {"name": "Holyoke School District No. Re-1J", "lat": 40.5821095, "lon": -102.296728, "proficiency": 0.1125, "schoolCount": 2}, {"name": "Genoa-Hugo School District No. C-113", "lat": 39.1388, "lon": -103.4773, "proficiency": 0.245, "schoolCount": 1}, {"name": "Ignacio School District No. 11Jt", "lat": 37.116392, "lon": -107.640146, "proficiency": 0.15, "schoolCount": 1}, {"name": "Jefferson County School District No. R-1", "lat": 39.72945026086957, "lon": -105.13347043478261, "proficiency": 0.3338, "schoolCount": 46}, {"name": "Weld County School District No. Re-5J", "lat": 40.3255615, "lon": -104.8468795, "proficiency": 0.2075, "schoolCount": 2}, {"name": "Julesburg School District No. Re1", "lat": 40.9908, "lon": -102.2679, "proficiency": -0.02, "schoolCount": 1}, {"name": "Karval School District No. Re 23", "lat": 38.7383, "lon": -103.5348, "proficiency": -0.03, "schoolCount": 1}, {"name": "Weld County School District RE-3J", "lat": 40.0591335, "lon": -104.4806965, "proficiency": 0.3325, "schoolCount": 2}, {"name": "Weld County School District No. Re-7", "lat": 40.3909, "lon": -104.5572, "proficiency": 0.32, "schoolCount": 1}, {"name": "Kim Reorganized School District No. 88", "lat": 37.247002, "lon": -103.353608, "proficiency": -0.03, "schoolCount": 1}, {"name": "School District No. C-2 in the county of Elbert and State of", "lat": 39.346902, "lon": -104.46033, "proficiency": 0.1, "schoolCount": 1}, {"name": "Kit Carson School District No. R-1", "lat": 38.767176, "lon": -102.791472, "proficiency": -0.02, "schoolCount": 1}, {"name": "West Grand School District No. 1", "lat": 40.0622, "lon": -106.3862, "proficiency": 0.3, "schoolCount": 1}, {"name": "North Conejos School District No. Re1J", "lat": 37.262099500000005, "lon": -105.9629965, "proficiency": 0.145, "schoolCount": 2}, {"name": "East Otero School District No. R1", "lat": 37.9703, "lon": -103.538214, "proficiency": 0.12, "schoolCount": 1}, {"name": "La Veta School District Re-2", "lat": 37.505, "lon": -105.0083, "proficiency": 0.245, "schoolCount": 1}, {"name": "Lake County School District No. R-1", "lat": 39.24395, "lon": -106.304561, "proficiency": 0.27, "schoolCount": 1}, {"name": "Lamar School District No. Re-2", "lat": 38.0835, "lon": -102.6197, "proficiency": 0.32, "schoolCount": 1}, {"name": "Las Animas School District No. Re-1", "lat": 38.152992, "lon": -103.9277715, "proficiency": 0.26, "schoolCount": 2}, {"name": "Limon School District No. Re 4J", "lat": 39.269299, "lon": -103.688063, "proficiency": 0.1, "schoolCount": 1}, {"name": "Littleton School District No. 6 in the county of Arapahoe", "lat": 39.59592266666667, "lon": -104.99126966666667, "proficiency": 0.6117, "schoolCount": 6}, {"name": "Lone Star School District No. 101", "lat": 40.351053, "lon": -102.852216, "proficiency": -0.02, "schoolCount": 1}, {"name": "St. Vrain Valley School District No. Re1J", "lat": 40.143249777777775, "lon": -105.06913694444444, "proficiency": 0.3758, "schoolCount": 18}, {"name": "Thompson School District R-2J", "lat": 40.39157375, "lon": -105.081552125, "proficiency": 0.3794, "schoolCount": 8}, {"name": "Manitou Springs School District No. 14 in the county of El", "lat": 38.8548, "lon": -104.9061, "proficiency": 0.32, "schoolCount": 1}, {"name": "Manzanola Joint District No. 3J of the counties of Otero a", "lat": 38.104622, "lon": -103.867141, "proficiency": 0.245, "schoolCount": 1}, {"name": "Mapleton School District No. 1 in the county of Adams & St", "lat": 39.85526271428572, "lon": -104.96071342857144, "proficiency": 0.1407, "schoolCount": 7}, {"name": "McClave School District No. Re-2", "lat": 38.138504, "lon": -102.849389, "proficiency": 0.495, "schoolCount": 1}, {"name": "Meeker School District Re1", "lat": 40.0426, "lon": -107.9023, "proficiency": 0.645, "schoolCount": 1}, {"name": "School District No. Re-4 Buffalo", "lat": 40.4833, "lon": -103.3571, "proficiency": -0.03, "schoolCount": 1}, {"name": "Miami-Yoder Joint District No. 60 of the counties of El Pas", "lat": 38.828531, "lon": -104.092407, "proficiency": 0.1, "schoolCount": 1}, {"name": "Moffat School District No. 2 in the county of Saguache and", "lat": 37.9947395, "lon": -105.8039575, "proficiency": 0.1075, "schoolCount": 2}, {"name": "Moffat County School District RE: No. 1", "lat": 40.5223, "lon": -107.5465, "proficiency": 0.17, "schoolCount": 1}, {"name": "Monte Vista School District No. C-8", "lat": 37.579222, "lon": -106.13519699999999, "proficiency": 0.0233, "schoolCount": 3}, {"name": "Montrose County School District Re-1J", "lat": 38.510428, "lon": -107.89565225, "proficiency": 0.3513, "schoolCount": 4}, {"name": "Lewis-Palmer Consolidated School District No. 38 in the co", "lat": 39.0995705, "lon": -104.81428249999999, "proficiency": 0.5675, "schoolCount": 2}, {"name": "West End School District No. Re-2", "lat": 38.32065, "lon": -108.75545, "proficiency": 0.035, "schoolCount": 2}, {"name": "Norwood School District No. R-2J", "lat": 38.132491, "lon": -108.294361, "proficiency": 0.245, "schoolCount": 1}, {"name": "South Routt School District No. Re 3", "lat": 40.273553, "lon": -106.952065, "proficiency": 0.3, "schoolCount": 1}, {"name": "Otis School District No. R-3", "lat": 40.153821, "lon": -102.967983, "proficiency": 0.245, "schoolCount": 1}, {"name": "Ouray School District No. R-1 of  the county of Ouray and", "lat": 38.0242, "lon": -107.6691, "proficiency": 0.245, "schoolCount": 1}, {"name": "Revere School District", "lat": 40.964385, "lon": -102.387026, "proficiency": -0.02, "schoolCount": 1}, {"name": "School District No. Re-5 Plateau", "lat": 40.961721, "lon": -103.117334, "proficiency": -0.03, "schoolCount": 1}, {"name": "Peyton School District No. 23 in the county of El Paso and", "lat": 39.030951, "lon": -104.4891235, "proficiency": 0.1575, "schoolCount": 2}, {"name": "Pritchett School District No. Re-3", "lat": 37.372592, "lon": -102.862237, "proficiency": -0.03, "schoolCount": 1}, {"name": "Pueblo School District No. 60 in the county of Pueblo and", "lat": 38.260312444444445, "lon": -104.63542433333333, "proficiency": 0.1778, "schoolCount": 9}, {"name": "Pueblo County School District 70", "lat": 38.22431733333334, "lon": -104.6882678888889, "proficiency": 0.3106, "schoolCount": 9}, {"name": "Rangely School District RE4", "lat": 40.0846, "lon": -108.8018, "proficiency": 0.15, "schoolCount": 1}, {"name": "Ridgway School District No. R-2  of  the county of Ouray a", "lat": 38.163604, "lon": -107.756574, "proficiency": 0.495, "schoolCount": 1}, {"name": "Garfield School District No. Re-2", "lat": 39.559086, "lon": -107.657674, "proficiency": 0.195, "schoolCount": 2}, {"name": "Rocky Ford School District No. R2", "lat": 38.0429, "lon": -103.7346, "proficiency": 0.245, "schoolCount": 1}, {"name": "Mountain Valley School District No. Re 1", "lat": 38.084149, "lon": -106.135597, "proficiency": -0.03, "schoolCount": 1}, {"name": "Salida School District No. R-32", "lat": 38.526627500000004, "lon": -105.98926900000001, "proficiency": 0.22, "schoolCount": 2}, {"name": "Centennial School District No. R-1", "lat": 37.209144, "lon": -105.423738, "proficiency": 0.245, "schoolCount": 1}, {"name": "Sanford School District No. 6 in the county of Conejos and", "lat": 37.257373, "lon": -105.908956, "proficiency": 0.3, "schoolCount": 1}, {"name": "Sangre de Cristo School District No. Re-22J", "lat": 37.678072, "lon": -105.880054, "proficiency": 0.1, "schoolCount": 1}, {"name": "Sargent School District No. Re-33J", "lat": 37.676916, "lon": -106.111228, "proficiency": 0.3, "schoolCount": 1}, {"name": "School District No. 3 in the county of El Paso and State of", "lat": 38.736525, "lon": -104.72095, "proficiency": 0.49, "schoolCount": 4}, {"name": "Hi-Plains R-23", "lat": 39.298344, "lon": -102.862743, "proficiency": 0.245, "schoolCount": 1}, {"name": "Sheridan School District No. 2", "lat": 39.642665, "lon": -105.0299995, "proficiency": 0.05, "schoolCount": 2}, {"name": "Silverton School District No. 1 in the county of San Juan", "lat": 37.812302, "lon": -107.666125, "proficiency": -0.03, "schoolCount": 1}, {"name": "Big Sandy School District No. 100J", "lat": 39.138928, "lon": -104.091082, "proficiency": 0.495, "schoolCount": 1}, {"name": "Springfield School District No. Re-4", "lat": 37.409793, "lon": -102.621306, "proficiency": 0.245, "schoolCount": 1}, {"name": "Steamboat Springs School District No. Re 2", "lat": 40.6038755, "lon": -106.8683935, "proficiency": 0.685, "schoolCount": 2}, {"name": "School District No. Re-1 Valley", "lat": 40.731300000000005, "lon": -103.0889, "proficiency": 0.26, "schoolCount": 2}, {"name": "School District No. Re-11 in the county of Weld and State of", "lat": 40.615742, "lon": -103.802453, "proficiency": 0.245, "schoolCount": 1}, {"name": "Strasburg School District 31J", "lat": 39.746039, "lon": -104.325517, "proficiency": 0.345, "schoolCount": 1}, {"name": "School District No. R-4 in the county of Kit Carson and Stat", "lat": 39.3042, "lon": -102.6007, "proficiency": 0.245, "schoolCount": 1}, {"name": "Summit School District No. Re 1", "lat": 39.583454, "lon": -106.088686, "proficiency": 0.3325, "schoolCount": 2}, {"name": "Swink School District No. 33 in the county of Otero and St", "lat": 38.010755, "lon": -103.626609, "proficiency": 0.495, "schoolCount": 1}, {"name": "Telluride School District No. R-1", "lat": 37.9417, "lon": -107.8195, "proficiency": 0.545, "schoolCount": 1}, {"name": "Adams 12 Five Star Schools", "lat": 39.9249890625, "lon": -104.983258875, "proficiency": 0.4031, "schoolCount": 16}, {"name": "Kiowa County School District No. Re-2", "lat": 38.469647, "lon": -102.217383, "proficiency": -0.03, "schoolCount": 1}, {"name": "Trinidad School District 1 in the county of Las Animas and", "lat": 37.170642, "lon": -104.515331, "proficiency": 0.17, "schoolCount": 1}, {"name": "Vilas School District Re-5", "lat": 37.373651, "lon": -102.449444, "proficiency": -0.03, "schoolCount": 1}, {"name": "North Park School District R-1", "lat": 40.732373, "lon": -106.277145, "proficiency": 0.245, "schoolCount": 1}, {"name": "Huerfano School District Re-1", "lat": 37.7078555, "lon": -104.9798935, "proficiency": 0.1725, "schoolCount": 2}, {"name": "Walsh School District No. Re-1", "lat": 37.386464, "lon": -102.283761, "proficiency": 0.75, "schoolCount": 1}, {"name": "School District No. Re-20 Weldon Valley", "lat": 40.35009, "lon": -103.967918, "proficiency": 0.245, "schoolCount": 1}, {"name": "Custer County School District Consolidate 1", "lat": 38.136481, "lon": -105.460783, "proficiency": 0.3, "schoolCount": 1}, {"name": "Westminster Public Schools", "lat": 39.8367358, "lon": -105.02379900000001, "proficiency": 0.253, "schoolCount": 5}, {"name": "Primero Reorganized School District No. 2", "lat": 37.128165, "lon": -104.793057, "proficiency": -0.03, "schoolCount": 1}, {"name": "School District No. Re-50 Wiggins", "lat": 40.227085, "lon": -104.07671, "proficiency": 0.15, "schoolCount": 1}, {"name": "Wiley School District No. Re-13 Jt", "lat": 38.1565, "lon": -102.7209, "proficiency": 0.1, "schoolCount": 1}, {"name": "Weld County Reorganized School District No. Re-4", "lat": 40.48220333333333, "lon": -104.88883400000002, "proficiency": 0.3367, "schoolCount": 3}, {"name": "Woodland Park School District No. Re-2", "lat": 39.0086, "lon": -105.0479, "proficiency": 0.37, "schoolCount": 1}, {"name": "Woodlin School District No. R-104", "lat": 39.78914, "lon": -103.516796, "proficiency": 0.245, "schoolCount": 1}, {"name": "San Juan boces", "lat": 37.272184, "lon": -107.884379, "proficiency": -0.03, "schoolCount": 1}], "cities": [{"name": "CHEYENNE WELLS", "lat": 38.822585, "lon": -102.353863, "proficiency": 0.245, "schoolCount": 1}, {"name": "DENVER", "lat": 39.7372966056338, "lon": -104.9449873943662, "proficiency": 0.2877, "schoolCount": 71}, {"name": "YUMA", "lat": 40.121014, "lon": -102.732147, "proficiency": 0.345, "schoolCount": 1}, {"name": "IDALIA", "lat": 39.705006, "lon": -102.29442, "proficiency": 0.245, "schoolCount": 1}, {"name": "JOES", "lat": 39.655308, "lon": -102.624259, "proficiency": -0.03, "schoolCount": 1}, {"name": "WESTMINSTER", "lat": 39.860891, "lon": -105.05400133333333, "proficiency": 0.4094, "schoolCount": 9}, {"name": "COLORADO SPRINGS", "lat": 38.8708789375, "lon": -104.7625320625, "proficiency": 0.3467, "schoolCount": 48}, {"name": "CARBONDALE", "lat": 39.40014, "lon": -107.21491099999999, "proficiency": 0.32, "schoolCount": 3}, {"name": "FEDERAL HEIGHTS", "lat": 39.850399, "lon": -104.9986, "proficiency": 0.32, "schoolCount": 1}, {"name": "EDWARDS", "lat": 39.64320433333333, "lon": -106.67674699999999, "proficiency": 0.3883, "schoolCount": 3}, {"name": "AURORA", "lat": 39.6879896, "lon": -104.7880411, "proficiency": 0.2807, "schoolCount": 30}, {"name": "GRAND JUNCTION", "lat": 39.08386166666667, "lon": -108.55518516666666, "proficiency": 0.2637, "schoolCount": 12}, {"name": "ARVADA", "lat": 39.8274182, "lon": -105.0979896, "proficiency": 0.309, "schoolCount": 10}, {"name": "DURANGO", "lat": 37.273071, "lon": -107.874757, "proficiency": 0.3138, "schoolCount": 4}, {"name": "THORNTON", "lat": 39.89953313333333, "lon": -104.96161073333333, "proficiency": 0.2527, "schoolCount": 15}, {"name": "FORT COLLINS", "lat": 40.55567646666667, "lon": -105.0701306, "proficiency": 0.5213, "schoolCount": 15}, {"name": "COMMERCE CITY", "lat": 39.8415334, "lon": -104.8703984, "proficiency": 0.255, "schoolCount": 5}, {"name": "GOLDEN", "lat": 39.7433043, "lon": -105.1898312, "proficiency": 0.285, "schoolCount": 10}, {"name": "SALIDA", "lat": 38.52781433333333, "lon": -105.99395266666666, "proficiency": 0.3967, "schoolCount": 3}, {"name": "GREELEY", "lat": 40.416461500000004, "lon": -104.72974192857143, "proficiency": 0.2304, "schoolCount": 14}, {"name": "GLENWOOD SPRINGS", "lat": 39.53201466666667, "lon": -107.33043266666665, "proficiency": 0.15, "schoolCount": 3}, {"name": "AGATE", "lat": 39.462633, "lon": -103.941268, "proficiency": -0.03, "schoolCount": 1}, {"name": "AGUILAR", "lat": 37.406, "lon": -104.6539, "proficiency": 0.245, "schoolCount": 1}, {"name": "AKRON", "lat": 40.164333, "lon": -103.204935, "proficiency": 0.1, "schoolCount": 1}, {"name": "ALAMOSA", "lat": 37.4762, "lon": -105.8872, "proficiency": 0.27, "schoolCount": 1}, {"name": "ANTONITO", "lat": 37.080075, "lon": -106.016932, "proficiency": 0.245, "schoolCount": 1}, {"name": "PAGOSA SPRINGS", "lat": 37.2686, "lon": -107.0097, "proficiency": 0.42, "schoolCount": 1}, {"name": "ANTON", "lat": 39.7453, "lon": -103.0298, "proficiency": 0.245, "schoolCount": 1}, {"name": "FLAGLER", "lat": 39.29313, "lon": -103.071645, "proficiency": 0.245, "schoolCount": 1}, {"name": "ASPEN", "lat": 39.191433, "lon": -106.847964, "proficiency": 0.47, "schoolCount": 1}, {"name": "WOODY CREEK", "lat": 39.27703, "lon": -106.871052, "proficiency": 0.75, "schoolCount": 1}, {"name": "AULT", "lat": 40.581336, "lon": -104.736959, "proficiency": 0.245, "schoolCount": 1}, {"name": "BAILEY", "lat": 39.42134, "lon": -105.53665, "proficiency": 0.57, "schoolCount": 1}, {"name": "BAYFIELD", "lat": 37.2407, "lon": -107.5926, "proficiency": 0.17, "schoolCount": 1}, {"name": "BENNETT", "lat": 39.759085, "lon": -104.424565, "proficiency": 0.22, "schoolCount": 1}, {"name": "BETHUNE", "lat": 39.306226, "lon": -102.426175, "proficiency": 0.245, "schoolCount": 1}, {"name": "BROOMFIELD", "lat": 39.95170733333334, "lon": -105.04657266666668, "proficiency": 0.5342, "schoolCount": 6}, {"name": "BOULDER", "lat": 40.003739125, "lon": -105.238454, "proficiency": 0.4919, "schoolCount": 8}, {"name": "LAFAYETTE", "lat": 39.989666666666665, "lon": -105.0877, "proficiency": 0.34, "schoolCount": 3}, {"name": "LOUISVILLE", "lat": 39.968, "lon": -105.1383, "proficiency": 0.545, "schoolCount": 2}, {"name": "NEDERLAND", "lat": 39.9528, "lon": -105.5251, "proficiency": 0.495, "schoolCount": 1}, {"name": "SUPERIOR", "lat": 39.9214, "lon": -105.1613, "proficiency": 0.62, "schoolCount": 1}, {"name": "ERIE", "lat": 40.04199625, "lon": -105.05185175, "proficiency": 0.3463, "schoolCount": 4}, {"name": "BRANSON", "lat": 37.019067, "lon": -103.882854, "proficiency": 0.295, "schoolCount": 2}, {"name": "BRIGGSDALE", "lat": 40.6335, "lon": -104.3244, "proficiency": -0.03, "schoolCount": 1}, {"name": "BRIGHTON", "lat": 39.98435716666667, "lon": -104.77755616666667, "proficiency": 0.1717, "schoolCount": 6}, {"name": "HENDERSON", "lat": 39.90342, "lon": -104.85675, "proficiency": 0.2575, "schoolCount": 2}, {"name": "BRUSH", "lat": 40.259599, "lon": -103.637663, "proficiency": 0.22, "schoolCount": 1}, {"name": "BUENA VISTA", "lat": 38.8403725, "lon": -106.12629849999999, "proficiency": 0.2, "schoolCount": 2}, {"name": "BURLINGTON", "lat": 39.3019, "lon": -102.2837, "proficiency": 0.1, "schoolCount": 1}, {"name": "BYERS", "lat": 39.707721, "lon": -104.217401, "proficiency": 0.245, "schoolCount": 1}, {"name": "LAKEWOOD", "lat": 39.70498130769231, "lon": -105.1110176923077, "proficiency": 0.2169, "schoolCount": 13}, {"name": "CAMPO", "lat": 37.10466, "lon": -102.57623, "proficiency": -0.03, "schoolCount": 1}, {"name": "CANON CITY", "lat": 38.4610885, "lon": -105.22124375, "proficiency": 0.37, "schoolCount": 4}, {"name": "CENTER", "lat": 37.751336, "lon": -106.114091, "proficiency": 0.345, "schoolCount": 1}, {"name": "CHERAW", "lat": 38.109739, "lon": -103.509745, "proficiency": 0.3, "schoolCount": 1}, {"name": "GREENWOOD VILLAGE", "lat": 39.61853333333334, "lon": -104.89233333333334, "proficiency": 0.7483, "schoolCount": 3}, {"name": "CENTENNIAL", "lat": 39.589056666666664, "lon": -104.86403133333333, "proficiency": 0.17, "schoolCount": 3}, {"name": "EVERGREEN", "lat": 39.68457966666667, "lon": -105.37415066666667, "proficiency": 0.4033, "schoolCount": 3}, {"name": "COLLBRAN", "lat": 39.233568, "lon": -107.996509, "proficiency": 0.3, "schoolCount": 1}, {"name": "CORTEZ", "lat": 37.3511735, "lon": -108.5825625, "proficiency": 0.095, "schoolCount": 2}, {"name": "COTOPAXI", "lat": 38.375586, "lon": -105.690192, "proficiency": 0.3, "schoolCount": 1}, {"name": "CREEDE", "lat": 37.825682, "lon": -106.924624, "proficiency": -0.03, "schoolCount": 1}, {"name": "CRIPPLE CREEK", "lat": 38.750792, "lon": -105.183947, "proficiency": 0.1, "schoolCount": 1}, {"name": "ORDWAY", "lat": 38.2223, "lon": -103.7574, "proficiency": 0.05, "schoolCount": 1}, {"name": "DE BEQUE", "lat": 39.336031, "lon": -108.212758, "proficiency": 0.245, "schoolCount": 1}, {"name": "DEER TRAIL", "lat": 39.608493, "lon": -104.040952, "proficiency": 0.245, "schoolCount": 1}, {"name": "DEL NORTE", "lat": 37.673601, "lon": -106.34569, "proficiency": 0.245, "schoolCount": 1}, {"name": "DELTA", "lat": 38.73663925, "lon": -108.06371250000001, "proficiency": 0.0775, "schoolCount": 4}, {"name": "HOTCHKISS", "lat": 38.8013, "lon": -107.7147, "proficiency": 0.445, "schoolCount": 1}, {"name": "CEDAREDGE", "lat": 38.891151, "lon": -107.920389, "proficiency": 0.42, "schoolCount": 1}, {"name": "WATKINS", "lat": 39.66, "lon": -104.6708, "proficiency": -0.03, "schoolCount": 1}, {"name": "DOLORES", "lat": 37.476195, "lon": -108.493537, "proficiency": 0.17, "schoolCount": 1}, {"name": "DOVE CREEK", "lat": 37.767571, "lon": -108.903406, "proficiency": 0.245, "schoolCount": 1}, {"name": "CASTLE ROCK", "lat": 39.397811, "lon": -104.86451528571429, "proficiency": 0.3936, "schoolCount": 7}, {"name": "PARKER", "lat": 39.50946842857143, "lon": -104.76181542857144, "proficiency": 0.5207, "schoolCount": 7}, {"name": "HIGHLANDS RANCH", "lat": 39.547637571428574, "lon": -104.967757, "proficiency": 0.6207, "schoolCount": 7}, {"name": "CASTLE PINES", "lat": 39.46365, "lon": -104.88762, "proficiency": 0.67, "schoolCount": 1}, {"name": "LITTLETON", "lat": 39.583472, "lon": -105.05572446153846, "proficiency": 0.4723, "schoolCount": 13}, {"name": "ENGLEWOOD", "lat": 39.26649742857143, "lon": -105.34721885714285, "proficiency": 0.2364, "schoolCount": 7}, {"name": "EADS", "lat": 38.483499, "lon": -102.782102, "proficiency": 0.75, "schoolCount": 1}, {"name": "EAGLE", "lat": 39.655487, "lon": -106.82440299999999, "proficiency": 0.295, "schoolCount": 2}, {"name": "AVON", "lat": 39.6188, "lon": -106.4736, "proficiency": 0.32, "schoolCount": 1}, {"name": "GYPSUM", "lat": 39.6232, "lon": -106.9561, "proficiency": 0.27, "schoolCount": 1}, {"name": "MINTURN", "lat": 39.564172, "lon": -106.413343, "proficiency": 0.3, "schoolCount": 1}, {"name": "EATON", "lat": 40.526798, "lon": -104.71891, "proficiency": 0.27, "schoolCount": 1}, {"name": "YODER", "lat": 38.619599, "lon": -104.165516, "proficiency": 0.75, "schoolCount": 1}, {"name": "ELBERT", "lat": 39.224761, "lon": -104.538228, "proficiency": 0.245, "schoolCount": 1}, {"name": "ELIZABETH", "lat": 39.362577, "lon": -104.618886, "proficiency": 0.31, "schoolCount": 2}, {"name": "ELLICOTT", "lat": 38.8248, "lon": -104.3875, "proficiency": 0.22, "schoolCount": 1}, {"name": "ESTES PARK", "lat": 40.35356, "lon": -105.53156949999999, "proficiency": 0.125, "schoolCount": 2}, {"name": "LAKE GEORGE", "lat": 38.973878, "lon": -105.354048, "proficiency": -0.02, "schoolCount": 1}, {"name": "FAIRPLAY", "lat": 39.22451, "lon": -105.999346, "proficiency": 0.245, "schoolCount": 1}, {"name": "GUFFEY", "lat": 38.750937, "lon": -105.521047, "proficiency": -0.03, "schoolCount": 1}, {"name": "PEYTON", "lat": 39.01177466666667, "lon": -104.53306200000002, "proficiency": 0.245, "schoolCount": 3}, {"name": "FALCON", "lat": 38.979574, "lon": -104.59576899999999, "proficiency": 0.62, "schoolCount": 2}, {"name": "FLEMING", "lat": 40.684921, "lon": -102.841982, "proficiency": 0.495, "schoolCount": 1}, {"name": "LAPORTE", "lat": 40.6268, "lon": -105.1441, "proficiency": 0.57, "schoolCount": 1}, {"name": "WELLINGTON", "lat": 40.7086, "lon": -105.002, "proficiency": 0.32, "schoolCount": 1}, {"name": "FORT LUPTON", "lat": 40.0779, "lon": -104.8136, "proficiency": 0.22, "schoolCount": 1}, {"name": "DACONO", "lat": 40.057335, "lon": -104.962939, "proficiency": 0.695, "schoolCount": 1}, {"name": "FORT MORGAN", "lat": 40.238437, "lon": -103.809234, "proficiency": 0.37, "schoolCount": 1}, {"name": "FOUNTAIN", "lat": 38.699929, "lon": -104.70327433333334, "proficiency": 0.2267, "schoolCount": 3}, {"name": "FORT CARSON", "lat": 38.732573, "lon": -104.801622, "proficiency": 0.32, "schoolCount": 1}, {"name": "FOWLER", "lat": 38.127589, "lon": -104.030107, "proficiency": 0.3, "schoolCount": 1}, {"name": "BLANCA", "lat": 37.431201, "lon": -105.456399, "proficiency": 0.3, "schoolCount": 1}, {"name": "GILCREST", "lat": 40.287226, "lon": -104.778714, "proficiency": 0.37, "schoolCount": 1}, {"name": "PLATTEVILLE", "lat": 40.2096, "lon": -104.8241, "proficiency": 0.37, "schoolCount": 1}, {"name": "BLACK HAWK", "lat": 39.833334, "lon": -105.520283, "proficiency": 0.445, "schoolCount": 1}, {"name": "BASALT", "lat": 39.365557, "lon": -107.029182, "proficiency": 0.42, "schoolCount": 1}, {"name": "GRANADA", "lat": 38.059709, "lon": -102.305506, "proficiency": 0.3, "schoolCount": 1}, {"name": "GRANBY", "lat": 40.092, "lon": -105.9472, "proficiency": 0.37, "schoolCount": 1}, {"name": "GATEWAY", "lat": 38.682672, "lon": -108.971478, "proficiency": -0.03, "schoolCount": 1}, {"name": "CLIFTON", "lat": 39.0966, "lon": -108.4083, "proficiency": 0.17, "schoolCount": 1}, {"name": "FRUITA", "lat": 39.148485, "lon": -108.711952, "proficiency": 0.22, "schoolCount": 1}, {"name": "PARACHUTE", "lat": 39.444718, "lon": -108.018061, "proficiency": 0.3, "schoolCount": 1}, {"name": "EVANS", "lat": 40.378170499999996, "lon": -104.747466, "proficiency": 0.42, "schoolCount": 2}, {"name": "GROVER", "lat": 40.8682, "lon": -104.2308, "proficiency": -0.03, "schoolCount": 1}, {"name": "CRESTED BUTTE", "lat": 38.865104, "lon": -106.975755, "proficiency": 0.52, "schoolCount": 1}, {"name": "MARBLE", "lat": 39.07168, "lon": -107.19297, "proficiency": -0.03, "schoolCount": 1}, {"name": "GUNNISON", "lat": 38.55369, "lon": -106.937459, "proficiency": 0.17, "schoolCount": 1}, {"name": "HAXTUN", "lat": 40.6477, "lon": -102.6292, "proficiency": 0.245, "schoolCount": 1}, {"name": "HAYDEN", "lat": 40.4935, "lon": -107.2613, "proficiency": 0.3, "schoolCount": 1}, {"name": "LAKE CITY", "lat": 38.033214, "lon": -107.314641, "proficiency": -0.03, "schoolCount": 1}, {"name": "HOEHNE", "lat": 37.279113, "lon": -104.378906, "proficiency": 0.15, "schoolCount": 1}, {"name": "HOLYOKE", "lat": 40.5821095, "lon": -102.296728, "proficiency": 0.1125, "schoolCount": 2}, {"name": "HUGO", "lat": 39.1388, "lon": -103.4773, "proficiency": 0.245, "schoolCount": 1}, {"name": "IGNACIO", "lat": 37.116392, "lon": -107.640146, "proficiency": 0.15, "schoolCount": 1}, {"name": "WHEAT RIDGE", "lat": 39.7706, "lon": -105.1068, "proficiency": 0.17, "schoolCount": 1}, {"name": "EDGEWATER", "lat": 39.7504, "lon": -105.0731, "proficiency": 0.025, "schoolCount": 1}, {"name": "CONIFER", "lat": 39.546303, "lon": -105.304143, "proficiency": 0.47, "schoolCount": 1}, {"name": "WHEATRIDGE", "lat": 39.783418, "lon": -105.114877, "proficiency": 0.495, "schoolCount": 1}, {"name": "MILLIKEN", "lat": 40.3255615, "lon": -104.8468795, "proficiency": 0.2075, "schoolCount": 2}, {"name": "JULESBURG", "lat": 40.9908, "lon": -102.2679, "proficiency": -0.02, "schoolCount": 1}, {"name": "KARVAL", "lat": 38.7383, "lon": -103.5348, "proficiency": -0.03, "schoolCount": 1}, {"name": "KEENESBURG", "lat": 40.0591335, "lon": -104.4806965, "proficiency": 0.3325, "schoolCount": 2}, {"name": "KERSEY", "lat": 40.3909, "lon": -104.5572, "proficiency": 0.32, "schoolCount": 1}, {"name": "KIM", "lat": 37.247002, "lon": -103.353608, "proficiency": -0.03, "schoolCount": 1}, {"name": "KIOWA", "lat": 39.346902, "lon": -104.46033, "proficiency": 0.1, "schoolCount": 1}, {"name": "KIT CARSON", "lat": 38.767176, "lon": -102.791472, "proficiency": -0.02, "schoolCount": 1}, {"name": "KREMMLING", "lat": 40.0622, "lon": -106.3862, "proficiency": 0.3, "schoolCount": 1}, {"name": "LA JARA", "lat": 37.24909, "lon": -105.969169, "proficiency": 0.32, "schoolCount": 1}, {"name": "LAJARA", "lat": 37.275109, "lon": -105.956824, "proficiency": -0.03, "schoolCount": 1}, {"name": "LA JUNTA", "lat": 37.9703, "lon": -103.538214, "proficiency": 0.12, "schoolCount": 1}, {"name": "LA VETA", "lat": 37.505, "lon": -105.0083, "proficiency": 0.245, "schoolCount": 1}, {"name": "LEADVILLE", "lat": 39.24395, "lon": -106.304561, "proficiency": 0.27, "schoolCount": 1}, {"name": "LAMAR", "lat": 38.0835, "lon": -102.6197, "proficiency": 0.32, "schoolCount": 1}, {"name": "LAS ANIMAS", "lat": 38.071194, "lon": -103.229805, "proficiency": 0.495, "schoolCount": 1}, {"name": "PUEBLO", "lat": 38.258454785714285, "lon": -104.60569128571429, "proficiency": 0.2311, "schoolCount": 14}, {"name": "LIMON", "lat": 39.269299, "lon": -103.688063, "proficiency": 0.1, "schoolCount": 1}, {"name": "OTIS", "lat": 40.252437, "lon": -102.9100995, "proficiency": 0.1125, "schoolCount": 2}, {"name": "FREDERICK", "lat": 40.10555, "lon": -104.95525, "proficiency": 0.135, "schoolCount": 2}, {"name": "LONGMONT", "lat": 40.162952555555556, "lon": -105.11764922222223, "proficiency": 0.3644, "schoolCount": 9}, {"name": "LYONS", "lat": 40.2145, "lon": -105.2645, "proficiency": 0.545, "schoolCount": 1}, {"name": "MEAD", "lat": 40.2325, "lon": -105.004, "proficiency": 0.67, "schoolCount": 1}, {"name": "FIRESTONE", "lat": 40.1596265, "lon": -104.94130150000001, "proficiency": 0.4575, "schoolCount": 2}, {"name": "LOVELAND", "lat": 40.40371285714286, "lon": -105.08074528571429, "proficiency": 0.3593, "schoolCount": 7}, {"name": "BERTHOUD", "lat": 40.3066, "lon": -105.0872, "proficiency": 0.52, "schoolCount": 1}, {"name": "MANITOU SPRINGS", "lat": 38.8548, "lon": -104.9061, "proficiency": 0.32, "schoolCount": 1}, {"name": "MANZANOLA", "lat": 38.104622, "lon": -103.867141, "proficiency": 0.245, "schoolCount": 1}, {"name": "MC CLAVE", "lat": 38.138504, "lon": -102.849389, "proficiency": 0.495, "schoolCount": 1}, {"name": "MEEKER", "lat": 40.0426, "lon": -107.9023, "proficiency": 0.645, "schoolCount": 1}, {"name": "MERINO", "lat": 40.4833, "lon": -103.3571, "proficiency": -0.03, "schoolCount": 1}, {"name": "RUSH", "lat": 38.828531, "lon": -104.092407, "proficiency": 0.1, "schoolCount": 1}, {"name": "MOFFAT", "lat": 37.998257, "lon": -105.911613, "proficiency": 0.245, "schoolCount": 1}, {"name": "CRESTONE", "lat": 37.991222, "lon": -105.696302, "proficiency": -0.03, "schoolCount": 1}, {"name": "CRAIG", "lat": 40.5223, "lon": -107.5465, "proficiency": 0.17, "schoolCount": 1}, {"name": "MONTE VISTA", "lat": 37.6036455, "lon": -106.12920475, "proficiency": 0.0925, "schoolCount": 4}, {"name": "MONTROSE", "lat": 38.478602, "lon": -107.868518, "proficiency": 0.4117, "schoolCount": 3}, {"name": "OLATHE", "lat": 38.605906, "lon": -107.977055, "proficiency": 0.17, "schoolCount": 1}, {"name": "MONUMENT", "lat": 39.1022, "lon": -104.8607, "proficiency": 0.64, "schoolCount": 1}, {"name": "PARADOX", "lat": 38.3703, "lon": -108.9627, "proficiency": -0.03, "schoolCount": 1}, {"name": "NUCLA", "lat": 38.271, "lon": -108.5482, "proficiency": 0.1, "schoolCount": 1}, {"name": "NORWOOD", "lat": 38.132491, "lon": -108.294361, "proficiency": 0.245, "schoolCount": 1}, {"name": "OAK CREEK", "lat": 40.273553, "lon": -106.952065, "proficiency": 0.3, "schoolCount": 1}, {"name": "OURAY", "lat": 38.0242, "lon": -107.6691, "proficiency": 0.245, "schoolCount": 1}, {"name": "OVID", "lat": 40.964385, "lon": -102.387026, "proficiency": -0.02, "schoolCount": 1}, {"name": "PEETZ", "lat": 40.961721, "lon": -103.117334, "proficiency": -0.03, "schoolCount": 1}, {"name": "PRITCHETT", "lat": 37.372592, "lon": -102.862237, "proficiency": -0.03, "schoolCount": 1}, {"name": "BEULAH", "lat": 38.0756, "lon": -104.9783, "proficiency": 0.3, "schoolCount": 1}, {"name": "COLORADO CITY", "lat": 37.9576, "lon": -104.8279, "proficiency": 0.15, "schoolCount": 1}, {"name": "PUEBLO WEST", "lat": 38.31496366666667, "lon": -104.75103, "proficiency": 0.245, "schoolCount": 3}, {"name": "RANGELY", "lat": 40.0846, "lon": -108.8018, "proficiency": 0.15, "schoolCount": 1}, {"name": "RIDGWAY", "lat": 38.163604, "lon": -107.756574, "proficiency": 0.495, "schoolCount": 1}, {"name": "RIFLE", "lat": 39.5353, "lon": -107.7848, "proficiency": 0.12, "schoolCount": 1}, {"name": "NEW CASTLE", "lat": 39.582872, "lon": -107.530548, "proficiency": 0.27, "schoolCount": 1}, {"name": "ROCKY FORD", "lat": 38.0429, "lon": -103.7346, "proficiency": 0.245, "schoolCount": 1}, {"name": "SAGUACHE", "lat": 38.084149, "lon": -106.135597, "proficiency": -0.03, "schoolCount": 1}, {"name": "SAN LUIS", "lat": 37.209144, "lon": -105.423738, "proficiency": 0.245, "schoolCount": 1}, {"name": "SANFORD", "lat": 37.257373, "lon": -105.908956, "proficiency": 0.3, "schoolCount": 1}, {"name": "MOSCA", "lat": 37.678072, "lon": -105.880054, "proficiency": 0.1, "schoolCount": 1}, {"name": "SEIBERT", "lat": 39.298344, "lon": -102.862743, "proficiency": 0.245, "schoolCount": 1}, {"name": "SILVERTON", "lat": 37.812302, "lon": -107.666125, "proficiency": -0.03, "schoolCount": 1}, {"name": "SIMLA", "lat": 39.138928, "lon": -104.091082, "proficiency": 0.495, "schoolCount": 1}, {"name": "SPRINGFIELD", "lat": 37.409793, "lon": -102.621306, "proficiency": 0.245, "schoolCount": 1}, {"name": "STEAMBOAT SPRINGS", "lat": 40.495, "lon": -106.8185, "proficiency": 0.62, "schoolCount": 1}, {"name": "CLARK", "lat": 40.712751, "lon": -106.918287, "proficiency": 0.75, "schoolCount": 1}, {"name": "ILIFF", "lat": 40.8238, "lon": -102.9593, "proficiency": 0.1, "schoolCount": 1}, {"name": "STERLING", "lat": 40.6388, "lon": -103.2185, "proficiency": 0.42, "schoolCount": 1}, {"name": "NEW RAYMER", "lat": 40.615742, "lon": -103.802453, "proficiency": 0.245, "schoolCount": 1}, {"name": "STRASBURG", "lat": 39.746039, "lon": -104.325517, "proficiency": 0.345, "schoolCount": 1}, {"name": "STRATTON", "lat": 39.3042, "lon": -102.6007, "proficiency": 0.245, "schoolCount": 1}, {"name": "FRISCO", "lat": 39.583454, "lon": -106.088686, "proficiency": 0.3325, "schoolCount": 2}, {"name": "SWINK", "lat": 38.010755, "lon": -103.626609, "proficiency": 0.495, "schoolCount": 1}, {"name": "TELLURIDE", "lat": 37.9417, "lon": -107.8195, "proficiency": 0.545, "schoolCount": 1}, {"name": "NORTHGLENN", "lat": 39.9054918, "lon": -104.97922220000001, "proficiency": 0.424, "schoolCount": 5}, {"name": "SHERIDAN LAKE", "lat": 38.469647, "lon": -102.217383, "proficiency": -0.03, "schoolCount": 1}, {"name": "TRINIDAD", "lat": 37.170642, "lon": -104.515331, "proficiency": 0.17, "schoolCount": 1}, {"name": "VILAS", "lat": 37.373651, "lon": -102.449444, "proficiency": -0.03, "schoolCount": 1}, {"name": "WALDEN", "lat": 40.732373, "lon": -106.277145, "proficiency": 0.245, "schoolCount": 1}, {"name": "GARDNER", "lat": 37.7836, "lon": -105.168, "proficiency": 0.245, "schoolCount": 1}, {"name": "WALSENBURG", "lat": 37.632111, "lon": -104.791787, "proficiency": 0.1, "schoolCount": 1}, {"name": "WALSH", "lat": 37.386464, "lon": -102.283761, "proficiency": 0.75, "schoolCount": 1}, {"name": "WELDONA", "lat": 40.35009, "lon": -103.967918, "proficiency": 0.245, "schoolCount": 1}, {"name": "WESTCLIFFE", "lat": 38.136481, "lon": -105.460783, "proficiency": 0.3, "schoolCount": 1}, {"name": "WESTON", "lat": 37.128165, "lon": -104.793057, "proficiency": -0.03, "schoolCount": 1}, {"name": "WIGGINS", "lat": 40.227085, "lon": -104.07671, "proficiency": 0.15, "schoolCount": 1}, {"name": "WILEY", "lat": 38.1565, "lon": -102.7209, "proficiency": 0.1, "schoolCount": 1}, {"name": "WINDSOR", "lat": 40.4748675, "lon": -104.89928, "proficiency": 0.32, "schoolCount": 2}, {"name": "SEVERANCE", "lat": 40.496875, "lon": -104.867942, "proficiency": 0.37, "schoolCount": 1}, {"name": "WOODLAND PARK", "lat": 39.0086, "lon": -105.0479, "proficiency": 0.37, "schoolCount": 1}, {"name": "WOODROW", "lat": 39.78914, "lon": -103.516796, "proficiency": 0.245, "schoolCount": 1}]}