{"state": "CT", "stateName": "Connecticut", "year": 2018, "naep": {"text": "7 out of 10", "numerator": 7, "denominator": 10}, "schools": [{"name": "Jumoke Academy", "lat": 41.769841, "lon": -72.69402, "proficiency": 0.245, "district": "Jumoke Academy District", "city": "Hartford", "ncessch": "090000700747"}, {"name": "Odyssey Community School", "lat": 41.7817, "lon": -72.5507, "proficiency": 0.345, "district": "Odyssey Community School District", "city": "Manchester", "ncessch": "090000900774"}, {"name": "Integrated Day Charter School", "lat": 41.5113, "lon": -72.0776, "proficiency": 0.3, "district": "Integrated Day Charter School District", "city": "Norwich", "ncessch": "090001000775"}, {"name": "Interdistrict School For Arts And Communication", "lat": 41.355875, "lon": -72.098199, "proficiency": 0.075, "district": "Interdistrict School for Arts and Comm District", "city": "New London", "ncessch": "090001100797"}, {"name": "The Bridge Academy", "lat": 41.183886, "lon": -73.184309, "proficiency": 0.05, "district": "The Bridge Academy District", "city": "Bridgeport", "ncessch": "090001500809"}, {"name": "Side By Side Charter School", "lat": 41.0956, "lon": -73.42, "proficiency": 0.695, "district": "Side By Side Charter School District", "city": "Norwalk", "ncessch": "090001600823"}, {"name": "Amistad Academy", "lat": 41.311152, "lon": -72.937407, "proficiency": 0.47, "district": "Amistad Academy District", "city": "New Haven", "ncessch": "090002400981"}, {"name": "New Beginnings Inc Family Academy", "lat": 41.169724, "lon": -73.198901, "proficiency": 0.1, "district": "New Beginnings Inc Family Academy District", "city": "Bridgeport", "ncessch": "090002801366"}, {"name": "Park City Prep Charter School", "lat": 41.16961, "lon": -73.2124, "proficiency": 0.37, "district": "Park City Prep Charter School District", "city": "Bridgeport", "ncessch": "090003301449"}, {"name": "Ansonia Middle School", "lat": 41.341169, "lon": -73.084317, "proficiency": 0.22, "district": "Ansonia School District", "city": "Ansonia", "ncessch": "090006010008"}, {"name": "Wintergreen Interdistrict Magnet School", "lat": 41.397125, "lon": -72.836273, "proficiency": 0.15, "district": "Area Cooperative Educational Services", "city": "North Haven", "ncessch": "090007000884"}, {"name": "ACES at Chase", "lat": 41.546183, "lon": -73.066408, "proficiency": 0.42, "district": "Area Cooperative Educational Services", "city": "Waterbury", "ncessch": "090007001358"}, {"name": "Ashford School", "lat": 41.892539, "lon": -72.168933, "proficiency": 0.445, "district": "Ashford School District", "city": "Ashford", "ncessch": "090009000010"}, {"name": "Avon Middle School", "lat": 41.791949, "lon": -72.86559, "proficiency": 0.77, "district": "Avon School District", "city": "Avon", "ncessch": "090012000012"}, {"name": "Highville Charter School", "lat": 41.324561, "lon": -72.927031, "proficiency": 0.1, "district": "Highville Charter School District", "city": "New Haven", "ncessch": "090020700907"}, {"name": "Achievement First Bridgeport Academy", "lat": 41.192608, "lon": -73.176172, "proficiency": 0.37, "district": "Achievement First Bridgeport Academy District", "city": "Bridgeport", "ncessch": "090020801493"}, {"name": "Catherine M. McGee Middle School", "lat": 41.616, "lon": -72.7634, "proficiency": 0.67, "district": "Berlin School District", "city": "Berlin", "ncessch": "090021000017"}, {"name": "Achievement First Hartford Academy", "lat": 41.784008, "lon": -72.697292, "proficiency": 0.47, "district": "Achievement First Hartford Academy District", "city": "Hartford", "ncessch": "090021201528"}, {"name": "Elm City College Preparatory School", "lat": 41.313812, "lon": -72.903377, "proficiency": 0.545, "district": "Elm City College Preparatory School District", "city": "New Haven", "ncessch": "090021401548"}, {"name": "Great Oaks Charter School", "lat": 41.167212, "lon": -73.208527, "proficiency": 0.17, "district": "Great Oaks Charter School District", "city": "Bridgeport", "ncessch": "090021901782"}, {"name": "Capital Preparatory Harbor School", "lat": 41.175156, "lon": -73.188489, "proficiency": 0.445, "district": "Capital Preparatory Harbor School District", "city": "Bridgeport", "ncessch": "090022101803"}, {"name": "Bethel Middle School", "lat": 41.3814, "lon": -73.3925, "proficiency": 0.62, "district": "Bethel School District", "city": "Bethel", "ncessch": "090027000025"}, {"name": "Carmen Arace Middle School", "lat": 41.824217, "lon": -72.716665, "proficiency": 0.32, "district": "Bloomfield School District", "city": "Bloomfield", "ncessch": "090033000034"}, {"name": "Global Experience Magnet School", "lat": 41.869722, "lon": -72.734343, "proficiency": 0.15, "district": "Bloomfield School District", "city": "Bloomfield", "ncessch": "090033001615"}, {"name": "Bolton Center School", "lat": 41.7756, "lon": -72.4409, "proficiency": 0.62, "district": "Bolton School District", "city": "Bolton", "ncessch": "090036000036"}, {"name": "Fields Memorial School", "lat": 41.5635, "lon": -72.1536, "proficiency": 0.695, "district": "Bozrah School District", "city": "Bozrah", "ncessch": "090039000038"}, {"name": "Francis Walsh Intermediate School", "lat": 41.284882, "lon": -72.781953, "proficiency": 0.47, "district": "Branford School District", "city": "Branford", "ncessch": "090042000041"}, {"name": "Luis Munoz Marin School", "lat": 41.193167, "lon": -73.175153, "proficiency": 0.025, "district": "Bridgeport School District", "city": "Bridgeport", "ncessch": "090045000001"}, {"name": "Barnum School", "lat": 41.183171, "lon": -73.17425, "proficiency": 0.05, "district": "Bridgeport School District", "city": "Bridgeport", "ncessch": "090045000049"}, {"name": "Black Rock School", "lat": 41.156476, "lon": -73.225942, "proficiency": 0.245, "district": "Bridgeport School District", "city": "Bridgeport", "ncessch": "090045000052"}, {"name": "Blackham School", "lat": 41.205552, "lon": -73.213346, "proficiency": 0.12, "district": "Bridgeport School District", "city": "Bridgeport", "ncessch": "090045000053"}, {"name": "Columbus School", "lat": 41.185719, "lon": -73.197283, "proficiency": 0.05, "district": "Bridgeport School District", "city": "Bridgeport", "ncessch": "090045000058"}, {"name": "Wilbur Cross School", "lat": 41.224701, "lon": -73.195594, "proficiency": 0.05, "district": "Bridgeport School District", "city": "Bridgeport", "ncessch": "090045000059"}, {"name": "Thomas Hooker School", "lat": 41.217111, "lon": -73.168164, "proficiency": 0.05, "district": "Bridgeport School District", "city": "Bridgeport", "ncessch": "090045000069"}, {"name": "Cesar Batalla School", "lat": 41.170522, "lon": -73.207438, "proficiency": 0.025, "district": "Bridgeport School District", "city": "Bridgeport", "ncessch": "090045000070"}, {"name": "Park City Magnet School", "lat": 41.220889, "lon": -73.200717, "proficiency": 0.245, "district": "Bridgeport School District", "city": "Bridgeport", "ncessch": "090045000071"}, {"name": "Classical Studies Academy", "lat": 41.179075, "lon": -73.209793, "proficiency": 0.05, "district": "Bridgeport School District", "city": "Bridgeport", "ncessch": "090045000075"}, {"name": "Jettie S. Tisdale School", "lat": 41.178383, "lon": -73.160092, "proficiency": 0.27, "district": "Bridgeport School District", "city": "Bridgeport", "ncessch": "090045000076"}, {"name": "Read School", "lat": 41.202573, "lon": -73.198291, "proficiency": 0.17, "district": "Bridgeport School District", "city": "Bridgeport", "ncessch": "090045000080"}, {"name": "Roosevelt School", "lat": 41.17191, "lon": -73.195143, "proficiency": 0.05, "district": "Bridgeport School District", "city": "Bridgeport", "ncessch": "090045000081"}, {"name": "Waltersville School", "lat": 41.183059, "lon": -73.17513, "proficiency": 0.05, "district": "Bridgeport School District", "city": "Bridgeport", "ncessch": "090045000086"}, {"name": "Geraldine Johnson School", "lat": 41.184616, "lon": -73.203885, "proficiency": 0.22, "district": "Bridgeport School District", "city": "Bridgeport", "ncessch": "090045000087"}, {"name": "John Winthrop School", "lat": 41.221056, "lon": -73.231958, "proficiency": 0.22, "district": "Bridgeport School District", "city": "Bridgeport", "ncessch": "090045000090"}, {"name": "Multicultural Magnet School", "lat": 41.204717, "lon": -73.162201, "proficiency": 0.37, "district": "Bridgeport School District", "city": "Bridgeport", "ncessch": "090045001127"}, {"name": "Paul Laurence Dunbar School", "lat": 41.177547, "lon": -73.164585, "proficiency": 0.05, "district": "Bridgeport School District", "city": "Bridgeport", "ncessch": "090045001161"}, {"name": "James J. Curiale School", "lat": 41.176022, "lon": -73.204609, "proficiency": 0.075, "district": "Bridgeport School District", "city": "Bridgeport", "ncessch": "090045001162"}, {"name": "High Horizons Magnet School", "lat": 41.204286, "lon": -73.163002, "proficiency": 0.245, "district": "Bridgeport School District", "city": "Bridgeport", "ncessch": "090045001163"}, {"name": "Interdistrict Discovery Magnet School", "lat": 41.215573, "lon": -73.233786, "proficiency": 0.245, "district": "Bridgeport School District", "city": "Bridgeport", "ncessch": "090045001590"}, {"name": "Geraldine Claytor Magnet Academy", "lat": 41.162461, "lon": -73.217724, "proficiency": 0.05, "district": "Bridgeport School District", "city": "Bridgeport", "ncessch": "090045001918"}, {"name": "Chippens Hill Middle School", "lat": 41.6992, "lon": -72.9652, "proficiency": 0.32, "district": "Bristol School District", "city": "Bristol", "ncessch": "090051000089"}, {"name": "Greene-Hills School", "lat": 41.668, "lon": -72.896, "proficiency": 0.32, "district": "Bristol School District", "city": "Bristol", "ncessch": "090051000098"}, {"name": "Northeast Middle School", "lat": 41.7128, "lon": -72.9081, "proficiency": 0.57, "district": "Bristol School District", "city": "Bristol", "ncessch": "090051000104"}, {"name": "West Bristol School", "lat": 41.6837, "lon": -72.9815, "proficiency": 0.37, "district": "Bristol School District", "city": "Bristol", "ncessch": "090051001624"}, {"name": "Whisconier Middle School", "lat": 41.4406, "lon": -73.3758, "proficiency": 0.72, "district": "Brookfield School District", "city": "Brookfield", "ncessch": "090054000112"}, {"name": "Brooklyn Middle School", "lat": 41.7853, "lon": -71.9355, "proficiency": 0.47, "district": "Brooklyn School District", "city": "Brooklyn", "ncessch": "090057000114"}, {"name": "Lee H. Kellogg School", "lat": 41.9554, "lon": -73.3594, "proficiency": 0.245, "district": "Canaan School District", "city": "Falls Village", "ncessch": "090063000115"}, {"name": "Dr. Helen Baldwin Middle School", "lat": 41.6983, "lon": -71.9769, "proficiency": 0.445, "district": "Canterbury School District", "city": "Canterbury", "ncessch": "090066001187"}, {"name": "Canton Middle School", "lat": 41.8259, "lon": -72.9165, "proficiency": 0.67, "district": "Canton School District", "city": "Canton", "ncessch": "090069001376"}, {"name": "Academy of International Studies 6-12", "lat": 41.871, "lon": -72.7267, "proficiency": 0.17, "district": "Capitol Region Education Council", "city": "Bloomfield", "ncessch": "090070000880"}, {"name": "Academy of Computer Science and and Engineering Middle Schoo", "lat": 41.7569, "lon": -72.6538, "proficiency": 0.27, "district": "Capitol Region Education Council", "city": "East Hartford", "ncessch": "090070001364"}, {"name": "Academy of Aerospace and Engineering", "lat": 41.895614, "lon": -72.652926, "proficiency": 0.22, "district": "Capitol Region Education Council", "city": "Windsor", "ncessch": "090070001513"}, {"name": "Academy of Science and Innovation", "lat": 41.684543, "lon": -72.809789, "proficiency": 0.12, "district": "Capitol Region Education Council", "city": "New Britain", "ncessch": "090070001592"}, {"name": "Greater Hartford Academy of the Arts Magnet Middle", "lat": 41.756382, "lon": -72.662795, "proficiency": 0.22, "district": "Capitol Region Education Council", "city": "Hartford", "ncessch": "090070001625"}, {"name": "Dodd Middle School", "lat": 41.511094, "lon": -72.904504, "proficiency": 0.73, "district": "Cheshire School District", "city": "Cheshire", "ncessch": "090075000125"}, {"name": "Jared Eliot School", "lat": 41.297227, "lon": -72.519756, "proficiency": 0.57, "district": "Clinton School District", "city": "Clinton", "ncessch": "090081000133"}, {"name": "William J. Johnston Middle School", "lat": 41.575509, "lon": -72.320099, "proficiency": 0.72, "district": "Colchester School District", "city": "Colchester", "ncessch": "090084000136"}, {"name": "Horace W. Porter School", "lat": 41.704517, "lon": -72.300792, "proficiency": 0.345, "district": "Columbia School District", "city": "Columbia", "ncessch": "090090000139"}, {"name": "Six-Six Magnet School", "lat": 41.204205, "lon": -73.161572, "proficiency": 0.245, "district": "Cooperative Educational Services", "city": "Bridgeport", "ncessch": "090091000340"}, {"name": "Cornwall Consolidated School", "lat": 41.876679, "lon": -73.341298, "proficiency": 0.75, "district": "Cornwall School District", "city": "West Cornwall", "ncessch": "090093000140"}, {"name": "Capt. Nathan Hale School", "lat": 41.781, "lon": -72.3113, "proficiency": 0.57, "district": "Coventry School District", "city": "Coventry", "ncessch": "090096000141"}, {"name": "Cromwell Middle School", "lat": 41.628018, "lon": -72.657447, "proficiency": 0.62, "district": "Cromwell School District", "city": "Cromwell", "ncessch": "090099000147"}, {"name": "Broadview Middle School", "lat": 41.4066, "lon": -73.4412, "proficiency": 0.2, "district": "Danbury School District", "city": "Danbury", "ncessch": "090102000149"}, {"name": "Rogers Park Middle School", "lat": 41.3824, "lon": -73.4419, "proficiency": 0.17, "district": "Danbury School District", "city": "Danbury", "ncessch": "090102000160"}, {"name": "Westside Middle School Academy", "lat": 41.387087, "lon": -73.484322, "proficiency": 0.32, "district": "Danbury School District", "city": "Danbury", "ncessch": "090102001691"}, {"name": "Middlesex Middle School", "lat": 41.0737, "lon": -73.4972, "proficiency": 0.84, "district": "Darien School District", "city": "Darien", "ncessch": "090105000169"}, {"name": "Derby Middle School", "lat": 41.334103, "lon": -73.099152, "proficiency": 0.22, "district": "Derby School District", "city": "Derby", "ncessch": "090111001578"}, {"name": "East Granby Middle School", "lat": 41.9327, "lon": -72.7283, "proficiency": 0.62, "district": "East Granby School District", "city": "East Granby", "ncessch": "090117000182"}, {"name": "Nathan Hale-Ray Middle School", "lat": 41.520067, "lon": -72.444979, "proficiency": 0.72, "district": "East Haddam School District", "city": "Moodus", "ncessch": "090120000198"}, {"name": "East Hampton Middle School", "lat": 41.5682, "lon": -72.5228, "proficiency": 0.57, "district": "East Hampton School District", "city": "East Hampton", "ncessch": "090123000188"}, {"name": "East Hartford Middle School", "lat": 41.7785, "lon": -72.6035, "proficiency": 0.11, "district": "East Hartford School District", "city": "East Hartford", "ncessch": "090126000197"}, {"name": "Sunset Ridge Middle School", "lat": 41.7652, "lon": -72.5993, "proficiency": 0.47, "district": "East Hartford School District", "city": "East Hartford", "ncessch": "090126001275"}, {"name": "Joseph Melillo Middle School", "lat": 41.2863, "lon": -72.8667, "proficiency": 0.22, "district": "East Haven School District", "city": "East Haven", "ncessch": "090129000217"}, {"name": "Carbone School/East Haven Academy", "lat": 41.2749, "lon": -72.8764, "proficiency": 0.445, "district": "East Haven School District", "city": "East Haven", "ncessch": "090129000605"}, {"name": "East Lyme Middle School", "lat": 41.3503, "lon": -72.2137, "proficiency": 0.67, "district": "East Lyme School District", "city": "Niantic", "ncessch": "090132000224"}, {"name": "East Windsor Middle School", "lat": 41.9221, "lon": -72.5467, "proficiency": 0.27, "district": "East Windsor School District", "city": "Broad Brook", "ncessch": "090135000230"}, {"name": "Eastford Elementary School", "lat": 41.90296, "lon": -72.082232, "proficiency": 0.495, "district": "Eastford School District", "city": "Eastford", "ncessch": "090138000232"}, {"name": "Helen Keller Middle School", "lat": 41.2451, "lon": -73.2708, "proficiency": 0.62, "district": "Easton School District", "city": "Easton", "ncessch": "090141000233"}, {"name": "Ellington Middle School", "lat": 41.8794, "lon": -72.4602, "proficiency": 0.52, "district": "Ellington School District", "city": "Ellington", "ncessch": "090144000238"}, {"name": "John F. Kennedy Middle School", "lat": 41.9568, "lon": -72.5636, "proficiency": 0.22, "district": "Enfield School District", "city": "Enfield", "ncessch": "090147000249"}, {"name": "Fairfield Woods Middle School", "lat": 41.1865, "lon": -73.2492, "proficiency": 0.71, "district": "Fairfield School District", "city": "Fairfield", "ncessch": "090153000258"}, {"name": "Tomlinson Middle School", "lat": 41.1441, "lon": -73.2574, "proficiency": 0.62, "district": "Fairfield School District", "city": "Fairfield", "ncessch": "090153000271"}, {"name": "Roger Ludlowe Middle School", "lat": 41.1483, "lon": -73.2615, "proficiency": 0.77, "district": "Fairfield School District", "city": "Fairfield", "ncessch": "090153000919"}, {"name": "Irving A. Robbins Middle School", "lat": 41.7212, "lon": -72.7991, "proficiency": 0.73, "district": "Farmington School District", "city": "Farmington", "ncessch": "090156000274"}, {"name": "Franklin Elementary School", "lat": 41.6313, "lon": -72.1255, "proficiency": 0.245, "district": "Franklin School District", "city": "North Franklin", "ncessch": "090159000278"}, {"name": "Smith Middle School", "lat": 41.724311, "lon": -72.577783, "proficiency": 0.7, "district": "Glastonbury School District", "city": "Glastonbury", "ncessch": "090162000282"}, {"name": "Granby Memorial Middle School", "lat": 41.9611, "lon": -72.7914, "proficiency": 0.52, "district": "Granby School District", "city": "Granby", "ncessch": "090168000291"}, {"name": "Central Middle School", "lat": 41.048469, "lon": -73.605512, "proficiency": 0.62, "district": "Greenwich School District", "city": "Greenwich", "ncessch": "090171000295"}, {"name": "Eastern Middle School", "lat": 41.034196, "lon": -73.583465, "proficiency": 0.77, "district": "Greenwich School District", "city": "Riverside", "ncessch": "090171000298"}, {"name": "Western Middle School", "lat": 41.01062, "lon": -73.64929, "proficiency": 0.62, "district": "Greenwich School District", "city": "Greenwich", "ncessch": "090171000309"}, {"name": "Griswold Middle School", "lat": 41.5976, "lon": -71.98, "proficiency": 0.62, "district": "Griswold School District", "city": "Griswold", "ncessch": "090174000019"}, {"name": "E. C. Adams Middle School", "lat": 41.2921, "lon": -72.6849, "proficiency": 0.83, "district": "Guilford School District", "city": "Guilford", "ncessch": "090180000331"}, {"name": "Hamden Middle School", "lat": 41.3797, "lon": -72.9122, "proficiency": 0.37, "district": "Hamden School District", "city": "Hamden", "ncessch": "090186000342"}, {"name": "Burns Latino Studies Academy", "lat": 41.7612, "lon": -72.6915, "proficiency": 0.05, "district": "Hartford School District", "city": "Hartford", "ncessch": "090192000357"}, {"name": "Burr Middle School", "lat": 41.744978, "lon": -72.672607, "proficiency": 0.05, "district": "Hartford School District", "city": "Hartford", "ncessch": "090192000358"}, {"name": "Dwight-Bellizzi Dual Language Academy", "lat": 41.7339, "lon": -72.6803, "proficiency": 0.05, "district": "Hartford School District", "city": "Hartford", "ncessch": "090192000360"}, {"name": "STEM Magnet at Annie Fisher School", "lat": 41.792, "lon": -72.7073, "proficiency": 0.445, "district": "Hartford School District", "city": "Hartford", "ncessch": "090192000362"}, {"name": "M. D. Fox School", "lat": 41.7464, "lon": -72.6805, "proficiency": 0.15, "district": "Hartford School District", "city": "Hartford", "ncessch": "090192000364"}, {"name": "Environmental Sciences Magnet at Hooker School", "lat": 41.7415, "lon": -72.7026, "proficiency": 0.345, "district": "Hartford School District", "city": "Hartford", "ncessch": "090192000366"}, {"name": "Kennelly School", "lat": 41.7351, "lon": -72.6951, "proficiency": 0.05, "district": "Hartford School District", "city": "Hartford", "ncessch": "090192000368"}, {"name": "M. L. King Jr. Middle School", "lat": 41.785707, "lon": -72.696825, "proficiency": 0.05, "district": "Hartford School District", "city": "Hartford", "ncessch": "090192000369"}, {"name": "Kinsella Magnet School of Performing Arts: PK-8 Campus", "lat": 41.7549, "lon": -72.6654, "proficiency": 0.32, "district": "Hartford School District", "city": "Hartford", "ncessch": "090192000370"}, {"name": "McDonough Middle School", "lat": 41.7504, "lon": -72.6984, "proficiency": 0.025, "district": "Hartford School District", "city": "Hartford", "ncessch": "090192000371"}, {"name": "Naylor/CCSU Leadership Academy", "lat": 41.7306, "lon": -72.6749, "proficiency": 0.15, "district": "Hartford School District", "city": "Hartford", "ncessch": "090192000372"}, {"name": "SAND School", "lat": 41.7789, "lon": -72.6758, "proficiency": 0.1, "district": "Hartford School District", "city": "Hartford", "ncessch": "090192000377"}, {"name": "Milner Middle School", "lat": 41.797884, "lon": -72.67006, "proficiency": 0.05, "district": "Hartford School District", "city": "Hartford", "ncessch": "090192000381"}, {"name": "Webster Micro Society Magnet School", "lat": 41.768599, "lon": -72.712201, "proficiency": 0.495, "district": "Hartford School District", "city": "Hartford", "ncessch": "090192000383"}, {"name": "West Middle School", "lat": 41.770102, "lon": -72.696458, "proficiency": 0.05, "district": "Hartford School District", "city": "Hartford", "ncessch": "090192000384"}, {"name": "Wish Museum School", "lat": 41.7948, "lon": -72.6757, "proficiency": 0.05, "district": "Hartford School District", "city": "Hartford", "ncessch": "090192000385"}, {"name": "Hartford Magnet Trinity College Academy", "lat": 41.7508, "lon": -72.6867, "proficiency": 0.22, "district": "Hartford School District", "city": "Hartford", "ncessch": "090192001295"}, {"name": "Breakthrough Magnet School South", "lat": 41.745719, "lon": -72.706669, "proficiency": 0.495, "district": "Hartford School District", "city": "Hartford", "ncessch": "090192001369"}, {"name": "Sport and Medical Sciences Academy", "lat": 41.752516, "lon": -72.65991, "proficiency": 0.27, "district": "Hartford School District", "city": "Hartford", "ncessch": "090192001370"}, {"name": "Capital Preparatory Magnet School", "lat": 41.772597, "lon": -72.675659, "proficiency": 0.05, "district": "Hartford School District", "city": "Hartford", "ncessch": "090192001435"}, {"name": "Classical Magnet School", "lat": 41.773254, "lon": -72.701519, "proficiency": 0.075, "district": "Hartford School District", "city": "Hartford", "ncessch": "090192001478"}, {"name": "Montessori Magnet at Fisher School", "lat": 41.792, "lon": -72.7073, "proficiency": 0.75, "district": "Hartford School District", "city": "Hartford", "ncessch": "090192001531"}, {"name": "Global Communications Academy", "lat": 41.774828, "lon": -72.68196, "proficiency": 0.05, "district": "Hartford School District", "city": "Hartford", "ncessch": "090192001535"}, {"name": "Renzulli Gifted and Talented Academy", "lat": 41.773254, "lon": -72.701519, "proficiency": 0.3, "district": "Hartford School District", "city": "Hartford", "ncessch": "090192001582"}, {"name": "Betances STEM Magnet School", "lat": 41.744978, "lon": -72.672607, "proficiency": 0.17, "district": "Hartford School District", "city": "Hartford", "ncessch": "090192001616"}, {"name": "Hartland School", "lat": 41.997, "lon": -72.9069, "proficiency": 0.495, "district": "Hartland School District", "city": "East Hartland", "ncessch": "090195000386"}, {"name": "Kent Center School", "lat": 41.724241, "lon": -73.481847, "proficiency": 0.695, "district": "Kent School District", "city": "Kent", "ncessch": "090204000389"}, {"name": "Killingly Intermediate School", "lat": 41.8514, "lon": -71.8975, "proficiency": 0.32, "district": "Killingly School District", "city": "Dayville", "ncessch": "090207000393"}, {"name": "Lebanon Middle School", "lat": 41.625356, "lon": -72.237453, "proficiency": 0.42, "district": "Lebanon School District", "city": "Lebanon", "ncessch": "090213000028"}, {"name": "Ledyard Middle School", "lat": 41.4517, "lon": -72.0676, "proficiency": 0.42, "district": "Ledyard School District", "city": "Gales Ferry", "ncessch": "090216000402"}, {"name": "Lisbon Central School", "lat": 41.6043, "lon": -72.0154, "proficiency": 0.345, "district": "Lisbon School District", "city": "Lisbon", "ncessch": "090219000403"}, {"name": "Litchfield Middle School", "lat": 41.742928, "lon": -73.206907, "proficiency": 0.62, "district": "Litchfield School District", "city": "Litchfield", "ncessch": "090222001809"}, {"name": "Walter C. Polson Middle School", "lat": 41.2955, "lon": -72.6187, "proficiency": 0.52, "district": "Madison School District", "city": "Madison", "ncessch": "090228001480"}, {"name": "Illing Middle School", "lat": 41.785877, "lon": -72.512534, "proficiency": 0.18, "district": "Manchester School District", "city": "Manchester", "ncessch": "090231000421"}, {"name": "Mansfield Middle School", "lat": 41.7786, "lon": -72.2302, "proficiency": 0.72, "district": "Mansfield School District", "city": "Storrs", "ncessch": "090234000433"}, {"name": "Lincoln Middle School", "lat": 41.537, "lon": -72.8243, "proficiency": 0.22, "district": "Meriden School District", "city": "Meriden", "ncessch": "090240000447"}, {"name": "Washington Middle School", "lat": 41.5516, "lon": -72.7795, "proficiency": 0.27, "district": "Meriden School District", "city": "Meriden", "ncessch": "090240001194"}, {"name": "Beman Middle School", "lat": 41.540136, "lon": -72.64537, "proficiency": 0.25, "district": "Middletown School District", "city": "Middletown", "ncessch": "090249000459"}, {"name": "Harborside Middle School", "lat": 41.2241, "lon": -73.0601, "proficiency": 0.57, "district": "Milford School District", "city": "Milford", "ncessch": "090252000468"}, {"name": "West Shore Middle School", "lat": 41.1921, "lon": -73.0971, "proficiency": 0.52, "district": "Milford School District", "city": "Milford", "ncessch": "090252000474"}, {"name": "East Shore Middle School", "lat": 41.227514, "lon": -73.001821, "proficiency": 0.62, "district": "Milford School District", "city": "Milford", "ncessch": "090252000484"}, {"name": "Jockey Hollow School", "lat": 41.3438, "lon": -73.2331, "proficiency": 0.62, "district": "Monroe School District", "city": "Monroe", "ncessch": "090255000920"}, {"name": "Leonard J. Tyl Middle School", "lat": 41.455, "lon": -72.1678, "proficiency": 0.42, "district": "Montville School District", "city": "Oakdale", "ncessch": "090258000035"}, {"name": "City Hill Middle School", "lat": 41.4934, "lon": -73.0359, "proficiency": 0.32, "district": "Naugatuck School District", "city": "Naugatuck", "ncessch": "090264000501"}, {"name": "DiLoreto Elementary & Middle School", "lat": 41.6867, "lon": -72.8079, "proficiency": 0.025, "district": "New Britain School District", "city": "New Britain", "ncessch": "090267000510"}, {"name": "Pulaski Middle School", "lat": 41.6993, "lon": -72.7882, "proficiency": 0.075, "district": "New Britain School District", "city": "New Britain", "ncessch": "090267000518"}, {"name": "Slade Middle School", "lat": 41.6599, "lon": -72.8063, "proficiency": 0.025, "district": "New Britain School District", "city": "New Britian", "ncessch": "090267000522"}, {"name": "House of Arts Letters and Science (HALS) Academy", "lat": 41.665343, "lon": -72.761358, "proficiency": 0.845, "district": "New Britain School District", "city": "New Britain", "ncessch": "090267001445"}, {"name": "Saxe Middle School", "lat": 41.1312, "lon": -73.4854, "proficiency": 0.86, "district": "New Canaan School District", "city": "New Canaan", "ncessch": "090270000532"}, {"name": "New Fairfield Middle School", "lat": 41.4608, "lon": -73.508, "proficiency": 0.62, "district": "New Fairfield School District", "city": "New Fairfield", "ncessch": "090273001224"}, {"name": "Barnard Environmental Magnet School", "lat": 41.309847, "lon": -72.95245, "proficiency": 0.05, "district": "New Haven School District", "city": "New Haven", "ncessch": "090279000542"}, {"name": "Beecher School", "lat": 41.326075, "lon": -72.953685, "proficiency": 0.245, "district": "New Haven School District", "city": "New Haven", "ncessch": "090279000543"}, {"name": "Benjamin Jepson Magnet School", "lat": 41.298907, "lon": -72.887417, "proficiency": 0.15, "district": "New Haven School District", "city": "New Haven", "ncessch": "090279000544"}, {"name": "Betsy Ross Arts Magnet School", "lat": 41.288161, "lon": -72.933793, "proficiency": 0.27, "district": "New Haven School District", "city": "New Haven", "ncessch": "090279000545"}, {"name": "Bishop Woods Architecture and Design Magnet School", "lat": 41.327127, "lon": -72.869279, "proficiency": 0.245, "district": "New Haven School District", "city": "New Haven", "ncessch": "090279000546"}, {"name": "Family Academy of Multilingual Exploration", "lat": 41.309277, "lon": -72.898511, "proficiency": 0.05, "district": "New Haven School District", "city": "New Haven", "ncessch": "090279000549"}, {"name": "Clinton Avenue School", "lat": 41.318797, "lon": -72.891996, "proficiency": 0.15, "district": "New Haven School District", "city": "New Haven", "ncessch": "090279000550"}, {"name": "Davis Academy for Arts & Design Innovation", "lat": 41.32865, "lon": -72.973396, "proficiency": 0.245, "district": "New Haven School District", "city": "New Haven", "ncessch": "090279000551"}, {"name": "East Rock Community Magnet School", "lat": 41.31957, "lon": -72.907294, "proficiency": 0.245, "district": "New Haven School District", "city": "New Haven", "ncessch": "090279000552"}, {"name": "Edgewood School", "lat": 41.318076, "lon": -72.960692, "proficiency": 0.05, "district": "New Haven School District", "city": "New Haven", "ncessch": "090279000553"}, {"name": "Fair Haven School", "lat": 41.308476, "lon": -72.893326, "proficiency": 0.025, "district": "New Haven School District", "city": "New Haven", "ncessch": "090279000554"}, {"name": "Hill Central Music Academy", "lat": 41.29519, "lon": -72.936271, "proficiency": 0.15, "district": "New Haven School District", "city": "New Haven", "ncessch": "090279000559"}, {"name": "Nathan Hale School", "lat": 41.269784, "lon": -72.897434, "proficiency": 0.15, "district": "New Haven School District", "city": "New Haven", "ncessch": "090279000568"}, {"name": "Augusta Lewis Troup School", "lat": 41.313383, "lon": -72.942201, "proficiency": 0.05, "district": "New Haven School District", "city": "New Haven", "ncessch": "090279000580"}, {"name": "Truman School", "lat": 41.292826, "lon": -72.94123, "proficiency": 0.05, "district": "New Haven School District", "city": "New Haven", "ncessch": "090279000581"}, {"name": "Conte/West Hills Magnet School", "lat": 41.30418, "lon": -72.915595, "proficiency": 0.17, "district": "New Haven School District", "city": "New Haven", "ncessch": "090279000584"}, {"name": "Wexler/Grant Community School", "lat": 41.319175, "lon": -72.931017, "proficiency": 0.15, "district": "New Haven School District", "city": "New Haven", "ncessch": "090279000586"}, {"name": "Worthington Hooker School", "lat": 41.323798, "lon": -72.914196, "proficiency": 0.645, "district": "New Haven School District", "city": "New Haven", "ncessch": "090279000588"}, {"name": "John S. Martinez Sea and Sky STEM School", "lat": 41.305239, "lon": -72.903103, "proficiency": 0.245, "district": "New Haven School District", "city": "New Haven", "ncessch": "090279001386"}, {"name": "Ross/Woodward School", "lat": 41.323691, "lon": -72.878262, "proficiency": 0.12, "district": "New Haven School District", "city": "New Haven", "ncessch": "090279001387"}, {"name": "King/Robinson Magnet School", "lat": 41.333863, "lon": -72.940094, "proficiency": 0.15, "district": "New Haven School District", "city": "New Haven", "ncessch": "090279001388"}, {"name": "John C. Daniels", "lat": 41.300709, "lon": -72.938325, "proficiency": 0.05, "district": "New Haven School District", "city": "New Haven", "ncessch": "090279001443"}, {"name": "Roberto Clemente Leadership Academy for Global Awareness", "lat": 41.297562, "lon": -72.935355, "proficiency": 0.05, "district": "New Haven School District", "city": "New Haven", "ncessch": "090279001483"}, {"name": "Celentano BioTech Health and Medical Magnet School", "lat": 41.32468, "lon": -72.92213, "proficiency": 0.15, "district": "New Haven School District", "city": "New Haven", "ncessch": "090279001484"}, {"name": "Engineering - Science University Magnet School", "lat": 41.290215, "lon": -72.966379, "proficiency": 0.62, "district": "New Haven School District", "city": "West Haven", "ncessch": "090279001519"}, {"name": "Mauro-Sheridan Magnet School", "lat": 41.327406, "lon": -72.965725, "proficiency": 0.345, "district": "New Haven School District", "city": "New Haven", "ncessch": "090279001564"}, {"name": "Brennan Rogers School", "lat": 41.343968, "lon": -72.958559, "proficiency": 0.15, "district": "New Haven School District", "city": "New Haven", "ncessch": "090279001585"}, {"name": "Bennie Dover Jackson Middle School", "lat": 41.358286, "lon": -72.107218, "proficiency": 0.12, "district": "New London School District", "city": "New London", "ncessch": "090282000596"}, {"name": "Science and Technology Magnet Pathway for High School Grades", "lat": 41.359647, "lon": -72.121607, "proficiency": 0.17, "district": "New London School District", "city": "New London", "ncessch": "090282001913"}, {"name": "New London Visual and Performing Arts Magnet School", "lat": 41.358286, "lon": -72.107218, "proficiency": 0.245, "district": "New London School District", "city": "New London", "ncessch": "090282001919"}, {"name": "Schaghticoke Middle School", "lat": 41.6202, "lon": -73.3926, "proficiency": 0.51, "district": "New Milford School District", "city": "New Milford", "ncessch": "090285000603"}, {"name": "Martin Kellogg Middle School", "lat": 41.7086, "lon": -72.7326, "proficiency": 0.57, "district": "Newington School District", "city": "Newington", "ncessch": "090288000608"}, {"name": "John Wallace Middle School", "lat": 41.6697, "lon": -72.7342, "proficiency": 0.42, "district": "Newington School District", "city": "Newington", "ncessch": "090288001120"}, {"name": "Newtown Middle School", "lat": 41.4119, "lon": -73.3004, "proficiency": 0.67, "district": "Newtown School District", "city": "Newtown", "ncessch": "090291000616"}, {"name": "North Branford Intermediate School", "lat": 41.3337, "lon": -72.8008, "proficiency": 0.52, "district": "North Branford School District", "city": "North Branford", "ncessch": "090297000622"}, {"name": "North Canaan Elementary School", "lat": 42.032716, "lon": -73.332516, "proficiency": 0.495, "district": "North Canaan School District", "city": "North Canaan", "ncessch": "090300000626"}, {"name": "North Haven Middle School", "lat": 41.374828, "lon": -72.861067, "proficiency": 0.67, "district": "North Haven School District", "city": "North Haven", "ncessch": "090303000632"}, {"name": "Wheeler High School", "lat": 41.438738, "lon": -71.887348, "proficiency": 0.67, "district": "North Stonington School District", "city": "North Stonington", "ncessch": "090306000635"}, {"name": "Nathan Hale Middle School", "lat": 41.11669, "lon": -73.394757, "proficiency": 0.32, "district": "Norwalk School District", "city": "Norwalk", "ncessch": "090309000653"}, {"name": "Ponus Ridge STEAM Academy", "lat": 41.123085, "lon": -73.440654, "proficiency": 0.27, "district": "Norwalk School District", "city": "Norwalk", "ncessch": "090309000656"}, {"name": "Roton Middle School", "lat": 41.077669, "lon": -73.435807, "proficiency": 0.42, "district": "Norwalk School District", "city": "Norwalk", "ncessch": "090309000657"}, {"name": "West Rocks Middle School", "lat": 41.134749, "lon": -73.414861, "proficiency": 0.42, "district": "Norwalk School District", "city": "Norwalk", "ncessch": "090309000661"}, {"name": "Kelly STEAM Magnet Middle School", "lat": 41.547073, "lon": -72.078782, "proficiency": 0.22, "district": "Norwich School District", "city": "Norwich", "ncessch": "090312000670"}, {"name": "Teachers' Memorial Global Studies Magnet Middle School", "lat": 41.528968, "lon": -72.09667, "proficiency": 0.12, "district": "Norwich School District", "city": "Norwich", "ncessch": "090312000674"}, {"name": "Old Saybrook Middle School", "lat": 41.2895, "lon": -72.3717, "proficiency": 0.62, "district": "Old Saybrook School District", "city": "Old Saybrook", "ncessch": "090318000007"}, {"name": "Oxford Middle School", "lat": 41.423489, "lon": -73.141404, "proficiency": 0.52, "district": "Oxford School District", "city": "Oxford", "ncessch": "090324000690"}, {"name": "Plainfield Central School", "lat": 41.682583, "lon": -71.931079, "proficiency": 0.32, "district": "Plainfield School District", "city": "Plainfield", "ncessch": "090327000693"}, {"name": "Middle School of Plainville", "lat": 41.684, "lon": -72.886, "proficiency": 0.57, "district": "Plainville School District", "city": "Plainville", "ncessch": "090330000048"}, {"name": "Eli Terry Jr. Middle School", "lat": 41.680049, "lon": -73.00969, "proficiency": 0.52, "district": "Plymouth School District", "city": "Terryville", "ncessch": "090333000705"}, {"name": "Pomfret Community School", "lat": 41.859264, "lon": -71.960054, "proficiency": 0.545, "district": "Pomfret School District", "city": "Pomfret Center", "ncessch": "090336000709"}, {"name": "Portland Middle School", "lat": 41.5803, "lon": -72.6221, "proficiency": 0.67, "district": "Portland School District", "city": "Portland", "ncessch": "090339000713"}, {"name": "Preston Plains School", "lat": 41.489449, "lon": -71.985011, "proficiency": 0.345, "district": "Preston School District", "city": "Preston", "ncessch": "090342000717"}, {"name": "Putnam Middle School", "lat": 41.9258, "lon": -71.9229, "proficiency": 0.37, "district": "Putnam School District", "city": "Putnam", "ncessch": "090348000720"}, {"name": "John Read Middle School", "lat": 41.3058, "lon": -73.402, "proficiency": 0.67, "district": "Redding School District", "city": "Redding", "ncessch": "090351000721"}, {"name": "Wamogo Regional High School", "lat": 41.727807, "lon": -73.22536, "proficiency": 0.62, "district": "Regional School District 06", "city": "Litchfield", "ncessch": "090351500725"}, {"name": "Har-Bur Middle School", "lat": 41.779884, "lon": -72.98668, "proficiency": 0.62, "district": "Regional School District 10", "city": "Burlington", "ncessch": "090352000727"}, {"name": "Shepaug Valley School", "lat": 41.6015, "lon": -73.3063, "proficiency": 0.545, "district": "Regional School District 12", "city": "Washington", "ncessch": "090353001632"}, {"name": "Frank Ward Strong School", "lat": 41.4762, "lon": -72.679, "proficiency": 0.67, "district": "Regional School District 13", "city": "Durham", "ncessch": "090353500739"}, {"name": "Woodbury Middle School", "lat": 41.54927, "lon": -73.211245, "proficiency": 0.32, "district": "Regional School District 14", "city": "Woodbury", "ncessch": "090353600746"}, {"name": "Memorial Middle School", "lat": 41.543241, "lon": -73.092853, "proficiency": 0.57, "district": "Regional School District 15", "city": "Middlebury", "ncessch": "090353700748"}, {"name": "Rochambeau Middle School", "lat": 41.4676, "lon": -73.2234, "proficiency": 0.72, "district": "Regional School District 15", "city": "Southbury", "ncessch": "090353700751"}, {"name": "Long River Middle School", "lat": 41.5041, "lon": -72.9761, "proficiency": 0.47, "district": "Regional School District 16", "city": "Prospect", "ncessch": "090353800756"}, {"name": "Haddam-Killingworth Middle School", "lat": 41.382403, "lon": -72.563901, "proficiency": 0.47, "district": "Regional School District 17", "city": "Killingworth", "ncessch": "090353901201"}, {"name": "Lyme-Old Lyme Middle School", "lat": 41.3191, "lon": -72.3277, "proficiency": 0.72, "district": "Regional School District 18", "city": "Old Lyme", "ncessch": "090354001123"}, {"name": "Parish Hill High School", "lat": 41.7514, "lon": -72.1048, "proficiency": 0.345, "district": "Regional School District 11", "city": "Chaplin", "ncessch": "090357000765"}, {"name": "John Winthrop Middle School", "lat": 41.364563, "lon": -72.456226, "proficiency": 0.62, "district": "Regional School District 04", "city": "Deep River", "ncessch": "090363000767"}, {"name": "Amity Middle School: Orange", "lat": 41.3025, "lon": -73.0041, "proficiency": 0.77, "district": "Regional School District 05", "city": "Orange", "ncessch": "090366000769"}, {"name": "Amity Middle School: Bethany", "lat": 41.4176, "lon": -73.0062, "proficiency": 0.87, "district": "Regional School District 05", "city": "Bethany", "ncessch": "090366001114"}, {"name": "Northwestern Regional Middle School", "lat": 41.913628, "lon": -73.04741, "proficiency": 0.47, "district": "Regional School District 07", "city": "Winsted", "ncessch": "090372001226"}, {"name": "RHAM Middle School", "lat": 41.6638, "lon": -72.3665, "proficiency": 0.57, "district": "Regional School District 08", "city": "Hebron", "ncessch": "090375001210"}, {"name": "East Ridge Middle School", "lat": 41.2772, "lon": -73.4908, "proficiency": 0.72, "district": "Ridgefield School District", "city": "Ridgefield", "ncessch": "090381000776"}, {"name": "Scotts Ridge Middle School", "lat": 41.3271, "lon": -73.5343, "proficiency": 0.72, "district": "Ridgefield School District", "city": "Ridgefield", "ncessch": "090381001361"}, {"name": "Albert D. Griswold Middle School", "lat": 41.6669, "lon": -72.6496, "proficiency": 0.57, "district": "Rocky Hill School District", "city": "Rocky Hill", "ncessch": "090384000782"}, {"name": "Salem Elementary School", "lat": 41.4875, "lon": -72.2737, "proficiency": 0.57, "district": "Salem School District", "city": "Salem", "ncessch": "090390000787"}, {"name": "Salisbury Central School", "lat": 41.971547, "lon": -73.438737, "proficiency": 0.9, "district": "Salisbury School District", "city": "Lakeville", "ncessch": "090393000788"}, {"name": "Seymour Middle School", "lat": 41.3763, "lon": -73.1095, "proficiency": 0.42, "district": "Seymour School District", "city": "Seymour", "ncessch": "090399000794"}, {"name": "Sharon Center School", "lat": 41.882285, "lon": -73.471434, "proficiency": 0.75, "district": "Sharon School District", "city": "Sharon", "ncessch": "090402000795"}, {"name": "Intermediate School", "lat": 41.3147, "lon": -73.1196, "proficiency": 0.55, "district": "Shelton School District", "city": "Shelton", "ncessch": "090405000801"}, {"name": "Sherman School", "lat": 41.5782, "lon": -73.4959, "proficiency": 0.695, "district": "Sherman School District", "city": "Sherman", "ncessch": "090408000808"}, {"name": "Henry James Memorial School", "lat": 41.884, "lon": -72.814, "proficiency": 0.72, "district": "Simsbury School District", "city": "Simsbury", "ncessch": "090411000811"}, {"name": "Mabelle B. Avery Middle School", "lat": 41.979856, "lon": -72.461004, "proficiency": 0.67, "district": "Somers School District", "city": "Somers", "ncessch": "090414000818"}, {"name": "Timothy Edwards School", "lat": 41.8265, "lon": -72.5253, "proficiency": 0.67, "district": "South Windsor School District", "city": "South Windsor", "ncessch": "090417000827"}, {"name": "John F. Kennedy Middle School", "lat": 41.5781, "lon": -72.8936, "proficiency": 0.57, "district": "Southington School District", "city": "Plantsville", "ncessch": "090423000832"}, {"name": "Joseph A. Depaolo Middle School", "lat": 41.6074, "lon": -72.8565, "proficiency": 0.57, "district": "Southington School District", "city": "Southington", "ncessch": "090423000833"}, {"name": "Sayles School", "lat": 41.622848, "lon": -72.08577, "proficiency": 0.3, "district": "Sprague School District", "city": "Baltic", "ncessch": "090426000842"}, {"name": "Stafford Middle School", "lat": 41.966263, "lon": -72.306081, "proficiency": 0.47, "district": "Stafford School District", "city": "Stafford Springs", "ncessch": "090429000061"}, {"name": "Scofield Middle School", "lat": 41.1381, "lon": -73.5575, "proficiency": 0.47, "district": "Stamford School District", "city": "Stamford", "ncessch": "090432000009"}, {"name": "Cloonan School", "lat": 41.0595, "lon": -73.5472, "proficiency": 0.27, "district": "Stamford School District", "city": "Stamford", "ncessch": "090432000851"}, {"name": "Dolan School", "lat": 41.0788, "lon": -73.524, "proficiency": 0.37, "district": "Stamford School District", "city": "Stamford", "ncessch": "090432000853"}, {"name": "Rogers International School", "lat": 41.052702, "lon": -73.513688, "proficiency": 0.57, "district": "Stamford School District", "city": "Stamford", "ncessch": "090432000864"}, {"name": "Turn of River School", "lat": 41.0987, "lon": -73.5415, "proficiency": 0.32, "district": "Stamford School District", "city": "Stamford", "ncessch": "090432000870"}, {"name": "Rippowam Middle School", "lat": 41.0846, "lon": -73.5482, "proficiency": 0.27, "district": "Stamford School District", "city": "Stamford", "ncessch": "090432001353"}, {"name": "Sterling Community School", "lat": 41.70527, "lon": -71.836563, "proficiency": 0.245, "district": "Sterling School District", "city": "Sterling", "ncessch": "090435001491"}, {"name": "Stonington Middle School", "lat": 41.357984, "lon": -71.944267, "proficiency": 0.67, "district": "Stonington School District", "city": "Mystic", "ncessch": "090438000877"}, {"name": "Harry B. Flood Middle School", "lat": 41.239124, "lon": -73.119322, "proficiency": 0.27, "district": "Stratford School District", "city": "Stratford", "ncessch": "090444000888"}, {"name": "David Wooster Middle School", "lat": 41.211606, "lon": -73.140679, "proficiency": 0.22, "district": "Stratford School District", "city": "Stratford", "ncessch": "090444000900"}, {"name": "Suffield Middle School", "lat": 41.9849, "lon": -72.6636, "proficiency": 0.67, "district": "Suffield School District", "city": "Suffield", "ncessch": "090447000902"}, {"name": "Thomaston High School", "lat": 41.6572, "lon": -73.095, "proficiency": 0.42, "district": "Thomaston School District", "city": "Thomaston", "ncessch": "090450000908"}, {"name": "Thompson Middle School", "lat": 41.976469, "lon": -71.8986, "proficiency": 0.17, "district": "Thompson School District", "city": "North Grosvenordale", "ncessch": "090453000910"}, {"name": "Tolland Middle School", "lat": 41.871711, "lon": -72.349448, "proficiency": 0.57, "district": "Tolland School District", "city": "Tolland", "ncessch": "090456000915"}, {"name": "Torrington Middle School", "lat": 41.8338, "lon": -73.07, "proficiency": 0.25, "district": "Torrington School District", "city": "Torrington", "ncessch": "090459000925"}, {"name": "Hillcrest Middle School", "lat": 41.261, "lon": -73.1964, "proficiency": 0.77, "district": "Trumbull School District", "city": "Trumbull", "ncessch": "090462000930"}, {"name": "Madison Middle School", "lat": 41.254371, "lon": -73.244508, "proficiency": 0.62, "district": "Trumbull School District", "city": "Trumbull", "ncessch": "090462000933"}, {"name": "Union School", "lat": 41.9874, "lon": -72.162, "proficiency": 0.75, "district": "Union School District", "city": "Union", "ncessch": "090465000938"}, {"name": "Vernon Center Middle School", "lat": 41.8419, "lon": -72.4624, "proficiency": 0.37, "district": "Vernon School District", "city": "Vernon", "ncessch": "090468000947"}, {"name": "Voluntown Elementary School", "lat": 41.5745, "lon": -71.8664, "proficiency": 0.745, "district": "Voluntown School District", "city": "Voluntown", "ncessch": "090471000949"}, {"name": "Dag Hammarskjold Middle School", "lat": 41.4344, "lon": -72.8177, "proficiency": 0.32, "district": "Wallingford School District", "city": "Wallingford", "ncessch": "090474000951"}, {"name": "James H. Moran Middle School", "lat": 41.4849, "lon": -72.8314, "proficiency": 0.47, "district": "Wallingford School District", "city": "Wallingford", "ncessch": "090474000954"}, {"name": "Carrington School", "lat": 41.57304, "lon": -73.084816, "proficiency": 0.445, "district": "Waterbury School District", "city": "Waterbury", "ncessch": "090483000970"}, {"name": "Gilmartin School", "lat": 41.524964, "lon": -73.029034, "proficiency": 0.05, "district": "Waterbury School District", "city": "Waterbury", "ncessch": "090483000976"}, {"name": "Michael F. Wallace Middle School", "lat": 41.545949, "lon": -72.9723, "proficiency": 0.1, "district": "Waterbury School District", "city": "Waterbury", "ncessch": "090483000983"}, {"name": "West Side Middle School", "lat": 41.5453, "lon": -73.063, "proficiency": 0.08, "district": "Waterbury School District", "city": "Waterbury", "ncessch": "090483000991"}, {"name": "North End Middle School", "lat": 41.6042, "lon": -73.0291, "proficiency": 0.13, "district": "Waterbury School District", "city": "Waterbury", "ncessch": "090483001115"}, {"name": "Duggan School", "lat": 41.5434, "lon": -73.0471, "proficiency": 0.15, "district": "Waterbury School District", "city": "Waterbury", "ncessch": "090483001602"}, {"name": "Reed School", "lat": 41.5657, "lon": -73.0277, "proficiency": 0.245, "district": "Waterbury School District", "city": "Waterbury", "ncessch": "090483001613"}, {"name": "Clark Lane Middle School", "lat": 41.3515, "lon": -72.1261, "proficiency": 0.62, "district": "Waterford School District", "city": "Waterford", "ncessch": "090486000994"}, {"name": "Swift Middle School", "lat": 41.5859, "lon": -73.0921, "proficiency": 0.47, "district": "Watertown School District", "city": "Oakville", "ncessch": "090489001007"}, {"name": "King Philip Middle School", "lat": 41.7944, "lon": -72.7415, "proficiency": 0.67, "district": "West Hartford School District", "city": "West Hartford", "ncessch": "090492001017"}, {"name": "Sedgwick Middle School", "lat": 41.7518, "lon": -72.755, "proficiency": 0.52, "district": "West Hartford School District", "city": "West Hartford", "ncessch": "090492001021"}, {"name": "Bristow Middle School", "lat": 41.7688, "lon": -72.7174, "proficiency": 0.62, "district": "West Hartford School District", "city": "West Hartford", "ncessch": "090492001419"}, {"name": "Harry M. Bailey Middle School", "lat": 41.253627, "lon": -72.978307, "proficiency": 0.36, "district": "West Haven School District", "city": "West Haven", "ncessch": "090495001036"}, {"name": "Westbrook Middle School", "lat": 41.2989, "lon": -72.4552, "proficiency": 0.745, "district": "Westbrook School District", "city": "Westbrook", "ncessch": "090498001043"}, {"name": "Weston Middle School", "lat": 41.2131, "lon": -73.3803, "proficiency": 0.82, "district": "Weston School District", "city": "Weston", "ncessch": "090501001047"}, {"name": "Bedford Middle School", "lat": 41.1584, "lon": -73.3294, "proficiency": 0.87, "district": "Westport School District", "city": "Westport", "ncessch": "090504001048"}, {"name": "Coleytown Middle School", "lat": 41.178271, "lon": -73.350886, "proficiency": 0.77, "district": "Westport School District", "city": "Westport", "ncessch": "090504001052"}, {"name": "Silas Deane Middle School", "lat": 41.7101, "lon": -72.6642, "proficiency": 0.57, "district": "Wethersfield School District", "city": "Wethersfield", "ncessch": "090507001066"}, {"name": "Hall Memorial School", "lat": 41.8515, "lon": -72.3022, "proficiency": 0.545, "district": "Willington School District", "city": "West Willington", "ncessch": "090510001070"}, {"name": "Middlebrook School", "lat": 41.2021, "lon": -73.4383, "proficiency": 0.68, "district": "Wilton School District", "city": "Wilton", "ncessch": "090513001073"}, {"name": "Windham Middle School", "lat": 41.722995, "lon": -72.22759, "proficiency": 0.22, "district": "Windham School District", "city": "Willimantic", "ncessch": "090519001081"}, {"name": "Charles H. Barrows STEM Academy", "lat": 41.7181, "lon": -72.1764, "proficiency": 0.57, "district": "Windham School District", "city": "North Windham", "ncessch": "090519001640"}, {"name": "Sage Park Middle School", "lat": 41.842, "lon": -72.6584, "proficiency": 0.42, "district": "Windsor School District", "city": "Windsor", "ncessch": "090522001095"}, {"name": "Windsor Locks Middle School", "lat": 41.928, "lon": -72.632, "proficiency": 0.27, "district": "Windsor Locks School District", "city": "Windsor Locks", "ncessch": "090525001101"}, {"name": "Tyrrell Middle School", "lat": 41.5565, "lon": -72.9683, "proficiency": 0.62, "district": "Wolcott School District", "city": "Wolcott", "ncessch": "090528001102"}, {"name": "Woodstock Middle School", "lat": 41.927319, "lon": -71.955642, "proficiency": 0.47, "district": "Woodstock School District", "city": "Woodstock", "ncessch": "090537000573"}, {"name": "The Gilbert School", "lat": 41.9306, "lon": -73.0725, "proficiency": 0.37, "district": "The Gilbert School District", "city": "Winsted", "ncessch": "090537201222"}], "districts": [{"name": "Jumoke Academy District", "lat": 41.769841, "lon": -72.69402, "proficiency": 0.245, "schoolCount": 1}, {"name": "Odyssey Community School District", "lat": 41.7817, "lon": -72.5507, "proficiency": 0.345, "schoolCount": 1}, {"name": "Integrated Day Charter School District", "lat": 41.5113, "lon": -72.0776, "proficiency": 0.3, "schoolCount": 1}, {"name": "Interdistrict School for Arts and Comm District", "lat": 41.355875, "lon": -72.098199, "proficiency": 0.075, "schoolCount": 1}, {"name": "The Bridge Academy District", "lat": 41.183886, "lon": -73.184309, "proficiency": 0.05, "schoolCount": 1}, {"name": "Side By Side Charter School District", "lat": 41.0956, "lon": -73.42, "proficiency": 0.695, "schoolCount": 1}, {"name": "Amistad Academy District", "lat": 41.311152, "lon": -72.937407, "proficiency": 0.47, "schoolCount": 1}, {"name": "New Beginnings Inc Family Academy District", "lat": 41.169724, "lon": -73.198901, "proficiency": 0.1, "schoolCount": 1}, {"name": "Park City Prep Charter School District", "lat": 41.16961, "lon": -73.2124, "proficiency": 0.37, "schoolCount": 1}, {"name": "Ansonia School District", "lat": 41.341169, "lon": -73.084317, "proficiency": 0.22, "schoolCount": 1}, {"name": "Area Cooperative Educational Services", "lat": 41.471654, "lon": -72.9513405, "proficiency": 0.285, "schoolCount": 2}, {"name": "Ashford School District", "lat": 41.892539, "lon": -72.168933, "proficiency": 0.445, "schoolCount": 1}, {"name": "Avon School District", "lat": 41.791949, "lon": -72.86559, "proficiency": 0.77, "schoolCount": 1}, {"name": "Highville Charter School District", "lat": 41.324561, "lon": -72.927031, "proficiency": 0.1, "schoolCount": 1}, {"name": "Achievement First Bridgeport Academy District", "lat": 41.192608, "lon": -73.176172, "proficiency": 0.37, "schoolCount": 1}, {"name": "Berlin School District", "lat": 41.616, "lon": -72.7634, "proficiency": 0.67, "schoolCount": 1}, {"name": "Achievement First Hartford Academy District", "lat": 41.784008, "lon": -72.697292, "proficiency": 0.47, "schoolCount": 1}, {"name": "Elm City College Preparatory School District", "lat": 41.313812, "lon": -72.903377, "proficiency": 0.545, "schoolCount": 1}, {"name": "Great Oaks Charter School District", "lat": 41.167212, "lon": -73.208527, "proficiency": 0.17, "schoolCount": 1}, {"name": "Capital Preparatory Harbor School District", "lat": 41.175156, "lon": -73.188489, "proficiency": 0.445, "schoolCount": 1}, {"name": "Bethel School District", "lat": 41.3814, "lon": -73.3925, "proficiency": 0.62, "schoolCount": 1}, {"name": "Bloomfield School District", "lat": 41.8469695, "lon": -72.725504, "proficiency": 0.235, "schoolCount": 2}, {"name": "Bolton School District", "lat": 41.7756, "lon": -72.4409, "proficiency": 0.62, "schoolCount": 1}, {"name": "Bozrah School District", "lat": 41.5635, "lon": -72.1536, "proficiency": 0.695, "schoolCount": 1}, {"name": "Branford School District", "lat": 41.284882, "lon": -72.781953, "proficiency": 0.47, "schoolCount": 1}, {"name": "Bridgeport School District", "lat": 41.191753909090906, "lon": -73.19445845454545, "proficiency": 0.133, "schoolCount": 22}, {"name": "Bristol School District", "lat": 41.690925, "lon": -72.9377, "proficiency": 0.395, "schoolCount": 4}, {"name": "Brookfield School District", "lat": 41.4406, "lon": -73.3758, "proficiency": 0.72, "schoolCount": 1}, {"name": "Brooklyn School District", "lat": 41.7853, "lon": -71.9355, "proficiency": 0.47, "schoolCount": 1}, {"name": "Canaan School District", "lat": 41.9554, "lon": -73.3594, "proficiency": 0.245, "schoolCount": 1}, {"name": "Canterbury School District", "lat": 41.6983, "lon": -71.9769, "proficiency": 0.445, "schoolCount": 1}, {"name": "Canton School District", "lat": 41.8259, "lon": -72.9165, "proficiency": 0.67, "schoolCount": 1}, {"name": "Capitol Region Education Council", "lat": 41.7928878, "lon": -72.701202, "proficiency": 0.2, "schoolCount": 5}, {"name": "Cheshire School District", "lat": 41.511094, "lon": -72.904504, "proficiency": 0.73, "schoolCount": 1}, {"name": "Clinton School District", "lat": 41.297227, "lon": -72.519756, "proficiency": 0.57, "schoolCount": 1}, {"name": "Colchester School District", "lat": 41.575509, "lon": -72.320099, "proficiency": 0.72, "schoolCount": 1}, {"name": "Columbia School District", "lat": 41.704517, "lon": -72.300792, "proficiency": 0.345, "schoolCount": 1}, {"name": "Cooperative Educational Services", "lat": 41.204205, "lon": -73.161572, "proficiency": 0.245, "schoolCount": 1}, {"name": "Cornwall School District", "lat": 41.876679, "lon": -73.341298, "proficiency": 0.75, "schoolCount": 1}, {"name": "Coventry School District", "lat": 41.781, "lon": -72.3113, "proficiency": 0.57, "schoolCount": 1}, {"name": "Cromwell School District", "lat": 41.628018, "lon": -72.657447, "proficiency": 0.62, "schoolCount": 1}, {"name": "Danbury School District", "lat": 41.392029, "lon": -73.45580733333334, "proficiency": 0.23, "schoolCount": 3}, {"name": "Darien School District", "lat": 41.0737, "lon": -73.4972, "proficiency": 0.84, "schoolCount": 1}, {"name": "Derby School District", "lat": 41.334103, "lon": -73.099152, "proficiency": 0.22, "schoolCount": 1}, {"name": "East Granby School District", "lat": 41.9327, "lon": -72.7283, "proficiency": 0.62, "schoolCount": 1}, {"name": "East Haddam School District", "lat": 41.520067, "lon": -72.444979, "proficiency": 0.72, "schoolCount": 1}, {"name": "East Hampton School District", "lat": 41.5682, "lon": -72.5228, "proficiency": 0.57, "schoolCount": 1}, {"name": "East Hartford School District", "lat": 41.77185, "lon": -72.6014, "proficiency": 0.29, "schoolCount": 2}, {"name": "East Haven School District", "lat": 41.2806, "lon": -72.87155, "proficiency": 0.3325, "schoolCount": 2}, {"name": "East Lyme School District", "lat": 41.3503, "lon": -72.2137, "proficiency": 0.67, "schoolCount": 1}, {"name": "East Windsor School District", "lat": 41.9221, "lon": -72.5467, "proficiency": 0.27, "schoolCount": 1}, {"name": "Eastford School District", "lat": 41.90296, "lon": -72.082232, "proficiency": 0.495, "schoolCount": 1}, {"name": "Easton School District", "lat": 41.2451, "lon": -73.2708, "proficiency": 0.62, "schoolCount": 1}, {"name": "Ellington School District", "lat": 41.8794, "lon": -72.4602, "proficiency": 0.52, "schoolCount": 1}, {"name": "Enfield School District", "lat": 41.9568, "lon": -72.5636, "proficiency": 0.22, "schoolCount": 1}, {"name": "Fairfield School District", "lat": 41.15963333333334, "lon": -73.25603333333333, "proficiency": 0.7, "schoolCount": 3}, {"name": "Farmington School District", "lat": 41.7212, "lon": -72.7991, "proficiency": 0.73, "schoolCount": 1}, {"name": "Franklin School District", "lat": 41.6313, "lon": -72.1255, "proficiency": 0.245, "schoolCount": 1}, {"name": "Glastonbury School District", "lat": 41.724311, "lon": -72.577783, "proficiency": 0.7, "schoolCount": 1}, {"name": "Granby School District", "lat": 41.9611, "lon": -72.7914, "proficiency": 0.52, "schoolCount": 1}, {"name": "Greenwich School District", "lat": 41.031095, "lon": -73.61275566666667, "proficiency": 0.67, "schoolCount": 3}, {"name": "Griswold School District", "lat": 41.5976, "lon": -71.98, "proficiency": 0.62, "schoolCount": 1}, {"name": "Guilford School District", "lat": 41.2921, "lon": -72.6849, "proficiency": 0.83, "schoolCount": 1}, {"name": "Hamden School District", "lat": 41.3797, "lon": -72.9122, "proficiency": 0.37, "schoolCount": 1}, {"name": "Hartford School District", "lat": 41.76267664, "lon": -72.68757976, "proficiency": 0.1924, "schoolCount": 25}, {"name": "Hartland School District", "lat": 41.997, "lon": -72.9069, "proficiency": 0.495, "schoolCount": 1}, {"name": "Kent School District", "lat": 41.724241, "lon": -73.481847, "proficiency": 0.695, "schoolCount": 1}, {"name": "Killingly School District", "lat": 41.8514, "lon": -71.8975, "proficiency": 0.32, "schoolCount": 1}, {"name": "Lebanon School District", "lat": 41.625356, "lon": -72.237453, "proficiency": 0.42, "schoolCount": 1}, {"name": "Ledyard School District", "lat": 41.4517, "lon": -72.0676, "proficiency": 0.42, "schoolCount": 1}, {"name": "Lisbon School District", "lat": 41.6043, "lon": -72.0154, "proficiency": 0.345, "schoolCount": 1}, {"name": "Litchfield School District", "lat": 41.742928, "lon": -73.206907, "proficiency": 0.62, "schoolCount": 1}, {"name": "Madison School District", "lat": 41.2955, "lon": -72.6187, "proficiency": 0.52, "schoolCount": 1}, {"name": "Manchester School District", "lat": 41.785877, "lon": -72.512534, "proficiency": 0.18, "schoolCount": 1}, {"name": "Mansfield School District", "lat": 41.7786, "lon": -72.2302, "proficiency": 0.72, "schoolCount": 1}, {"name": "Meriden School District", "lat": 41.5443, "lon": -72.80189999999999, "proficiency": 0.245, "schoolCount": 2}, {"name": "Middletown School District", "lat": 41.540136, "lon": -72.64537, "proficiency": 0.25, "schoolCount": 1}, {"name": "Milford School District", "lat": 41.21457133333333, "lon": -73.053007, "proficiency": 0.57, "schoolCount": 3}, {"name": "Monroe School District", "lat": 41.3438, "lon": -73.2331, "proficiency": 0.62, "schoolCount": 1}, {"name": "Montville School District", "lat": 41.455, "lon": -72.1678, "proficiency": 0.42, "schoolCount": 1}, {"name": "Naugatuck School District", "lat": 41.4934, "lon": -73.0359, "proficiency": 0.32, "schoolCount": 1}, {"name": "New Britain School District", "lat": 41.67781075, "lon": -72.79093950000001, "proficiency": 0.2425, "schoolCount": 4}, {"name": "New Canaan School District", "lat": 41.1312, "lon": -73.4854, "proficiency": 0.86, "schoolCount": 1}, {"name": "New Fairfield School District", "lat": 41.4608, "lon": -73.508, "proficiency": 0.62, "schoolCount": 1}, {"name": "New Haven School District", "lat": 41.31180118518518, "lon": -72.92621166666666, "proficiency": 0.1841, "schoolCount": 27}, {"name": "New London School District", "lat": 41.35873966666667, "lon": -72.11201433333333, "proficiency": 0.1783, "schoolCount": 3}, {"name": "New Milford School District", "lat": 41.6202, "lon": -73.3926, "proficiency": 0.51, "schoolCount": 1}, {"name": "Newington School District", "lat": 41.68915, "lon": -72.7334, "proficiency": 0.495, "schoolCount": 2}, {"name": "Newtown School District", "lat": 41.4119, "lon": -73.3004, "proficiency": 0.67, "schoolCount": 1}, {"name": "North Branford School District", "lat": 41.3337, "lon": -72.8008, "proficiency": 0.52, "schoolCount": 1}, {"name": "North Canaan School District", "lat": 42.032716, "lon": -73.332516, "proficiency": 0.495, "schoolCount": 1}, {"name": "North Haven School District", "lat": 41.374828, "lon": -72.861067, "proficiency": 0.67, "schoolCount": 1}, {"name": "North Stonington School District", "lat": 41.438738, "lon": -71.887348, "proficiency": 0.67, "schoolCount": 1}, {"name": "Norwalk School District", "lat": 41.11304825, "lon": -73.42151975, "proficiency": 0.3575, "schoolCount": 4}, {"name": "Norwich School District", "lat": 41.5380205, "lon": -72.087726, "proficiency": 0.17, "schoolCount": 2}, {"name": "Old Saybrook School District", "lat": 41.2895, "lon": -72.3717, "proficiency": 0.62, "schoolCount": 1}, {"name": "Oxford School District", "lat": 41.423489, "lon": -73.141404, "proficiency": 0.52, "schoolCount": 1}, {"name": "Plainfield School District", "lat": 41.682583, "lon": -71.931079, "proficiency": 0.32, "schoolCount": 1}, {"name": "Plainville School District", "lat": 41.684, "lon": -72.886, "proficiency": 0.57, "schoolCount": 1}, {"name": "Plymouth School District", "lat": 41.680049, "lon": -73.00969, "proficiency": 0.52, "schoolCount": 1}, {"name": "Pomfret School District", "lat": 41.859264, "lon": -71.960054, "proficiency": 0.545, "schoolCount": 1}, {"name": "Portland School District", "lat": 41.5803, "lon": -72.6221, "proficiency": 0.67, "schoolCount": 1}, {"name": "Preston School District", "lat": 41.489449, "lon": -71.985011, "proficiency": 0.345, "schoolCount": 1}, {"name": "Putnam School District", "lat": 41.9258, "lon": -71.9229, "proficiency": 0.37, "schoolCount": 1}, {"name": "Redding School District", "lat": 41.3058, "lon": -73.402, "proficiency": 0.67, "schoolCount": 1}, {"name": "Regional School District 06", "lat": 41.727807, "lon": -73.22536, "proficiency": 0.62, "schoolCount": 1}, {"name": "Regional School District 10", "lat": 41.779884, "lon": -72.98668, "proficiency": 0.62, "schoolCount": 1}, {"name": "Regional School District 12", "lat": 41.6015, "lon": -73.3063, "proficiency": 0.545, "schoolCount": 1}, {"name": "Regional School District 13", "lat": 41.4762, "lon": -72.679, "proficiency": 0.67, "schoolCount": 1}, {"name": "Regional School District 14", "lat": 41.54927, "lon": -73.211245, "proficiency": 0.32, "schoolCount": 1}, {"name": "Regional School District 15", "lat": 41.5054205, "lon": -73.15812650000001, "proficiency": 0.645, "schoolCount": 2}, {"name": "Regional School District 16", "lat": 41.5041, "lon": -72.9761, "proficiency": 0.47, "schoolCount": 1}, {"name": "Regional School District 17", "lat": 41.382403, "lon": -72.563901, "proficiency": 0.47, "schoolCount": 1}, {"name": "Regional School District 18", "lat": 41.3191, "lon": -72.3277, "proficiency": 0.72, "schoolCount": 1}, {"name": "Regional School District 11", "lat": 41.7514, "lon": -72.1048, "proficiency": 0.345, "schoolCount": 1}, {"name": "Regional School District 04", "lat": 41.364563, "lon": -72.456226, "proficiency": 0.62, "schoolCount": 1}, {"name": "Regional School District 05", "lat": 41.36005, "lon": -73.00515, "proficiency": 0.82, "schoolCount": 2}, {"name": "Regional School District 07", "lat": 41.913628, "lon": -73.04741, "proficiency": 0.47, "schoolCount": 1}, {"name": "Regional School District 08", "lat": 41.6638, "lon": -72.3665, "proficiency": 0.57, "schoolCount": 1}, {"name": "Ridgefield School District", "lat": 41.30215, "lon": -73.51255, "proficiency": 0.72, "schoolCount": 2}, {"name": "Rocky Hill School District", "lat": 41.6669, "lon": -72.6496, "proficiency": 0.57, "schoolCount": 1}, {"name": "Salem School District", "lat": 41.4875, "lon": -72.2737, "proficiency": 0.57, "schoolCount": 1}, {"name": "Salisbury School District", "lat": 41.971547, "lon": -73.438737, "proficiency": 0.9, "schoolCount": 1}, {"name": "Seymour School District", "lat": 41.3763, "lon": -73.1095, "proficiency": 0.42, "schoolCount": 1}, {"name": "Sharon School District", "lat": 41.882285, "lon": -73.471434, "proficiency": 0.75, "schoolCount": 1}, {"name": "Shelton School District", "lat": 41.3147, "lon": -73.1196, "proficiency": 0.55, "schoolCount": 1}, {"name": "Sherman School District", "lat": 41.5782, "lon": -73.4959, "proficiency": 0.695, "schoolCount": 1}, {"name": "Simsbury School District", "lat": 41.884, "lon": -72.814, "proficiency": 0.72, "schoolCount": 1}, {"name": "Somers School District", "lat": 41.979856, "lon": -72.461004, "proficiency": 0.67, "schoolCount": 1}, {"name": "South Windsor School District", "lat": 41.8265, "lon": -72.5253, "proficiency": 0.67, "schoolCount": 1}, {"name": "Southington School District", "lat": 41.592749999999995, "lon": -72.87505, "proficiency": 0.57, "schoolCount": 2}, {"name": "Sprague School District", "lat": 41.622848, "lon": -72.08577, "proficiency": 0.3, "schoolCount": 1}, {"name": "Stafford School District", "lat": 41.966263, "lon": -72.306081, "proficiency": 0.47, "schoolCount": 1}, {"name": "Stamford School District", "lat": 41.08540033333333, "lon": -73.53868133333333, "proficiency": 0.3783, "schoolCount": 6}, {"name": "Sterling School District", "lat": 41.70527, "lon": -71.836563, "proficiency": 0.245, "schoolCount": 1}, {"name": "Stonington School District", "lat": 41.357984, "lon": -71.944267, "proficiency": 0.67, "schoolCount": 1}, {"name": "Stratford School District", "lat": 41.225365, "lon": -73.1300005, "proficiency": 0.245, "schoolCount": 2}, {"name": "Suffield School District", "lat": 41.9849, "lon": -72.6636, "proficiency": 0.67, "schoolCount": 1}, {"name": "Thomaston School District", "lat": 41.6572, "lon": -73.095, "proficiency": 0.42, "schoolCount": 1}, {"name": "Thompson School District", "lat": 41.976469, "lon": -71.8986, "proficiency": 0.17, "schoolCount": 1}, {"name": "Tolland School District", "lat": 41.871711, "lon": -72.349448, "proficiency": 0.57, "schoolCount": 1}, {"name": "Torrington School District", "lat": 41.8338, "lon": -73.07, "proficiency": 0.25, "schoolCount": 1}, {"name": "Trumbull School District", "lat": 41.2576855, "lon": -73.22045399999999, "proficiency": 0.695, "schoolCount": 2}, {"name": "Union School District", "lat": 41.9874, "lon": -72.162, "proficiency": 0.75, "schoolCount": 1}, {"name": "Vernon School District", "lat": 41.8419, "lon": -72.4624, "proficiency": 0.37, "schoolCount": 1}, {"name": "Voluntown School District", "lat": 41.5745, "lon": -71.8664, "proficiency": 0.745, "schoolCount": 1}, {"name": "Wallingford School District", "lat": 41.459649999999996, "lon": -72.82455, "proficiency": 0.395, "schoolCount": 2}, {"name": "Waterbury School District", "lat": 41.55750757142857, "lon": -73.03615, "proficiency": 0.1714, "schoolCount": 7}, {"name": "Waterford School District", "lat": 41.3515, "lon": -72.1261, "proficiency": 0.62, "schoolCount": 1}, {"name": "Watertown School District", "lat": 41.5859, "lon": -73.0921, "proficiency": 0.47, "schoolCount": 1}, {"name": "West Hartford School District", "lat": 41.77166666666667, "lon": -72.73796666666667, "proficiency": 0.6033, "schoolCount": 3}, {"name": "West Haven School District", "lat": 41.253627, "lon": -72.978307, "proficiency": 0.36, "schoolCount": 1}, {"name": "Westbrook School District", "lat": 41.2989, "lon": -72.4552, "proficiency": 0.745, "schoolCount": 1}, {"name": "Weston School District", "lat": 41.2131, "lon": -73.3803, "proficiency": 0.82, "schoolCount": 1}, {"name": "Westport School District", "lat": 41.1683355, "lon": -73.34014300000001, "proficiency": 0.82, "schoolCount": 2}, {"name": "Wethersfield School District", "lat": 41.7101, "lon": -72.6642, "proficiency": 0.57, "schoolCount": 1}, {"name": "Willington School District", "lat": 41.8515, "lon": -72.3022, "proficiency": 0.545, "schoolCount": 1}, {"name": "Wilton School District", "lat": 41.2021, "lon": -73.4383, "proficiency": 0.68, "schoolCount": 1}, {"name": "Windham School District", "lat": 41.720547499999995, "lon": -72.20199500000001, "proficiency": 0.395, "schoolCount": 2}, {"name": "Windsor School District", "lat": 41.842, "lon": -72.6584, "proficiency": 0.42, "schoolCount": 1}, {"name": "Windsor Locks School District", "lat": 41.928, "lon": -72.632, "proficiency": 0.27, "schoolCount": 1}, {"name": "Wolcott School District", "lat": 41.5565, "lon": -72.9683, "proficiency": 0.62, "schoolCount": 1}, {"name": "Woodstock School District", "lat": 41.927319, "lon": -71.955642, "proficiency": 0.47, "schoolCount": 1}, {"name": "The Gilbert School District", "lat": 41.9306, "lon": -73.0725, "proficiency": 0.37, "schoolCount": 1}], "cities": [{"name": "Hartford", "lat": 41.763469535714286, "lon": -72.68727146428571, "proficiency": 0.2052, "schoolCount": 28}, {"name": "Manchester", "lat": 41.7837885, "lon": -72.53161700000001, "proficiency": 0.2625, "schoolCount": 2}, {"name": "Norwich", "lat": 41.52911366666667, "lon": -72.08435066666668, "proficiency": 0.2133, "schoolCount": 3}, {"name": "New London", "lat": 41.3580235, "lon": -72.1085605, "proficiency": 0.1525, "schoolCount": 4}, {"name": "Bridgeport", "lat": 41.18899955172414, "lon": -73.19339503448276, "proficiency": 0.1612, "schoolCount": 29}, {"name": "Norwalk", "lat": 41.1095586, "lon": -73.4212158, "proficiency": 0.425, "schoolCount": 5}, {"name": "New Haven", "lat": 41.313032482758615, "lon": -72.92445348275862, "proficiency": 0.1884, "schoolCount": 29}, {"name": "Ansonia", "lat": 41.341169, "lon": -73.084317, "proficiency": 0.22, "schoolCount": 1}, {"name": "North Haven", "lat": 41.3859765, "lon": -72.84867, "proficiency": 0.41, "schoolCount": 2}, {"name": "Waterbury", "lat": 41.556092, "lon": -73.03993224999999, "proficiency": 0.2025, "schoolCount": 8}, {"name": "Ashford", "lat": 41.892539, "lon": -72.168933, "proficiency": 0.445, "schoolCount": 1}, {"name": "Avon", "lat": 41.791949, "lon": -72.86559, "proficiency": 0.77, "schoolCount": 1}, {"name": "Berlin", "lat": 41.616, "lon": -72.7634, "proficiency": 0.67, "schoolCount": 1}, {"name": "Bethel", "lat": 41.3814, "lon": -73.3925, "proficiency": 0.62, "schoolCount": 1}, {"name": "Bloomfield", "lat": 41.85497966666667, "lon": -72.72590266666667, "proficiency": 0.2133, "schoolCount": 3}, {"name": "Bolton", "lat": 41.7756, "lon": -72.4409, "proficiency": 0.62, "schoolCount": 1}, {"name": "Bozrah", "lat": 41.5635, "lon": -72.1536, "proficiency": 0.695, "schoolCount": 1}, {"name": "Branford", "lat": 41.284882, "lon": -72.781953, "proficiency": 0.47, "schoolCount": 1}, {"name": "Bristol", "lat": 41.690925, "lon": -72.9377, "proficiency": 0.395, "schoolCount": 4}, {"name": "Brookfield", "lat": 41.4406, "lon": -73.3758, "proficiency": 0.72, "schoolCount": 1}, {"name": "Brooklyn", "lat": 41.7853, "lon": -71.9355, "proficiency": 0.47, "schoolCount": 1}, {"name": "Falls Village", "lat": 41.9554, "lon": -73.3594, "proficiency": 0.245, "schoolCount": 1}, {"name": "Canterbury", "lat": 41.6983, "lon": -71.9769, "proficiency": 0.445, "schoolCount": 1}, {"name": "Canton", "lat": 41.8259, "lon": -72.9165, "proficiency": 0.67, "schoolCount": 1}, {"name": "East Hartford", "lat": 41.766866666666665, "lon": -72.61886666666668, "proficiency": 0.2833, "schoolCount": 3}, {"name": "Windsor", "lat": 41.868807000000004, "lon": -72.655663, "proficiency": 0.32, "schoolCount": 2}, {"name": "New Britain", "lat": 41.6839715, "lon": -72.79181175, "proficiency": 0.2662, "schoolCount": 4}, {"name": "Cheshire", "lat": 41.511094, "lon": -72.904504, "proficiency": 0.73, "schoolCount": 1}, {"name": "Clinton", "lat": 41.297227, "lon": -72.519756, "proficiency": 0.57, "schoolCount": 1}, {"name": "Colchester", "lat": 41.575509, "lon": -72.320099, "proficiency": 0.72, "schoolCount": 1}, {"name": "Columbia", "lat": 41.704517, "lon": -72.300792, "proficiency": 0.345, "schoolCount": 1}, {"name": "West Cornwall", "lat": 41.876679, "lon": -73.341298, "proficiency": 0.75, "schoolCount": 1}, {"name": "Coventry", "lat": 41.781, "lon": -72.3113, "proficiency": 0.57, "schoolCount": 1}, {"name": "Cromwell", "lat": 41.628018, "lon": -72.657447, "proficiency": 0.62, "schoolCount": 1}, {"name": "Danbury", "lat": 41.392029, "lon": -73.45580733333334, "proficiency": 0.23, "schoolCount": 3}, {"name": "Darien", "lat": 41.0737, "lon": -73.4972, "proficiency": 0.84, "schoolCount": 1}, {"name": "Derby", "lat": 41.334103, "lon": -73.099152, "proficiency": 0.22, "schoolCount": 1}, {"name": "East Granby", "lat": 41.9327, "lon": -72.7283, "proficiency": 0.62, "schoolCount": 1}, {"name": "Moodus", "lat": 41.520067, "lon": -72.444979, "proficiency": 0.72, "schoolCount": 1}, {"name": "East Hampton", "lat": 41.5682, "lon": -72.5228, "proficiency": 0.57, "schoolCount": 1}, {"name": "East Haven", "lat": 41.2806, "lon": -72.87155, "proficiency": 0.3325, "schoolCount": 2}, {"name": "Niantic", "lat": 41.3503, "lon": -72.2137, "proficiency": 0.67, "schoolCount": 1}, {"name": "Broad Brook", "lat": 41.9221, "lon": -72.5467, "proficiency": 0.27, "schoolCount": 1}, {"name": "Eastford", "lat": 41.90296, "lon": -72.082232, "proficiency": 0.495, "schoolCount": 1}, {"name": "Easton", "lat": 41.2451, "lon": -73.2708, "proficiency": 0.62, "schoolCount": 1}, {"name": "Ellington", "lat": 41.8794, "lon": -72.4602, "proficiency": 0.52, "schoolCount": 1}, {"name": "Enfield", "lat": 41.9568, "lon": -72.5636, "proficiency": 0.22, "schoolCount": 1}, {"name": "Fairfield", "lat": 41.15963333333334, "lon": -73.25603333333333, "proficiency": 0.7, "schoolCount": 3}, {"name": "Farmington", "lat": 41.7212, "lon": -72.7991, "proficiency": 0.73, "schoolCount": 1}, {"name": "North Franklin", "lat": 41.6313, "lon": -72.1255, "proficiency": 0.245, "schoolCount": 1}, {"name": "Glastonbury", "lat": 41.724311, "lon": -72.577783, "proficiency": 0.7, "schoolCount": 1}, {"name": "Granby", "lat": 41.9611, "lon": -72.7914, "proficiency": 0.52, "schoolCount": 1}, {"name": "Greenwich", "lat": 41.0295445, "lon": -73.62740099999999, "proficiency": 0.62, "schoolCount": 2}, {"name": "Riverside", "lat": 41.034196, "lon": -73.583465, "proficiency": 0.77, "schoolCount": 1}, {"name": "Griswold", "lat": 41.5976, "lon": -71.98, "proficiency": 0.62, "schoolCount": 1}, {"name": "Guilford", "lat": 41.2921, "lon": -72.6849, "proficiency": 0.83, "schoolCount": 1}, {"name": "Hamden", "lat": 41.3797, "lon": -72.9122, "proficiency": 0.37, "schoolCount": 1}, {"name": "East Hartland", "lat": 41.997, "lon": -72.9069, "proficiency": 0.495, "schoolCount": 1}, {"name": "Kent", "lat": 41.724241, "lon": -73.481847, "proficiency": 0.695, "schoolCount": 1}, {"name": "Dayville", "lat": 41.8514, "lon": -71.8975, "proficiency": 0.32, "schoolCount": 1}, {"name": "Lebanon", "lat": 41.625356, "lon": -72.237453, "proficiency": 0.42, "schoolCount": 1}, {"name": "Gales Ferry", "lat": 41.4517, "lon": -72.0676, "proficiency": 0.42, "schoolCount": 1}, {"name": "Lisbon", "lat": 41.6043, "lon": -72.0154, "proficiency": 0.345, "schoolCount": 1}, {"name": "Litchfield", "lat": 41.735367499999995, "lon": -73.2161335, "proficiency": 0.62, "schoolCount": 2}, {"name": "Madison", "lat": 41.2955, "lon": -72.6187, "proficiency": 0.52, "schoolCount": 1}, {"name": "Storrs", "lat": 41.7786, "lon": -72.2302, "proficiency": 0.72, "schoolCount": 1}, {"name": "Meriden", "lat": 41.5443, "lon": -72.80189999999999, "proficiency": 0.245, "schoolCount": 2}, {"name": "Middletown", "lat": 41.540136, "lon": -72.64537, "proficiency": 0.25, "schoolCount": 1}, {"name": "Milford", "lat": 41.21457133333333, "lon": -73.053007, "proficiency": 0.57, "schoolCount": 3}, {"name": "Monroe", "lat": 41.3438, "lon": -73.2331, "proficiency": 0.62, "schoolCount": 1}, {"name": "Oakdale", "lat": 41.455, "lon": -72.1678, "proficiency": 0.42, "schoolCount": 1}, {"name": "Naugatuck", "lat": 41.4934, "lon": -73.0359, "proficiency": 0.32, "schoolCount": 1}, {"name": "New Britian", "lat": 41.6599, "lon": -72.8063, "proficiency": 0.025, "schoolCount": 1}, {"name": "New Canaan", "lat": 41.1312, "lon": -73.4854, "proficiency": 0.86, "schoolCount": 1}, {"name": "New Fairfield", "lat": 41.4608, "lon": -73.508, "proficiency": 0.62, "schoolCount": 1}, {"name": "West Haven", "lat": 41.271921000000006, "lon": -72.972343, "proficiency": 0.49, "schoolCount": 2}, {"name": "New Milford", "lat": 41.6202, "lon": -73.3926, "proficiency": 0.51, "schoolCount": 1}, {"name": "Newington", "lat": 41.68915, "lon": -72.7334, "proficiency": 0.495, "schoolCount": 2}, {"name": "Newtown", "lat": 41.4119, "lon": -73.3004, "proficiency": 0.67, "schoolCount": 1}, {"name": "North Branford", "lat": 41.3337, "lon": -72.8008, "proficiency": 0.52, "schoolCount": 1}, {"name": "North Canaan", "lat": 42.032716, "lon": -73.332516, "proficiency": 0.495, "schoolCount": 1}, {"name": "North Stonington", "lat": 41.438738, "lon": -71.887348, "proficiency": 0.67, "schoolCount": 1}, {"name": "Old Saybrook", "lat": 41.2895, "lon": -72.3717, "proficiency": 0.62, "schoolCount": 1}, {"name": "Oxford", "lat": 41.423489, "lon": -73.141404, "proficiency": 0.52, "schoolCount": 1}, {"name": "Plainfield", "lat": 41.682583, "lon": -71.931079, "proficiency": 0.32, "schoolCount": 1}, {"name": "Plainville", "lat": 41.684, "lon": -72.886, "proficiency": 0.57, "schoolCount": 1}, {"name": "Terryville", "lat": 41.680049, "lon": -73.00969, "proficiency": 0.52, "schoolCount": 1}, {"name": "Pomfret Center", "lat": 41.859264, "lon": -71.960054, "proficiency": 0.545, "schoolCount": 1}, {"name": "Portland", "lat": 41.5803, "lon": -72.6221, "proficiency": 0.67, "schoolCount": 1}, {"name": "Preston", "lat": 41.489449, "lon": -71.985011, "proficiency": 0.345, "schoolCount": 1}, {"name": "Putnam", "lat": 41.9258, "lon": -71.9229, "proficiency": 0.37, "schoolCount": 1}, {"name": "Redding", "lat": 41.3058, "lon": -73.402, "proficiency": 0.67, "schoolCount": 1}, {"name": "Burlington", "lat": 41.779884, "lon": -72.98668, "proficiency": 0.62, "schoolCount": 1}, {"name": "Washington", "lat": 41.6015, "lon": -73.3063, "proficiency": 0.545, "schoolCount": 1}, {"name": "Durham", "lat": 41.4762, "lon": -72.679, "proficiency": 0.67, "schoolCount": 1}, {"name": "Woodbury", "lat": 41.54927, "lon": -73.211245, "proficiency": 0.32, "schoolCount": 1}, {"name": "Middlebury", "lat": 41.543241, "lon": -73.092853, "proficiency": 0.57, "schoolCount": 1}, {"name": "Southbury", "lat": 41.4676, "lon": -73.2234, "proficiency": 0.72, "schoolCount": 1}, {"name": "Prospect", "lat": 41.5041, "lon": -72.9761, "proficiency": 0.47, "schoolCount": 1}, {"name": "Killingworth", "lat": 41.382403, "lon": -72.563901, "proficiency": 0.47, "schoolCount": 1}, {"name": "Old Lyme", "lat": 41.3191, "lon": -72.3277, "proficiency": 0.72, "schoolCount": 1}, {"name": "Chaplin", "lat": 41.7514, "lon": -72.1048, "proficiency": 0.345, "schoolCount": 1}, {"name": "Deep River", "lat": 41.364563, "lon": -72.456226, "proficiency": 0.62, "schoolCount": 1}, {"name": "Orange", "lat": 41.3025, "lon": -73.0041, "proficiency": 0.77, "schoolCount": 1}, {"name": "Bethany", "lat": 41.4176, "lon": -73.0062, "proficiency": 0.87, "schoolCount": 1}, {"name": "Winsted", "lat": 41.922114, "lon": -73.059955, "proficiency": 0.42, "schoolCount": 2}, {"name": "Hebron", "lat": 41.6638, "lon": -72.3665, "proficiency": 0.57, "schoolCount": 1}, {"name": "Ridgefield", "lat": 41.30215, "lon": -73.51255, "proficiency": 0.72, "schoolCount": 2}, {"name": "Rocky Hill", "lat": 41.6669, "lon": -72.6496, "proficiency": 0.57, "schoolCount": 1}, {"name": "Salem", "lat": 41.4875, "lon": -72.2737, "proficiency": 0.57, "schoolCount": 1}, {"name": "Lakeville", "lat": 41.971547, "lon": -73.438737, "proficiency": 0.9, "schoolCount": 1}, {"name": "Seymour", "lat": 41.3763, "lon": -73.1095, "proficiency": 0.42, "schoolCount": 1}, {"name": "Sharon", "lat": 41.882285, "lon": -73.471434, "proficiency": 0.75, "schoolCount": 1}, {"name": "Shelton", "lat": 41.3147, "lon": -73.1196, "proficiency": 0.55, "schoolCount": 1}, {"name": "Sherman", "lat": 41.5782, "lon": -73.4959, "proficiency": 0.695, "schoolCount": 1}, {"name": "Simsbury", "lat": 41.884, "lon": -72.814, "proficiency": 0.72, "schoolCount": 1}, {"name": "Somers", "lat": 41.979856, "lon": -72.461004, "proficiency": 0.67, "schoolCount": 1}, {"name": "South Windsor", "lat": 41.8265, "lon": -72.5253, "proficiency": 0.67, "schoolCount": 1}, {"name": "Plantsville", "lat": 41.5781, "lon": -72.8936, "proficiency": 0.57, "schoolCount": 1}, {"name": "Southington", "lat": 41.6074, "lon": -72.8565, "proficiency": 0.57, "schoolCount": 1}, {"name": "Baltic", "lat": 41.622848, "lon": -72.08577, "proficiency": 0.3, "schoolCount": 1}, {"name": "Stafford Springs", "lat": 41.966263, "lon": -72.306081, "proficiency": 0.47, "schoolCount": 1}, {"name": "Stamford", "lat": 41.08540033333333, "lon": -73.53868133333333, "proficiency": 0.3783, "schoolCount": 6}, {"name": "Sterling", "lat": 41.70527, "lon": -71.836563, "proficiency": 0.245, "schoolCount": 1}, {"name": "Mystic", "lat": 41.357984, "lon": -71.944267, "proficiency": 0.67, "schoolCount": 1}, {"name": "Stratford", "lat": 41.225365, "lon": -73.1300005, "proficiency": 0.245, "schoolCount": 2}, {"name": "Suffield", "lat": 41.9849, "lon": -72.6636, "proficiency": 0.67, "schoolCount": 1}, {"name": "Thomaston", "lat": 41.6572, "lon": -73.095, "proficiency": 0.42, "schoolCount": 1}, {"name": "North Grosvenordale", "lat": 41.976469, "lon": -71.8986, "proficiency": 0.17, "schoolCount": 1}, {"name": "Tolland", "lat": 41.871711, "lon": -72.349448, "proficiency": 0.57, "schoolCount": 1}, {"name": "Torrington", "lat": 41.8338, "lon": -73.07, "proficiency": 0.25, "schoolCount": 1}, {"name": "Trumbull", "lat": 41.2576855, "lon": -73.22045399999999, "proficiency": 0.695, "schoolCount": 2}, {"name": "Union", "lat": 41.9874, "lon": -72.162, "proficiency": 0.75, "schoolCount": 1}, {"name": "Vernon", "lat": 41.8419, "lon": -72.4624, "proficiency": 0.37, "schoolCount": 1}, {"name": "Voluntown", "lat": 41.5745, "lon": -71.8664, "proficiency": 0.745, "schoolCount": 1}, {"name": "Wallingford", "lat": 41.459649999999996, "lon": -72.82455, "proficiency": 0.395, "schoolCount": 2}, {"name": "Waterford", "lat": 41.3515, "lon": -72.1261, "proficiency": 0.62, "schoolCount": 1}, {"name": "Oakville", "lat": 41.5859, "lon": -73.0921, "proficiency": 0.47, "schoolCount": 1}, {"name": "West Hartford", "lat": 41.77166666666667, "lon": -72.73796666666667, "proficiency": 0.6033, "schoolCount": 3}, {"name": "Westbrook", "lat": 41.2989, "lon": -72.4552, "proficiency": 0.745, "schoolCount": 1}, {"name": "Weston", "lat": 41.2131, "lon": -73.3803, "proficiency": 0.82, "schoolCount": 1}, {"name": "Westport", "lat": 41.1683355, "lon": -73.34014300000001, "proficiency": 0.82, "schoolCount": 2}, {"name": "Wethersfield", "lat": 41.7101, "lon": -72.6642, "proficiency": 0.57, "schoolCount": 1}, {"name": "West Willington", "lat": 41.8515, "lon": -72.3022, "proficiency": 0.545, "schoolCount": 1}, {"name": "Wilton", "lat": 41.2021, "lon": -73.4383, "proficiency": 0.68, "schoolCount": 1}, {"name": "Willimantic", "lat": 41.722995, "lon": -72.22759, "proficiency": 0.22, "schoolCount": 1}, {"name": "North Windham", "lat": 41.7181, "lon": -72.1764, "proficiency": 0.57, "schoolCount": 1}, {"name": "Windsor Locks", "lat": 41.928, "lon": -72.632, "proficiency": 0.27, "schoolCount": 1}, {"name": "Wolcott", "lat": 41.5565, "lon": -72.9683, "proficiency": 0.62, "schoolCount": 1}, {"name": "Woodstock", "lat": 41.927319, "lon": -71.955642, "proficiency": 0.47, "schoolCount": 1}]}