{"state": "DC", "stateName": "District of Columbia", "year": 2018, "naep": {"text": "8 out of 10", "numerator": 8, "denominator": 10}, "schools": [{"name": "Friendship PCS - Blow Pierce Middle", "lat": 38.897839, "lon": -76.976372, "proficiency": 0.345, "district": "Friendship PCS", "city": "Washington", "ncessch": "110000800478"}, {"name": "Friendship PCS - Woodridge International Middle", "lat": 38.92924, "lon": -76.966101, "proficiency": 0.345, "district": "Friendship PCS", "city": "Washington", "ncessch": "110000800481"}, {"name": "Friendship PCS - Chamberlain Middle", "lat": 38.87933, "lon": -76.986711, "proficiency": 0.15, "district": "Friendship PCS", "city": "Washington", "ncessch": "110000800483"}, {"name": "Friendship PCS - Online Academy", "lat": 38.960491, "lon": -77.031617, "proficiency": 0.3, "district": "Friendship PCS", "city": "Washington", "ncessch": "110000800495"}, {"name": "Perry Street Preparatory PCS", "lat": 38.936912, "lon": -76.978912, "proficiency": 0.1, "district": "Perry Street Preparatory PCS", "city": "Washington", "ncessch": "110001100225"}, {"name": "Meridian PCS", "lat": 38.918554, "lon": -77.030066, "proficiency": 0.245, "district": "Meridian PCS", "city": "Washington", "ncessch": "110001500229"}, {"name": "Washington Latin PCS - MS", "lat": 38.954029, "lon": -77.013902, "proficiency": 0.37, "district": "Washington Latin PCS", "city": "Washington", "ncessch": "110001900324"}, {"name": "The SEED PCS of Washington DC", "lat": 38.887059, "lon": -76.9462, "proficiency": 0.05, "district": "SEED PCS", "city": "Washington", "ncessch": "110002200236"}, {"name": "Takoma ES", "lat": 38.975007, "lon": -77.022775, "proficiency": 0.05, "district": "District of Columbia Public Schools", "city": "Washington", "ncessch": "110003000011"}, {"name": "Sousa MS", "lat": 38.88401, "lon": -76.953382, "proficiency": 0.025, "district": "District of Columbia Public Schools", "city": "Washington", "ncessch": "110003000019"}, {"name": "Raymond ES", "lat": 38.923024, "lon": -77.026675, "proficiency": 0.15, "district": "District of Columbia Public Schools", "city": "Washington", "ncessch": "110003000033"}, {"name": "Leckie Education Campus", "lat": 38.828171, "lon": -77.013269, "proficiency": 0.3, "district": "District of Columbia Public Schools", "city": "Washington", "ncessch": "110003000041"}, {"name": "LaSalle-Backus ES", "lat": 38.959982, "lon": -76.999882, "proficiency": 0.15, "district": "District of Columbia Public Schools", "city": "Washington", "ncessch": "110003000042"}, {"name": "Whittier ES", "lat": 38.965908, "lon": -77.018994, "proficiency": 0.495, "district": "District of Columbia Public Schools", "city": "Washington", "ncessch": "110003000065"}, {"name": "John Lewis ES", "lat": 38.95126, "lon": -77.032408, "proficiency": 0.495, "district": "District of Columbia Public Schools", "city": "Washington", "ncessch": "110003000067"}, {"name": "Wheatley Education Campus", "lat": 38.904014, "lon": -76.98857, "proficiency": 0.1, "district": "District of Columbia Public Schools", "city": "Washington", "ncessch": "110003000068"}, {"name": "Walker-Jones Education Campus", "lat": 38.904261, "lon": -77.01398, "proficiency": 0.1, "district": "District of Columbia Public Schools", "city": "Washington", "ncessch": "110003000070"}, {"name": "Truesdell ES", "lat": 38.953928, "lon": -77.025064, "proficiency": 0.245, "district": "District of Columbia Public Schools", "city": "Washington", "ncessch": "110003000075"}, {"name": "Cardozo Education Campus", "lat": 38.92215, "lon": -77.028371, "proficiency": 0.05, "district": "District of Columbia Public Schools", "city": "Washington", "ncessch": "110003000082"}, {"name": "Brightwood ES", "lat": 38.960625, "lon": -77.030166, "proficiency": 0.15, "district": "District of Columbia Public Schools", "city": "Washington", "ncessch": "110003000112"}, {"name": "Hart MS", "lat": 38.837418, "lon": -76.997357, "proficiency": 0.025, "district": "District of Columbia Public Schools", "city": "Washington", "ncessch": "110003000135"}, {"name": "Deal MS", "lat": 38.952896, "lon": -77.075204, "proficiency": 0.59, "district": "District of Columbia Public Schools", "city": "Washington", "ncessch": "110003000138"}, {"name": "Kramer MS", "lat": 38.871282, "lon": -76.980233, "proficiency": 0.05, "district": "District of Columbia Public Schools", "city": "Washington", "ncessch": "110003000143"}, {"name": "Johnson MS", "lat": 38.851297, "lon": -76.983723, "proficiency": 0.025, "district": "District of Columbia Public Schools", "city": "Washington", "ncessch": "110003000144"}, {"name": "School Without Walls at Francis-Stevens", "lat": 38.923839, "lon": -77.02398, "proficiency": 0.345, "district": "District of Columbia Public Schools", "city": "Washington", "ncessch": "110003000149"}, {"name": "Eliot-Hine MS", "lat": 38.892684, "lon": -76.979015, "proficiency": 0.05, "district": "District of Columbia Public Schools", "city": "Washington", "ncessch": "110003000151"}, {"name": "Browne Education Campus", "lat": 38.902592, "lon": -76.970808, "proficiency": 0.1, "district": "District of Columbia Public Schools", "city": "Washington", "ncessch": "110003000152"}, {"name": "Oyster-Adams Bilingual School", "lat": 38.923549, "lon": -77.057264, "proficiency": 0.57, "district": "District of Columbia Public Schools", "city": "Washington", "ncessch": "110003000160"}, {"name": "Hardy MS", "lat": 38.915415, "lon": -77.068741, "proficiency": 0.42, "district": "District of Columbia Public Schools", "city": "Washington", "ncessch": "110003000186"}, {"name": "Stuart-Hobson MS (Capitol Hill Cluster)", "lat": 38.896576, "lon": -77.000017, "proficiency": 0.22, "district": "District of Columbia Public Schools", "city": "Washington", "ncessch": "110003000191"}, {"name": "Kelly Miller MS", "lat": 38.893315, "lon": -76.932374, "proficiency": 0.075, "district": "District of Columbia Public Schools", "city": "Washington", "ncessch": "110003000272"}, {"name": "Columbia Heights Education Campus", "lat": 38.92937, "lon": -77.035471, "proficiency": 0.22, "district": "District of Columbia Public Schools", "city": "Washington", "ncessch": "110003000396"}, {"name": "Capitol Hill Montessori School at Logan", "lat": 38.898577, "lon": -77.002844, "proficiency": 0.3, "district": "District of Columbia Public Schools", "city": "Washington", "ncessch": "110003000446"}, {"name": "Jefferson MS Academy", "lat": 38.880066, "lon": -77.022977, "proficiency": 0.17, "district": "District of Columbia Public Schools", "city": "Washington", "ncessch": "110003000453"}, {"name": "McKinley MS", "lat": 38.914918, "lon": -77.004311, "proficiency": 0.075, "district": "District of Columbia Public Schools", "city": "Washington", "ncessch": "110003000470"}, {"name": "Brookland MS", "lat": 38.938412, "lon": -76.991161, "proficiency": 0.075, "district": "District of Columbia Public Schools", "city": "Washington", "ncessch": "110003000494"}, {"name": "River Terrace Education Campus", "lat": 38.895331, "lon": -76.958009, "proficiency": 0.245, "district": "District of Columbia Public Schools", "city": "Washington", "ncessch": "110003000506"}, {"name": "MacFarland MS", "lat": 38.943602, "lon": -77.027842, "proficiency": 0.12, "district": "District of Columbia Public Schools", "city": "Washington", "ncessch": "110003000511"}, {"name": "Excel Academy", "lat": 38.85977, "lon": -76.995361, "proficiency": 0.1, "district": "District of Columbia Public Schools", "city": "Washington", "ncessch": "110003000519"}, {"name": "KIPP DC - KEY Academy PCS", "lat": 38.88251, "lon": -76.934221, "proficiency": 0.37, "district": "KIPP DC PCS", "city": "Washington", "ncessch": "110003100246"}, {"name": "KIPP DC - WILL Academy PCS", "lat": 38.91011, "lon": -77.018071, "proficiency": 0.345, "district": "KIPP DC PCS", "city": "Washington", "ncessch": "110003100376"}, {"name": "KIPP DC - AIM Academy PCS", "lat": 38.856181, "lon": -76.988929, "proficiency": 0.32, "district": "KIPP DC PCS", "city": "Washington", "ncessch": "110003100381"}, {"name": "KIPP DC - Valor Academy PCS", "lat": 38.891978, "lon": -76.925058, "proficiency": 0.22, "district": "KIPP DC PCS", "city": "Washington", "ncessch": "110003100486"}, {"name": "KIPP DC - Northeast Academy PCS", "lat": 38.90744, "lon": -76.981461, "proficiency": 0.27, "district": "KIPP DC PCS", "city": "Washington", "ncessch": "110003100487"}, {"name": "Capital City PCS - MS", "lat": 38.962224, "lon": -77.01293, "proficiency": 0.17, "district": "Capital City PCS", "city": "Washington", "ncessch": "110003500464"}, {"name": "Paul PCS - MS", "lat": 38.961383, "lon": -77.025057, "proficiency": 0.12, "district": "Paul PCS", "city": "Washington", "ncessch": "110003900257"}, {"name": "E.L. Haynes PCS - MS", "lat": 38.934337, "lon": -77.024322, "proficiency": 0.17, "district": "E.L. Haynes PCS", "city": "Washington", "ncessch": "110004300274"}, {"name": "Mary McLeod Bethune Day Academy PCS", "lat": 38.929495, "lon": -76.986354, "proficiency": 0.1, "district": "Mary McLeod Bethune Day Academy PCS", "city": "Washington", "ncessch": "110004400275"}, {"name": "Two Rivers PCS - 4th Street", "lat": 38.906727, "lon": -77.000203, "proficiency": 0.345, "district": "Two Rivers PCS", "city": "Washington", "ncessch": "110004500279"}, {"name": "DC Prep PCS - Edgewood MS", "lat": 38.924719, "lon": -76.996011, "proficiency": 0.545, "district": "DC Prep PCS", "city": "Washington", "ncessch": "110004800277"}, {"name": "DC Prep PCS - Benning MS", "lat": 38.890718, "lon": -76.944773, "proficiency": 0.645, "district": "DC Prep PCS", "city": "Washington", "ncessch": "110004800474"}, {"name": "Hope Community PCS - Tolson", "lat": 38.92687, "lon": -76.994601, "proficiency": 0.05, "district": "Hope Community PCS", "city": "Washington", "ncessch": "110005100386"}, {"name": "Howard University MS of Mathematics and Science PCS", "lat": 38.922853, "lon": -77.019038, "proficiency": 0.22, "district": "Howard University Middle School of Math and Science PCS", "city": "Washington", "ncessch": "110005800308"}, {"name": "St. Coletta Special Education PCS", "lat": 38.887209, "lon": -76.97649, "proficiency": 0.245, "district": "St. Coletta Special Education PCS", "city": "Washington", "ncessch": "110006400367"}, {"name": "Center City PCS - Capitol Hill", "lat": 38.889365, "lon": -76.983233, "proficiency": 0.1, "district": "Center City PCS", "city": "Washington", "ncessch": "110007300393"}, {"name": "Center City PCS - Petworth", "lat": 38.943726, "lon": -77.020908, "proficiency": 0.3, "district": "Center City PCS", "city": "Washington", "ncessch": "110007300395"}, {"name": "Center City PCS - Brightwood", "lat": 38.963159, "lon": -77.02822, "proficiency": 0.495, "district": "Center City PCS", "city": "Washington", "ncessch": "110007300400"}, {"name": "Center City PCS - Trinidad", "lat": 38.905293, "lon": -76.991158, "proficiency": 0.1, "district": "Center City PCS", "city": "Washington", "ncessch": "110007300403"}, {"name": "Center City PCS - Shaw", "lat": 38.907478, "lon": -77.022494, "proficiency": 0.495, "district": "Center City PCS", "city": "Washington", "ncessch": "110007300404"}, {"name": "Center City PCS - Congress Heights", "lat": 38.841559, "lon": -77.004521, "proficiency": 0.495, "district": "Center City PCS", "city": "Washington", "ncessch": "110007300412"}, {"name": "Inspired Teaching Demonstration PCS", "lat": 38.923707, "lon": -77.002633, "proficiency": 0.3, "district": "Inspired Teaching Demonstration PCS", "city": "Washington", "ncessch": "110008000437"}, {"name": "Richard Wright PCS for Journalism and Media Arts", "lat": 38.88423, "lon": -77.018811, "proficiency": 0.1, "district": "Richard Wright PCS for Journalism and Media Arts", "city": "Washington", "ncessch": "110008200441"}, {"name": "BASIS DC PCS", "lat": 38.895268, "lon": -77.023385, "proficiency": 0.82, "district": "BASIS DC PCS", "city": "Washington", "ncessch": "110008300443"}, {"name": "Creative Minds International PCS", "lat": 38.942101, "lon": -77.011031, "proficiency": 0.1, "district": "Creative Minds International PCS", "city": "Washington", "ncessch": "110008400440"}, {"name": "DC Scholars PCS", "lat": 38.889408, "lon": -76.921014, "proficiency": 0.15, "district": "DC Scholars PCS", "city": "Washington", "ncessch": "110008500438"}, {"name": "District of Columbia International School", "lat": 38.972736, "lon": -77.034222, "proficiency": 0.42, "district": "District of Columbia International School", "city": "Washington", "ncessch": "110009700492"}, {"name": "Kingsman Academy PCS", "lat": 38.895795, "lon": -76.986256, "proficiency": 0.1, "district": "Kingsman Academy PCS", "city": "Washington", "ncessch": "110009900502"}, {"name": "Monument Academy PCS", "lat": 38.89656, "lon": -76.977791, "proficiency": 0.05, "district": "Monument Academy PCS", "city": "Washington", "ncessch": "110010000500"}, {"name": "The Children's Guild DC PCS", "lat": 38.92064, "lon": -76.972161, "proficiency": 0.05, "district": "The Children's Guild DC PCS", "city": "Washington", "ncessch": "110010100499"}, {"name": "Washington Global PCS", "lat": 38.88412, "lon": -77.019531, "proficiency": 0.12, "district": "Washington Global PCS", "city": "Washington", "ncessch": "110010200503"}], "districts": [{"name": "Friendship PCS", "lat": 38.916725, "lon": -76.99020025, "proficiency": 0.285, "schoolCount": 4}, {"name": "Perry Street Preparatory PCS", "lat": 38.936912, "lon": -76.978912, "proficiency": 0.1, "schoolCount": 1}, {"name": "Meridian PCS", "lat": 38.918554, "lon": -77.030066, "proficiency": 0.245, "schoolCount": 1}, {"name": "Washington Latin PCS", "lat": 38.954029, "lon": -77.013902, "proficiency": 0.37, "schoolCount": 1}, {"name": "SEED PCS", "lat": 38.887059, "lon": -76.9462, "proficiency": 0.05, "schoolCount": 1}, {"name": "District of Columbia Public Schools", "lat": 38.911395129032265, "lon": -77.0083944516129, "proficiency": 0.1963, "schoolCount": 31}, {"name": "KIPP DC PCS", "lat": 38.8896438, "lon": -76.969548, "proficiency": 0.305, "schoolCount": 5}, {"name": "Capital City PCS", "lat": 38.962224, "lon": -77.01293, "proficiency": 0.17, "schoolCount": 1}, {"name": "Paul PCS", "lat": 38.961383, "lon": -77.025057, "proficiency": 0.12, "schoolCount": 1}, {"name": "E.L. Haynes PCS", "lat": 38.934337, "lon": -77.024322, "proficiency": 0.17, "schoolCount": 1}, {"name": "Mary McLeod Bethune Day Academy PCS", "lat": 38.929495, "lon": -76.986354, "proficiency": 0.1, "schoolCount": 1}, {"name": "Two Rivers PCS", "lat": 38.906727, "lon": -77.000203, "proficiency": 0.345, "schoolCount": 1}, {"name": "DC Prep PCS", "lat": 38.9077185, "lon": -76.970392, "proficiency": 0.595, "schoolCount": 2}, {"name": "Hope Community PCS", "lat": 38.92687, "lon": -76.994601, "proficiency": 0.05, "schoolCount": 1}, {"name": "Howard University Middle School of Math and Science PCS", "lat": 38.922853, "lon": -77.019038, "proficiency": 0.22, "schoolCount": 1}, {"name": "St. Coletta Special Education PCS", "lat": 38.887209, "lon": -76.97649, "proficiency": 0.245, "schoolCount": 1}, {"name": "Center City PCS", "lat": 38.90843, "lon": -77.00842233333333, "proficiency": 0.3308, "schoolCount": 6}, {"name": "Inspired Teaching Demonstration PCS", "lat": 38.923707, "lon": -77.002633, "proficiency": 0.3, "schoolCount": 1}, {"name": "Richard Wright PCS for Journalism and Media Arts", "lat": 38.88423, "lon": -77.018811, "proficiency": 0.1, "schoolCount": 1}, {"name": "BASIS DC PCS", "lat": 38.895268, "lon": -77.023385, "proficiency": 0.82, "schoolCount": 1}, {"name": "Creative Minds International PCS", "lat": 38.942101, "lon": -77.011031, "proficiency": 0.1, "schoolCount": 1}, {"name": "DC Scholars PCS", "lat": 38.889408, "lon": -76.921014, "proficiency": 0.15, "schoolCount": 1}, {"name": "District of Columbia International School", "lat": 38.972736, "lon": -77.034222, "proficiency": 0.42, "schoolCount": 1}, {"name": "Kingsman Academy PCS", "lat": 38.895795, "lon": -76.986256, "proficiency": 0.1, "schoolCount": 1}, {"name": "Monument Academy PCS", "lat": 38.89656, "lon": -76.977791, "proficiency": 0.05, "schoolCount": 1}, {"name": "The Children's Guild DC PCS", "lat": 38.92064, "lon": -76.972161, "proficiency": 0.05, "schoolCount": 1}, {"name": "Washington Global PCS", "lat": 38.88412, "lon": -77.019531, "proficiency": 0.12, "schoolCount": 1}], "cities": [{"name": "Washington", "lat": 38.91238002857143, "lon": -77.00049995714285, "proficiency": 0.2331, "schoolCount": 70}]}