{"state": "DE", "stateName": "Delaware", "year": 2020, "naep": {"text": "8 out of 10", "numerator": 8, "denominator": 10}, "schools": [{"name": "Positive Outcomes Charter School", "lat": 39.10835, "lon": -75.538757, "proficiency": 0.245, "district": "Positive Outcomes Charter School", "city": "Camden", "ncessch": "100000500013"}, {"name": "East Side Charter School", "lat": 39.751544, "lon": -75.522728, "proficiency": 0.245, "district": "East Side Charter School", "city": "Wilmington", "ncessch": "100000600017"}, {"name": "Campus Community School", "lat": 39.165053, "lon": -75.536993, "proficiency": 0.3, "district": "Campus Community School", "city": "Dover", "ncessch": "100000700070"}, {"name": "Edison (Thomas A.) Charter School", "lat": 39.748365, "lon": -75.532709, "proficiency": -0.03, "district": "Edison (Thomas A.) Charter School", "city": "Wilmington", "ncessch": "100001000079"}, {"name": "Sussex Academy", "lat": 38.697175, "lon": -75.368097, "proficiency": 0.57, "district": "Sussex Academy", "city": "Georgetown", "ncessch": "100001100091"}, {"name": "Kuumba Academy Charter School", "lat": 39.74677, "lon": -75.544101, "proficiency": 0.15, "district": "Kuumba Academy Charter School", "city": "Wilmington", "ncessch": "100001400106"}, {"name": "Newark Charter School", "lat": 39.653141, "lon": -75.787829, "proficiency": 0.745, "district": "Newark Charter School", "city": "Newark", "ncessch": "100001500112"}, {"name": "Providence Creek Academy Charter School", "lat": 39.294338, "lon": -75.646303, "proficiency": 0.3, "district": "Providence Creek Academy Charter School", "city": "Clayton", "ncessch": "100001800122"}, {"name": "MOT Charter School", "lat": 39.422675, "lon": -75.740239, "proficiency": 0.445, "district": "MOT Charter School", "city": "Middletown", "ncessch": "100001900123"}, {"name": "Charter School of New Castle", "lat": 39.678269, "lon": -75.54525, "proficiency": 0.15, "district": "Charter School of New Castle", "city": "New Castle", "ncessch": "100002400256"}, {"name": "Odyssey Charter School", "lat": 39.759383, "lon": -75.598801, "proficiency": 0.27, "district": "Odyssey Charter School", "city": "Wilmington", "ncessch": "100002600259"}, {"name": "Las Americas ASPIRA Academy", "lat": 39.68773, "lon": -75.702281, "proficiency": 0.075, "district": "Las Americas Aspira Academy", "city": "Newark", "ncessch": "100005000342"}, {"name": "Gateway Charter School", "lat": 39.749515, "lon": -75.625743, "proficiency": 0.1, "district": "Gateway Charter School", "city": "Wilmington", "ncessch": "100005200346"}, {"name": "First State Montessori Academy", "lat": 39.74483, "lon": -75.545531, "proficiency": 0.3, "district": "First State Montessori Academy", "city": "Wilmington", "ncessch": "100005400362"}, {"name": "Freire Charter School", "lat": 39.74992, "lon": -75.546661, "proficiency": 0.1, "district": "Freire Charter School Wilmington", "city": "Wilmington", "ncessch": "100005900372"}, {"name": "Great Oaks Charter School", "lat": 39.74677, "lon": -75.544101, "proficiency": 0.05, "district": "Great Oaks Charter School", "city": "Wilmington", "ncessch": "100006200373"}, {"name": "Meredith (Everett) Middle School", "lat": 39.44318, "lon": -75.716111, "proficiency": 0.22, "district": "Appoquinimink School District", "city": "Middletown", "ncessch": "100008000014"}, {"name": "Redding (Louis L.) Middle School", "lat": 39.452205, "lon": -75.709851, "proficiency": 0.27, "district": "Appoquinimink School District", "city": "Middletown", "ncessch": "100008000026"}, {"name": "Waters (Alfred G.) Middle School", "lat": 39.503522, "lon": -75.689128, "proficiency": 0.42, "district": "Appoquinimink School District", "city": "Middletown", "ncessch": "100008000222"}, {"name": "Mariner Middle School", "lat": 38.764522, "lon": -75.312362, "proficiency": 0.27, "district": "Cape Henlopen School District", "city": "Milton", "ncessch": "100017000033"}, {"name": "Beacon Middle School", "lat": 38.714398, "lon": -75.148716, "proficiency": 0.52, "district": "Cape Henlopen School District", "city": "Lewes", "ncessch": "100017000037"}, {"name": "Sussex Consortium", "lat": 38.749112, "lon": -75.231624, "proficiency": -0.03, "district": "Cape Henlopen School District", "city": "Lewes", "ncessch": "100017000304"}, {"name": "Dover Air Force Base Middle School", "lat": 39.117689, "lon": -75.487902, "proficiency": 0.3, "district": "Caesar Rodney School District", "city": "Dover", "ncessch": "100018000041"}, {"name": "John S. Charlton School", "lat": 39.102274, "lon": -75.510914, "proficiency": 0.245, "district": "Caesar Rodney School District", "city": "Camden", "ncessch": "100018000043"}, {"name": "F. Niel Postlethwait Middle School", "lat": 39.099829, "lon": -75.511493, "proficiency": 0.27, "district": "Caesar Rodney School District", "city": "Camden", "ncessch": "100018000071"}, {"name": "Fred Fifer III Middle School", "lat": 39.116157, "lon": -75.550092, "proficiency": 0.27, "district": "Caesar Rodney School District", "city": "Camden", "ncessch": "100018000072"}, {"name": "Central Middle School", "lat": 39.164426, "lon": -75.523134, "proficiency": 0.12, "district": "Capital School District", "city": "Dover", "ncessch": "100019000049"}, {"name": "Kent County Community School", "lat": 39.161204, "lon": -75.540398, "proficiency": -0.03, "district": "Capital School District", "city": "Dover", "ncessch": "100019000054"}, {"name": "Kent County Secondary ILC", "lat": 39.164102, "lon": -75.53864, "proficiency": -0.03, "district": "Capital School District", "city": "Dover", "ncessch": "100019000328"}, {"name": "Delaware School for the Deaf", "lat": 39.674431, "lon": -75.706368, "proficiency": 0.245, "district": "Christina School District", "city": "Newark", "ncessch": "100020000210"}, {"name": "The Bayard School", "lat": 39.74351, "lon": -75.571576, "proficiency": 0.05, "district": "Christina School District", "city": "Wilmington", "ncessch": "100020000232"}, {"name": "Shue-Medill Middle School", "lat": 39.697279, "lon": -75.705229, "proficiency": 0.12, "district": "Christina School District", "city": "Newark", "ncessch": "100020000234"}, {"name": "Kirk (George V.) Middle School", "lat": 39.672219, "lon": -75.710569, "proficiency": 0.12, "district": "Christina School District", "city": "Newark", "ncessch": "100020000235"}, {"name": "Gauger-Cobbs Middle School", "lat": 39.658553, "lon": -75.717969, "proficiency": 0.12, "district": "Christina School District", "city": "Newark", "ncessch": "100020000236"}, {"name": "Christiana High School", "lat": 39.665237, "lon": -75.695504, "proficiency": 0.645, "district": "Christina School District", "city": "Newark", "ncessch": "100020000240"}, {"name": "Brennen School (The)", "lat": 39.674441, "lon": -75.711037, "proficiency": -0.03, "district": "Christina School District", "city": "Newark", "ncessch": "100020000305"}, {"name": "Read (George) Middle School", "lat": 39.676918, "lon": -75.585756, "proficiency": 0.17, "district": "Colonial School District", "city": "New Castle", "ncessch": "100023000206"}, {"name": "Bedford (Gunning) Middle School", "lat": 39.564285, "lon": -75.630084, "proficiency": 0.12, "district": "Colonial School District", "city": "New Castle", "ncessch": "100023000208"}, {"name": "McCullough (Calvin R. ) Middle School", "lat": 39.697897, "lon": -75.558808, "proficiency": 0.05, "district": "Colonial School District", "city": "New Castle", "ncessch": "100023000271"}, {"name": "Delmar Middle School", "lat": 38.458803, "lon": -75.566858, "proficiency": 0.27, "district": "Delmar School District", "city": "Delmar", "ncessch": "100027000078"}, {"name": "Southern Delaware School of the Arts", "lat": 38.461993, "lon": -75.22569, "proficiency": 0.495, "district": "Indian River School District", "city": "Selbyville", "ncessch": "100068000075"}, {"name": "Ennis (Howard T.) School", "lat": 38.632034, "lon": -75.322233, "proficiency": -0.03, "district": "Indian River School District", "city": "Georgetown", "ncessch": "100068000084"}, {"name": "Selbyville Middle School", "lat": 38.462213, "lon": -75.20908, "proficiency": 0.22, "district": "Indian River School District", "city": "Selbyville", "ncessch": "100068000087"}, {"name": "Georgetown Middle School", "lat": 38.68464, "lon": -75.390301, "proficiency": 0.22, "district": "Indian River School District", "city": "Georgetown", "ncessch": "100068000245"}, {"name": "Millsboro Middle School", "lat": 38.590166, "lon": -75.287866, "proficiency": 0.27, "district": "Indian River School District", "city": "Millsboro", "ncessch": "100068000303"}, {"name": "Chipman (W.T.) Middle School", "lat": 38.928763, "lon": -75.582053, "proficiency": 0.27, "district": "Lake Forest School District", "city": "Harrington", "ncessch": "100079000098"}, {"name": "Laurel Middle School", "lat": 38.545982, "lon": -75.566342, "proficiency": 0.22, "district": "Laurel School District", "city": "Laurel", "ncessch": "100081000365"}, {"name": "Milford Central Academy", "lat": 38.930662, "lon": -75.427076, "proficiency": 0.22, "district": "Milford School District", "city": "Milford", "ncessch": "100108000345"}, {"name": "Springer Middle School", "lat": 39.804678, "lon": -75.536421, "proficiency": 0.22, "district": "Brandywine School District", "city": "Wilmington", "ncessch": "100124000009"}, {"name": "duPont (Pierre S.) Middle School", "lat": 39.764358, "lon": -75.532905, "proficiency": 0.445, "district": "Brandywine School District", "city": "Wilmington", "ncessch": "100124000243"}, {"name": "Talley Middle School", "lat": 39.823057, "lon": -75.47227, "proficiency": 0.15, "district": "Brandywine School District", "city": "Wilmington", "ncessch": "100124000294"}, {"name": "Calloway (Cab) School of the Arts", "lat": 39.753689, "lon": -75.587458, "proficiency": 0.42, "district": "Red Clay Consolidated School District", "city": "Wilmington", "ncessch": "100130000004"}, {"name": "Brandywine Springs School", "lat": 39.743237, "lon": -75.653719, "proficiency": 0.22, "district": "Red Clay Consolidated School District", "city": "Wilmington", "ncessch": "100130000104"}, {"name": "First State School", "lat": 39.751461, "lon": -75.549772, "proficiency": -0.03, "district": "Red Clay Consolidated School District", "city": "Wilmington", "ncessch": "100130000116"}, {"name": "Meadowood Program", "lat": 39.704197, "lon": -75.683986, "proficiency": -0.03, "district": "Red Clay Consolidated School District", "city": "Newark", "ncessch": "100130000249"}, {"name": "Stanton Middle School", "lat": 39.714239, "lon": -75.651011, "proficiency": 0.075, "district": "Red Clay Consolidated School District", "city": "Wilmington", "ncessch": "100130000266"}, {"name": "Skyline Middle School", "lat": 39.724214, "lon": -75.687359, "proficiency": 0.12, "district": "Red Clay Consolidated School District", "city": "Wilmington", "ncessch": "100130000267"}, {"name": "duPont (H.B.) Middle School", "lat": 39.8004, "lon": -75.691619, "proficiency": 0.37, "district": "Red Clay Consolidated School District", "city": "Hockessin", "ncessch": "100130000269"}, {"name": "Conrad Schools of Science", "lat": 39.722655, "lon": -75.601314, "proficiency": 0.57, "district": "Red Clay Consolidated School District", "city": "Wilmington", "ncessch": "100130000270"}, {"name": "duPont (Alexis I.) Middle School", "lat": 39.767728, "lon": -75.583407, "proficiency": 0.025, "district": "Red Clay Consolidated School District", "city": "Greenville", "ncessch": "100130000272"}, {"name": "Dickinson (John) School", "lat": 39.728045, "lon": -75.674025, "proficiency": 0.245, "district": "Red Clay Consolidated School District", "city": "Wilmington", "ncessch": "100130000275"}, {"name": "Seaford Middle School", "lat": 38.648538, "lon": -75.61213, "proficiency": 0.075, "district": "Seaford School District", "city": "Seaford", "ncessch": "100153000156"}, {"name": "Smyrna Middle School", "lat": 39.302595, "lon": -75.623778, "proficiency": 0.15, "district": "Smyrna School District", "city": "Smyrna", "ncessch": "100162000141"}, {"name": "Woodbridge Middle School", "lat": 38.739916, "lon": -75.600862, "proficiency": 0.12, "district": "Woodbridge School District", "city": "Bridgeville", "ncessch": "100185000073"}], "districts": [{"name": "Positive Outcomes Charter School", "lat": 39.10835, "lon": -75.538757, "proficiency": 0.245, "schoolCount": 1}, {"name": "East Side Charter School", "lat": 39.751544, "lon": -75.522728, "proficiency": 0.245, "schoolCount": 1}, {"name": "Campus Community School", "lat": 39.165053, "lon": -75.536993, "proficiency": 0.3, "schoolCount": 1}, {"name": "Edison (Thomas A.) Charter School", "lat": 39.748365, "lon": -75.532709, "proficiency": -0.03, "schoolCount": 1}, {"name": "Sussex Academy", "lat": 38.697175, "lon": -75.368097, "proficiency": 0.57, "schoolCount": 1}, {"name": "Kuumba Academy Charter School", "lat": 39.74677, "lon": -75.544101, "proficiency": 0.15, "schoolCount": 1}, {"name": "Newark Charter School", "lat": 39.653141, "lon": -75.787829, "proficiency": 0.745, "schoolCount": 1}, {"name": "Providence Creek Academy Charter School", "lat": 39.294338, "lon": -75.646303, "proficiency": 0.3, "schoolCount": 1}, {"name": "MOT Charter School", "lat": 39.422675, "lon": -75.740239, "proficiency": 0.445, "schoolCount": 1}, {"name": "Charter School of New Castle", "lat": 39.678269, "lon": -75.54525, "proficiency": 0.15, "schoolCount": 1}, {"name": "Odyssey Charter School", "lat": 39.759383, "lon": -75.598801, "proficiency": 0.27, "schoolCount": 1}, {"name": "Las Americas Aspira Academy", "lat": 39.68773, "lon": -75.702281, "proficiency": 0.075, "schoolCount": 1}, {"name": "Gateway Charter School", "lat": 39.749515, "lon": -75.625743, "proficiency": 0.1, "schoolCount": 1}, {"name": "First State Montessori Academy", "lat": 39.74483, "lon": -75.545531, "proficiency": 0.3, "schoolCount": 1}, {"name": "Freire Charter School Wilmington", "lat": 39.74992, "lon": -75.546661, "proficiency": 0.1, "schoolCount": 1}, {"name": "Great Oaks Charter School", "lat": 39.74677, "lon": -75.544101, "proficiency": 0.05, "schoolCount": 1}, {"name": "Appoquinimink School District", "lat": 39.46630233333333, "lon": -75.70503000000001, "proficiency": 0.3033, "schoolCount": 3}, {"name": "Cape Henlopen School District", "lat": 38.74267733333333, "lon": -75.23090066666667, "proficiency": 0.2533, "schoolCount": 3}, {"name": "Caesar Rodney School District", "lat": 39.10898725, "lon": -75.51510025, "proficiency": 0.2712, "schoolCount": 4}, {"name": "Capital School District", "lat": 39.163244, "lon": -75.53405733333334, "proficiency": 0.02, "schoolCount": 3}, {"name": "Christina School District", "lat": 39.68366714285714, "lon": -75.68832171428572, "proficiency": 0.1814, "schoolCount": 7}, {"name": "Colonial School District", "lat": 39.646366666666665, "lon": -75.59154933333333, "proficiency": 0.1133, "schoolCount": 3}, {"name": "Delmar School District", "lat": 38.458803, "lon": -75.566858, "proficiency": 0.27, "schoolCount": 1}, {"name": "Indian River School District", "lat": 38.5662092, "lon": -75.28703399999999, "proficiency": 0.235, "schoolCount": 5}, {"name": "Lake Forest School District", "lat": 38.928763, "lon": -75.582053, "proficiency": 0.27, "schoolCount": 1}, {"name": "Laurel School District", "lat": 38.545982, "lon": -75.566342, "proficiency": 0.22, "schoolCount": 1}, {"name": "Milford School District", "lat": 38.930662, "lon": -75.427076, "proficiency": 0.22, "schoolCount": 1}, {"name": "Brandywine School District", "lat": 39.797364333333334, "lon": -75.51386533333333, "proficiency": 0.2717, "schoolCount": 3}, {"name": "Red Clay Consolidated School District", "lat": 39.740986500000005, "lon": -75.63636699999999, "proficiency": 0.1985, "schoolCount": 10}, {"name": "Seaford School District", "lat": 38.648538, "lon": -75.61213, "proficiency": 0.075, "schoolCount": 1}, {"name": "Smyrna School District", "lat": 39.302595, "lon": -75.623778, "proficiency": 0.15, "schoolCount": 1}, {"name": "Woodbridge School District", "lat": 38.739916, "lon": -75.600862, "proficiency": 0.12, "schoolCount": 1}], "cities": [{"name": "Camden", "lat": 39.1066525, "lon": -75.527814, "proficiency": 0.2575, "schoolCount": 4}, {"name": "Wilmington", "lat": 39.7510652631579, "lon": -75.57780026315788, "proficiency": 0.1932, "schoolCount": 19}, {"name": "Dover", "lat": 39.154494799999995, "lon": -75.5254134, "proficiency": 0.132, "schoolCount": 5}, {"name": "Georgetown", "lat": 38.671282999999995, "lon": -75.36021033333333, "proficiency": 0.2533, "schoolCount": 3}, {"name": "Newark", "lat": 39.676358666666665, "lon": -75.71341911111112, "proficiency": 0.2233, "schoolCount": 9}, {"name": "Clayton", "lat": 39.294338, "lon": -75.646303, "proficiency": 0.3, "schoolCount": 1}, {"name": "Middletown", "lat": 39.455395499999995, "lon": -75.71383225, "proficiency": 0.3387, "schoolCount": 4}, {"name": "New Castle", "lat": 39.65434225, "lon": -75.57997449999999, "proficiency": 0.1225, "schoolCount": 4}, {"name": "Milton", "lat": 38.764522, "lon": -75.312362, "proficiency": 0.27, "schoolCount": 1}, {"name": "Lewes", "lat": 38.731755, "lon": -75.19017, "proficiency": 0.245, "schoolCount": 2}, {"name": "Delmar", "lat": 38.458803, "lon": -75.566858, "proficiency": 0.27, "schoolCount": 1}, {"name": "Selbyville", "lat": 38.462103, "lon": -75.21738500000001, "proficiency": 0.3575, "schoolCount": 2}, {"name": "Millsboro", "lat": 38.590166, "lon": -75.287866, "proficiency": 0.27, "schoolCount": 1}, {"name": "Harrington", "lat": 38.928763, "lon": -75.582053, "proficiency": 0.27, "schoolCount": 1}, {"name": "Laurel", "lat": 38.545982, "lon": -75.566342, "proficiency": 0.22, "schoolCount": 1}, {"name": "Milford", "lat": 38.930662, "lon": -75.427076, "proficiency": 0.22, "schoolCount": 1}, {"name": "Hockessin", "lat": 39.8004, "lon": -75.691619, "proficiency": 0.37, "schoolCount": 1}, {"name": "Greenville", "lat": 39.767728, "lon": -75.583407, "proficiency": 0.025, "schoolCount": 1}, {"name": "Seaford", "lat": 38.648538, "lon": -75.61213, "proficiency": 0.075, "schoolCount": 1}, {"name": "Smyrna", "lat": 39.302595, "lon": -75.623778, "proficiency": 0.15, "schoolCount": 1}, {"name": "Bridgeville", "lat": 38.739916, "lon": -75.600862, "proficiency": 0.12, "schoolCount": 1}]}