{"state": "GA", "stateName": "Georgia", "year": 2024, "naep": {"text": "3 out of 4", "numerator": 3, "denominator": 4}, "schools": [{"name": "Appling County Middle School", "lat": 31.7232, "lon": -82.3399, "proficiency": 0.443, "district": "Appling County", "city": "Baxley", "ncessch": "130006000009"}, {"name": "Atkinson County Middle School", "lat": 31.32105, "lon": -82.84949, "proficiency": 0.569, "district": "Atkinson County", "city": "Pearson", "ncessch": "130009003996"}, {"name": "Bacon County Middle School", "lat": 31.521944, "lon": -82.459265, "proficiency": 0.565, "district": "Bacon County", "city": "Alma", "ncessch": "130015002349"}, {"name": "Baker County K12 School", "lat": 31.311646, "lon": -84.344302, "proficiency": 0.278, "district": "Baker County", "city": "Newton", "ncessch": "130018001867"}, {"name": "Oak Hill MS", "lat": 33.0834, "lon": -83.2668, "proficiency": 0.185, "district": "Baldwin County", "city": "Milledgeville", "ncessch": "130021002347"}, {"name": "Banks County Middle School", "lat": 34.3126, "lon": -83.4785, "proficiency": 0.542, "district": "Banks County", "city": "Homer", "ncessch": "130024002015"}, {"name": "Haymon-Morris Middle School", "lat": 33.9478, "lon": -83.7894, "proficiency": 0.395, "district": "Barrow County", "city": "Winder", "ncessch": "130029003285"}, {"name": "Bear Creek Middle School", "lat": 33.969131, "lon": -83.588162, "proficiency": 0.401, "district": "Barrow County", "city": "Statham", "ncessch": "130029000175"}, {"name": "Westside Middle School", "lat": 33.9781, "lon": -83.7615, "proficiency": 0.315, "district": "Barrow County", "city": "Winder", "ncessch": "130029001913"}, {"name": "Russell Middle School", "lat": 34.005473, "lon": -83.734759, "proficiency": 0.42, "district": "Barrow County", "city": "Winder", "ncessch": "130029002017"}, {"name": "Woodland Middle School at Euharlee", "lat": 34.1464, "lon": -84.9291, "proficiency": 0.574, "district": "Bartow County", "city": "Euharlee", "ncessch": "130033002294"}, {"name": "Red Top Middle School", "lat": 34.1212, "lon": -84.765, "proficiency": 0.417, "district": "Bartow County", "city": "Emerson", "ncessch": "130033002060"}, {"name": "Cass Middle School", "lat": 34.2399, "lon": -84.8698, "proficiency": 0.531, "district": "Bartow County", "city": "Cartersville", "ncessch": "130033001868"}, {"name": "Adairsville Middle School", "lat": 34.334, "lon": -84.9157, "proficiency": 0.698, "district": "Bartow County", "city": "Adairsville", "ncessch": "130033002351"}, {"name": "Ben Hill County Middle School", "lat": 31.7608, "lon": -83.2593, "proficiency": 0.4, "district": "Ben Hill County", "city": "Fitzgerald", "ncessch": "130036002149"}, {"name": "Hurricane Transition Academy", "lat": 31.709121, "lon": -83.261285, "proficiency": 0.0, "district": "Ben Hill County", "city": "Fitzgerald", "ncessch": "130036004365"}, {"name": "Berrien Middle School", "lat": 31.2118, "lon": -83.262, "proficiency": 0.671, "district": "Berrien County", "city": "Nashville", "ncessch": "130039000228"}, {"name": "Ballard Hudson Middle School", "lat": 32.819, "lon": -83.658, "proficiency": 0.13, "district": "Bibb County", "city": "Macon", "ncessch": "130042003667"}, {"name": "Howard Middle School", "lat": 32.9049, "lon": -83.7724, "proficiency": 0.258, "district": "Bibb County", "city": "Macon", "ncessch": "130042003290"}, {"name": "Miller Magnet Middle School", "lat": 32.8389, "lon": -83.6581, "proficiency": 0.204, "district": "Bibb County", "city": "Macon", "ncessch": "130042002234"}, {"name": "Rutland Middle School", "lat": 32.736895, "lon": -83.715214, "proficiency": 0.127, "district": "Bibb County", "city": "Macon", "ncessch": "130042002620"}, {"name": "Price Academy", "lat": 32.851494, "lon": -83.665158, "proficiency": 0.0, "district": "Bibb County", "city": "Macon", "ncessch": "130042003621"}, {"name": "Weaver Middle School", "lat": 32.8245, "lon": -83.7436, "proficiency": 0.044, "district": "Bibb County", "city": "Macon", "ncessch": "130042001416"}, {"name": "VIP Academy (Virtual)", "lat": 32.857229, "lon": -83.643008, "proficiency": 0.059, "district": "Bibb County", "city": "Macon", "ncessch": "130042004410"}, {"name": "Appling Middle School", "lat": 32.866714, "lon": -83.622019, "proficiency": 0.081, "district": "Bibb County", "city": "Macon", "ncessch": "130042000212"}, {"name": "Bleckley Middle School", "lat": 32.411121, "lon": -83.322619, "proficiency": 0.485, "district": "Bleckley County", "city": "Cochran", "ncessch": "130044000254"}, {"name": "Bleckley County Success Academy", "lat": 32.410088, "lon": -83.32097, "proficiency": 0.111, "district": "Bleckley County", "city": "Cochran", "ncessch": "130044004162"}, {"name": "Brantley County Middle School", "lat": 31.193284, "lon": -82.025235, "proficiency": 0.584, "district": "Brantley County", "city": "Nahunta", "ncessch": "130048000232"}, {"name": "Brooks County Middle School", "lat": 30.8149, "lon": -83.5653, "proficiency": 0.192, "district": "Brooks County", "city": "Quitman", "ncessch": "130054001417"}, {"name": "Delta Innovative School", "lat": 30.799619, "lon": -83.576309, "proficiency": 0.0, "district": "Brooks County", "city": "Quitman", "ncessch": "130054004264"}, {"name": "Richmond Hill Middle School", "lat": 31.8484, "lon": -81.3122, "proficiency": 0.612, "district": "Bryan County", "city": "Richmond Hill", "ncessch": "130057002235"}, {"name": "Bryan County Middle School", "lat": 32.1494, "lon": -81.6082, "proficiency": 0.405, "district": "Bryan County", "city": "Pembroke", "ncessch": "130057002395"}, {"name": "William James Middle School", "lat": 32.490176, "lon": -81.813369, "proficiency": 0.442, "district": "Bulloch County", "city": "Statesboro", "ncessch": "130063002236"}, {"name": "Langston Chapel Middle School", "lat": 32.396713, "lon": -81.808107, "proficiency": 0.324, "district": "Bulloch County", "city": "Statesboro", "ncessch": "130063002238"}, {"name": "Southeast Bulloch Middle School", "lat": 32.361966, "lon": -81.680853, "proficiency": 0.667, "district": "Bulloch County", "city": "Brooklet", "ncessch": "130063002297"}, {"name": "Portal Middle/High School", "lat": 32.53855, "lon": -81.93581, "proficiency": 0.434, "district": "Bulloch County", "city": "Portal", "ncessch": "130063000281"}, {"name": "Burke County Middle School", "lat": 33.084, "lon": -81.9943, "proficiency": 0.302, "district": "Burke County", "city": "Waynesboro", "ncessch": "130066001990"}, {"name": "Henderson Middle School", "lat": 33.28572, "lon": -83.982349, "proficiency": 0.374, "district": "Butts County", "city": "Jackson", "ncessch": "130069002353"}, {"name": "Calhoun County Middle School", "lat": 31.564423, "lon": -84.723224, "proficiency": 0.171, "district": "Calhoun County", "city": "Edison", "ncessch": "130075004098"}, {"name": "Saint Marys Middle School", "lat": 30.7537, "lon": -81.5731, "proficiency": 0.583, "district": "Camden County", "city": "Saint Marys", "ncessch": "130078003299"}, {"name": "Camden Middle School", "lat": 30.7949, "lon": -81.6437, "proficiency": 0.514, "district": "Camden County", "city": "Kingsland", "ncessch": "130078001875"}, {"name": "Metter Middle School", "lat": 32.362092, "lon": -82.05114, "proficiency": 0.422, "district": "Candler County", "city": "Metter", "ncessch": "130081000318"}, {"name": "Bowdon Middle School", "lat": 33.5638, "lon": -85.229, "proficiency": 0.457, "district": "Carroll County", "city": "Bowdon", "ncessch": "130084002356"}, {"name": "Temple Middle School", "lat": 33.7472, "lon": -85.0271, "proficiency": 0.325, "district": "Carroll County", "city": "Temple", "ncessch": "130084002452"}, {"name": "KidsPeace", "lat": 33.557457, "lon": -85.237561, "proficiency": 0.0, "district": "Carroll County", "city": "Bowdon", "ncessch": "130084003483"}, {"name": "Central Middle School", "lat": 33.539472, "lon": -85.070409, "proficiency": 0.651, "district": "Carroll County", "city": "Carrollton", "ncessch": "130084000321"}, {"name": "Bay Springs Middle School", "lat": 33.6922, "lon": -84.9385, "proficiency": 0.47, "district": "Carroll County", "city": "Villa Rica", "ncessch": "130084002239"}, {"name": "Mt. Zion Middle School", "lat": 33.63775, "lon": -85.184213, "proficiency": 0.283, "district": "Carroll County", "city": "Mt. Zion", "ncessch": "130084003562"}, {"name": "Villa Rica Middle", "lat": 33.7808, "lon": -84.9695, "proficiency": 0.261, "district": "Carroll County", "city": "Temple", "ncessch": "130084003301"}, {"name": "Heritage Middle School", "lat": 34.891898, "lon": -85.19323, "proficiency": 0.598, "district": "Catoosa County", "city": "Ringgold", "ncessch": "130093003305"}, {"name": "Lakeview Middle School", "lat": 34.9724, "lon": -85.2573, "proficiency": 0.447, "district": "Catoosa County", "city": "Rossville", "ncessch": "130093000348"}, {"name": "Ringgold Middle School", "lat": 34.9218, "lon": -85.1097, "proficiency": 0.553, "district": "Catoosa County", "city": "Ringgold", "ncessch": "130093000351"}, {"name": "Bethune Middle School", "lat": 30.8156, "lon": -82.0115, "proficiency": 0.361, "district": "Charlton County", "city": "Folkston", "ncessch": "130099004016"}, {"name": "UHS of Savannah Coastal Harbor Treatment Center", "lat": 32.0118, "lon": -81.0979, "proficiency": 0.275, "district": "Savannah-Chatham County", "city": "Savannah", "ncessch": "130102003610"}, {"name": "Oglethorpe Charter School", "lat": 31.995725, "lon": -81.076295, "proficiency": 0.244, "district": "Savannah-Chatham County", "city": "Savannah", "ncessch": "130102002303"}, {"name": "The STEM Academy at Bartlett", "lat": 31.996053, "lon": -81.116514, "proficiency": 0.523, "district": "Savannah-Chatham County", "city": "Savannah", "ncessch": "130102000393"}, {"name": "Tybee Island Maritime Academy School", "lat": 32.0041, "lon": -80.845, "proficiency": 0.532, "district": "Savannah-Chatham County", "city": "Tybee Island", "ncessch": "130102004117"}, {"name": "Savannah Classical Academy Charter School", "lat": 32.059204, "lon": -81.087065, "proficiency": 0.654, "district": "Savannah-Chatham County", "city": "Savannah", "ncessch": "130102004135"}, {"name": "Esther F. Garrison School for the Arts", "lat": 32.0739, "lon": -81.103, "proficiency": 0.619, "district": "Savannah-Chatham County", "city": "Savannah", "ncessch": "130102002152"}, {"name": "Georgetown School", "lat": 31.9758, "lon": -81.2286, "proficiency": 0.471, "district": "Savannah-Chatham County", "city": "Savannah", "ncessch": "130102000238"}, {"name": "West Chatham Middle School", "lat": 32.0938, "lon": -81.2593, "proficiency": 0.172, "district": "Savannah-Chatham County", "city": "Pooler", "ncessch": "130102002242"}, {"name": "DeRenne Middle School", "lat": 32.0458, "lon": -81.1181, "proficiency": 0.13, "district": "Savannah-Chatham County", "city": "Savannah", "ncessch": "130102000362"}, {"name": "Godley Station School", "lat": 32.17368, "lon": -81.234669, "proficiency": 0.364, "district": "Savannah-Chatham County", "city": "Savannah", "ncessch": "130102003972"}, {"name": "Southwest Middle School", "lat": 31.9984, "lon": -81.2639, "proficiency": 0.134, "district": "Savannah-Chatham County", "city": "Savannah", "ncessch": "130102002243"}, {"name": "Myers Middle School", "lat": 32.0324, "lon": -81.0697, "proficiency": 0.107, "district": "Savannah-Chatham County", "city": "Savannah", "ncessch": "130102000381"}, {"name": "Coastal Middle School", "lat": 32.041216, "lon": -81.012688, "proficiency": 0.529, "district": "Savannah-Chatham County", "city": "Savannah", "ncessch": "130102002019"}, {"name": "Rice Creek School", "lat": 32.219043, "lon": -81.194708, "proficiency": 0.333, "district": "Savannah-Chatham County", "city": "Port Wentworth", "ncessch": "130102004185"}, {"name": "Susie King Taylor Community School", "lat": 32.059952, "lon": -81.099486, "proficiency": 0.063, "district": "Savannah-Chatham County", "city": "Savannah", "ncessch": "130102004298"}, {"name": "Savannah-Chatham E-Learning Academy", "lat": 32.048554, "lon": -81.117604, "proficiency": 0.173, "district": "Savannah-Chatham County", "city": "Savannah", "ncessch": "130102004381"}, {"name": "New Hampstead K-8 School", "lat": 32.072723, "lon": -81.326467, "proficiency": 0.344, "district": "Savannah-Chatham County", "city": "Bloomingdale", "ncessch": "130102004412"}, {"name": "Hubert Middle School", "lat": 32.066, "lon": -81.0848, "proficiency": 0.07, "district": "Savannah-Chatham County", "city": "Savannah", "ncessch": "130102000374"}, {"name": "Isle of Hope School", "lat": 31.980037, "lon": -81.064095, "proficiency": 0.269, "district": "Savannah-Chatham County", "city": "Savannah", "ncessch": "130102000411"}, {"name": "Ellis Elementary School", "lat": 32.0468, "lon": -81.0975, "proficiency": 0.482, "district": "Savannah-Chatham County", "city": "Savannah", "ncessch": "130102000402"}, {"name": "Hesse School", "lat": 31.978, "lon": -81.1043, "proficiency": 0.292, "district": "Savannah-Chatham County", "city": "Savannah", "ncessch": "130102000400"}, {"name": "Mercer Middle School", "lat": 32.03059, "lon": -81.113192, "proficiency": 0.063, "district": "Savannah-Chatham County", "city": "Garden City", "ncessch": "130102000387"}, {"name": "Chattahoochee County Middle School", "lat": 32.312421, "lon": -84.754388, "proficiency": 0.413, "district": "Chattahoochee County", "city": "Cusseta", "ncessch": "130105002358"}, {"name": "Lyerly Elementary School", "lat": 34.4056, "lon": -85.4093, "proficiency": 0.205, "district": "Chattooga County", "city": "Lyerly", "ncessch": "130108000417"}, {"name": "Summerville Middle School", "lat": 34.4593, "lon": -85.3533, "proficiency": 0.116, "district": "Chattooga County", "city": "Summerville", "ncessch": "130108000422"}, {"name": "Menlo Elementary School", "lat": 34.4769, "lon": -85.4753, "proficiency": 0.323, "district": "Chattooga County", "city": "Menlo", "ncessch": "130108000421"}, {"name": "Mill Creek Middle School", "lat": 34.117552, "lon": -84.478902, "proficiency": 0.553, "district": "Cherokee County", "city": "Woodstock", "ncessch": "130111003909"}, {"name": "E. T. Booth Middle School", "lat": 34.1183, "lon": -84.5615, "proficiency": 0.51, "district": "Cherokee County", "city": "Woodstock", "ncessch": "130111001860"}, {"name": "Dean Rusk Middle School", "lat": 34.173457, "lon": -84.423741, "proficiency": 0.597, "district": "Cherokee County", "city": "Canton", "ncessch": "130111001970"}, {"name": "Freedom Middle School", "lat": 34.1932, "lon": -84.5334, "proficiency": 0.671, "district": "Cherokee County", "city": "Canton", "ncessch": "130111003310"}, {"name": "Teasley Middle School", "lat": 34.262991, "lon": -84.482312, "proficiency": 0.488, "district": "Cherokee County", "city": "Canton", "ncessch": "130111001971"}, {"name": "Woodstock Middle School", "lat": 34.1005, "lon": -84.5398, "proficiency": 0.591, "district": "Cherokee County", "city": "Woodstock", "ncessch": "130111001438"}, {"name": "Creekland Middle School", "lat": 34.2358, "lon": -84.3332, "proficiency": 0.625, "district": "Cherokee County", "city": "Canton", "ncessch": "130111003312"}, {"name": "Coile Middle School", "lat": 33.9887, "lon": -83.2982, "proficiency": 0.293, "district": "Clarke County", "city": "Athens", "ncessch": "130117001106"}, {"name": "Burney-Harris-Lyons Middle School", "lat": 33.9904, "lon": -83.4735, "proficiency": 0.347, "district": "Clarke County", "city": "Athens", "ncessch": "130117000456"}, {"name": "Clarke Middle School", "lat": 33.9443, "lon": -83.4058, "proficiency": 0.384, "district": "Clarke County", "city": "Athens", "ncessch": "130117000443"}, {"name": "Hilsman Middle School", "lat": 33.9311, "lon": -83.3359, "proficiency": 0.318, "district": "Clarke County", "city": "Athens", "ncessch": "130117000450"}, {"name": "Clay County Middle School", "lat": 31.620837, "lon": -85.042746, "proficiency": 0.333, "district": "Clay County", "city": "Fort Gaines", "ncessch": "130120002833"}, {"name": "M. D. Roberts Middle School", "lat": 33.5218, "lon": -84.3309, "proficiency": 0.231, "district": "Clayton County", "city": "Jonesboro", "ncessch": "130123002304"}, {"name": "Jonesboro Middle School", "lat": 33.5199, "lon": -84.3486, "proficiency": 0.16, "district": "Clayton County", "city": "Jonesboro", "ncessch": "130123000465"}, {"name": "Sequoyah Middle School", "lat": 33.5644, "lon": -84.3868, "proficiency": 0.109, "district": "Clayton County", "city": "Riverdale", "ncessch": "130123003317"}, {"name": "Elite Scholars Academy School", "lat": 33.539748, "lon": -84.325726, "proficiency": 0.965, "district": "Clayton County", "city": "Jonesboro", "ncessch": "130123003896"}, {"name": "Eddie White Middle School", "lat": 33.430175, "lon": -84.360136, "proficiency": 0.186, "district": "Clayton County", "city": "Hampton", "ncessch": "130123004022"}, {"name": "Morrow Middle School", "lat": 33.593795, "lon": -84.320031, "proficiency": 0.256, "district": "Clayton County", "city": "Morrow", "ncessch": "130123000492"}, {"name": "Mundys Mill Middle School", "lat": 33.4871, "lon": -84.3511, "proficiency": 0.252, "district": "Clayton County", "city": "Jonesboro", "ncessch": "130123000463"}, {"name": "Adamson Middle School", "lat": 33.5897, "lon": -84.2862, "proficiency": 0.332, "district": "Clayton County", "city": "Rex", "ncessch": "130123000480"}, {"name": "Kendrick Middle School", "lat": 33.5367, "lon": -84.3873, "proficiency": 0.149, "district": "Clayton County", "city": "Jonesboro", "ncessch": "130123002057"}, {"name": "Rex Mill Middle School", "lat": 33.5812, "lon": -84.2829, "proficiency": 0.292, "district": "Clayton County", "city": "Rex", "ncessch": "130123003319"}, {"name": "Pointe South Middle School", "lat": 33.521032, "lon": -84.411494, "proficiency": 0.14, "district": "Clayton County", "city": "Jonesboro", "ncessch": "130123000478"}, {"name": "7 Pillars Career Academy", "lat": 33.638685, "lon": -84.371427, "proficiency": 0.0, "district": "Clayton County", "city": "Forest Park", "ncessch": "130123004364"}, {"name": "Forest Park Middle School", "lat": 33.6219, "lon": -84.3594, "proficiency": 0.149, "district": "Clayton County", "city": "Forest Park", "ncessch": "130123000466"}, {"name": "Babb Middle School", "lat": 33.6043, "lon": -84.3534, "proficiency": 0.409, "district": "Clayton County", "city": "Forest Park", "ncessch": "130123000496"}, {"name": "North Clayton Middle School", "lat": 33.6049, "lon": -84.4476, "proficiency": 0.182, "district": "Clayton County", "city": "College Park", "ncessch": "130123000495"}, {"name": "Riverdale Middle School", "lat": 33.5632, "lon": -84.4071, "proficiency": 0.097, "district": "Clayton County", "city": "Riverdale", "ncessch": "130123000491"}, {"name": "Clinch County High School", "lat": 31.049029, "lon": -82.750117, "proficiency": 0.491, "district": "Clinch County", "city": "Homerville", "ncessch": "130126000504"}, {"name": "Mabry Middle School", "lat": 34.06, "lon": -84.4704, "proficiency": 0.54, "district": "Cobb County", "city": "Marietta", "ncessch": "130129000512"}, {"name": "McCleskey Middle School", "lat": 34.0471, "lon": -84.5044, "proficiency": 0.527, "district": "Cobb County", "city": "Marietta", "ncessch": "130129001926"}, {"name": "Lindley Middle School", "lat": 33.8136, "lon": -84.554, "proficiency": 0.387, "district": "Cobb County", "city": "Mableton", "ncessch": "130129000561"}, {"name": "Dodgen Middle School", "lat": 33.9911, "lon": -84.445, "proficiency": 0.814, "district": "Cobb County", "city": "Marietta", "ncessch": "130129000508"}, {"name": "Pine Mountain Middle School", "lat": 33.9881, "lon": -84.6327, "proficiency": 0.551, "district": "Cobb County", "city": "Kennesaw", "ncessch": "130129000511"}, {"name": "Dickerson Middle School", "lat": 33.9694, "lon": -84.4172, "proficiency": 0.918, "district": "Cobb County", "city": "Marietta", "ncessch": "130129001880"}, {"name": "Campbell Middle School", "lat": 33.873222, "lon": -84.498532, "proficiency": 0.426, "district": "Cobb County", "city": "Smyrna", "ncessch": "130129002070"}, {"name": "Smitha Middle School", "lat": 33.8882, "lon": -84.612, "proficiency": 0.311, "district": "Cobb County", "city": "Marietta", "ncessch": "130129000242"}, {"name": "Durham Middle School", "lat": 34.0264, "lon": -84.7001, "proficiency": 0.733, "district": "Cobb County", "city": "Acworth", "ncessch": "130129002248"}, {"name": "Lindley 6th Grade Academy", "lat": 33.818408, "lon": -84.509751, "proficiency": 0.355, "district": "Cobb County", "city": "Mableton", "ncessch": "130129003795"}, {"name": "Simpson Middle School", "lat": 34.0329, "lon": -84.4777, "proficiency": 0.754, "district": "Cobb County", "city": "Marietta", "ncessch": "130129002023"}, {"name": "Hightower Trail Middle School", "lat": 34.0174, "lon": -84.4378, "proficiency": 0.796, "district": "Cobb County", "city": "Marietta", "ncessch": "130129000244"}, {"name": "Barber Middle School", "lat": 34.059637, "lon": -84.652144, "proficiency": 0.345, "district": "Cobb County", "city": "Acworth", "ncessch": "130129003531"}, {"name": "Tapp Middle School", "lat": 33.8762, "lon": -84.6678, "proficiency": 0.358, "district": "Cobb County", "city": "Powder Springs", "ncessch": "130129000541"}, {"name": "Lost Mountain Middle School", "lat": 33.9705, "lon": -84.6897, "proficiency": 0.724, "district": "Cobb County", "city": "Kennesaw", "ncessch": "130129002250"}, {"name": "Cooper Middle School", "lat": 33.8422, "lon": -84.6343, "proficiency": 0.461, "district": "Cobb County", "city": "Austell", "ncessch": "130129002475"}, {"name": "McClure Middle School", "lat": 34.0041, "lon": -84.657, "proficiency": 0.722, "district": "Cobb County", "city": "Kennesaw", "ncessch": "130129003632"}, {"name": "Palmer Middle School", "lat": 34.0521, "lon": -84.5689, "proficiency": 0.603, "district": "Cobb County", "city": "Kennesaw", "ncessch": "130129002476"}, {"name": "Lovinggood Middle School", "lat": 33.9265, "lon": -84.6634, "proficiency": 0.605, "district": "Cobb County", "city": "Powder Springs", "ncessch": "130129003622"}, {"name": "Devereux Ackerman Academy", "lat": 33.987151, "lon": -84.608978, "proficiency": 0.0, "district": "Cobb County", "city": "Kennesaw", "ncessch": "130129003679"}, {"name": "Cobb Horizon High School", "lat": 33.910176, "lon": -84.48201, "proficiency": 0.403, "district": "Cobb County", "city": "Atlanta", "ncessch": "130129004303"}, {"name": "Pearson Middle School", "lat": 33.915564, "lon": -84.545969, "proficiency": 0.181, "district": "Cobb County", "city": "Marietta", "ncessch": "130129004420"}, {"name": "East Cobb Middle School", "lat": 33.930757, "lon": -84.458605, "proficiency": 0.421, "district": "Cobb County", "city": "Marietta", "ncessch": "130129000536"}, {"name": "Garrett Middle School", "lat": 33.8279, "lon": -84.644, "proficiency": 0.293, "district": "Cobb County", "city": "Austell", "ncessch": "130129000534"}, {"name": "Griffin Middle School", "lat": 33.8562, "lon": -84.5207, "proficiency": 0.494, "district": "Cobb County", "city": "Smyrna", "ncessch": "130129000518"}, {"name": "Awtrey Middle School", "lat": 34.0429, "lon": -84.6474, "proficiency": 0.376, "district": "Cobb County", "city": "Kennesaw", "ncessch": "130129000566"}, {"name": "Daniell Middle School", "lat": 34.022, "lon": -84.5317, "proficiency": 0.444, "district": "Cobb County", "city": "Marietta", "ncessch": "130129000564"}, {"name": "Floyd Middle School", "lat": 33.8382, "lon": -84.5749, "proficiency": 0.361, "district": "Cobb County", "city": "Mableton", "ncessch": "130129000553"}, {"name": "Coffee Middle School", "lat": 31.5397, "lon": -82.8354, "proficiency": 0.362, "district": "Coffee County", "city": "Douglas", "ncessch": "130135003321"}, {"name": "CA Gray Junior High School", "lat": 31.1914, "lon": -83.799, "proficiency": 0.367, "district": "Colquitt County", "city": "Moultrie", "ncessch": "130138000588"}, {"name": "Greenbrier Middle School", "lat": 33.5883, "lon": -82.1875, "proficiency": 0.493, "district": "Columbia County", "city": "Evans", "ncessch": "130141002366"}, {"name": "Grovetown Middle School", "lat": 33.4534, "lon": -82.2205, "proficiency": 0.333, "district": "Columbia County", "city": "Grovetown", "ncessch": "130141002528"}, {"name": "Evans Middle School", "lat": 33.532094, "lon": -82.15958, "proficiency": 0.602, "district": "Columbia County", "city": "Evans", "ncessch": "130141000601"}, {"name": "Stallings Island Middle School", "lat": 33.5601, "lon": -82.0802, "proficiency": 0.728, "district": "Columbia County", "city": "Martinez", "ncessch": "130141003694"}, {"name": "Riverside Middle School", "lat": 33.5723, "lon": -82.1171, "proficiency": 0.716, "district": "Columbia County", "city": "Evans", "ncessch": "130141000126"}, {"name": "Harlem Middle School", "lat": 33.47622, "lon": -82.317302, "proficiency": 0.21, "district": "Columbia County", "city": "Harlem", "ncessch": "130141001886"}, {"name": "Lakeside Middle School", "lat": 33.536, "lon": -82.1015, "proficiency": 0.422, "district": "Columbia County", "city": "Evans", "ncessch": "130141002073"}, {"name": "Columbia Middle School", "lat": 33.495782, "lon": -82.231981, "proficiency": 0.425, "district": "Columbia County", "city": "Grovetown", "ncessch": "130141000607"}, {"name": "Cook County Middle School", "lat": 31.155176, "lon": -83.437312, "proficiency": 0.526, "district": "Cook County", "city": "Sparks", "ncessch": "130147000628"}, {"name": "Lee Middle School", "lat": 33.362, "lon": -84.6513, "proficiency": 0.438, "district": "Coweta County", "city": "Sharpsburg", "ncessch": "130150003328"}, {"name": "East Coweta Middle School", "lat": 33.3043, "lon": -84.5987, "proficiency": 0.306, "district": "Coweta County", "city": "Senoia", "ncessch": "130150002027"}, {"name": "Madras Middle School", "lat": 33.4375, "lon": -84.76, "proficiency": 0.509, "district": "Coweta County", "city": "Newnan", "ncessch": "130150002252"}, {"name": "Smokey Road Middle School", "lat": 33.3621, "lon": -84.8455, "proficiency": 0.195, "district": "Coweta County", "city": "Newnan", "ncessch": "130150002367"}, {"name": "Arnall Middle School", "lat": 33.3927, "lon": -84.7024, "proficiency": 0.458, "district": "Coweta County", "city": "Newnan", "ncessch": "130150000825"}, {"name": "Blake Bass Middle School", "lat": 33.466992, "lon": -84.65512, "proficiency": 0.611, "district": "Coweta County", "city": "Sharpsburg", "ncessch": "130150004423"}, {"name": "Evans Middle School", "lat": 33.3901, "lon": -84.819214, "proficiency": 0.401, "district": "Coweta County", "city": "Newnan", "ncessch": "130150000750"}, {"name": "Crawford County Middle School", "lat": 32.720634, "lon": -84.004821, "proficiency": 0.306, "district": "Crawford County", "city": "Roberta", "ncessch": "130153002151"}, {"name": "Crisp County Middle School", "lat": 31.954, "lon": -83.7635, "proficiency": 0.143, "district": "Crisp County", "city": "Cordele", "ncessch": "130156001508"}, {"name": "Dade Middle School", "lat": 34.8722, "lon": -85.5185, "proficiency": 0.5, "district": "Dade County", "city": "Trenton", "ncessch": "130159000777"}, {"name": "Dawson County Junior High", "lat": 34.420212, "lon": -84.113194, "proficiency": 0.454, "district": "Dawson County", "city": "Dawsonville", "ncessch": "130165003623"}, {"name": "New Beginning Learning Center", "lat": 30.898114, "lon": -84.556545, "proficiency": 0.274, "district": "Decatur County", "city": "Bainbridge", "ncessch": "130171004170"}, {"name": "Bainbridge Middle School", "lat": 30.898114, "lon": -84.556545, "proficiency": 0.295, "district": "Decatur County", "city": "Bainbridge", "ncessch": "130171000614"}, {"name": "DeKalb Preparatory Academy Charter", "lat": 33.7518, "lon": -84.2329, "proficiency": 0.291, "district": "DeKalb County", "city": "Decatur", "ncessch": "130174004071"}, {"name": "Peachtree Middle School", "lat": 33.9311, "lon": -84.2968, "proficiency": 0.417, "district": "DeKalb County", "city": "Atlanta", "ncessch": "130174002031"}, {"name": "Chapel Hill Middle School", "lat": 33.68, "lon": -84.216, "proficiency": 0.276, "district": "DeKalb County", "city": "Decatur", "ncessch": "130174000083"}, {"name": "Cedar Grove Middle School", "lat": 33.6873, "lon": -84.2957, "proficiency": 0.192, "district": "DeKalb County", "city": "Decatur", "ncessch": "130174002310"}, {"name": "Freedom Middle School", "lat": 33.7819, "lon": -84.1966, "proficiency": 0.188, "district": "DeKalb County", "city": "Stone Mountain", "ncessch": "130174002370"}, {"name": "Lithonia Middle School", "lat": 33.7148, "lon": -84.1107, "proficiency": 0.157, "district": "DeKalb County", "city": "Lithonia", "ncessch": "130174002858"}, {"name": "Redan Middle School", "lat": 33.7415, "lon": -84.1572, "proficiency": 0.169, "district": "DeKalb County", "city": "Lithonia", "ncessch": "130174002859"}, {"name": "Museum School Avondale Estates", "lat": 33.768903, "lon": -84.271127, "proficiency": 0.528, "district": "DeKalb County", "city": "Avondale Estates", "ncessch": "130174004039"}, {"name": "Sequoyah Middle School", "lat": 33.8914, "lon": -84.2714, "proficiency": 0.177, "district": "DeKalb County", "city": "Atlanta", "ncessch": "130174000672"}, {"name": "Salem Middle School", "lat": 33.6769, "lon": -84.1722, "proficiency": 0.156, "district": "DeKalb County", "city": "Lithonia", "ncessch": "130174000222"}, {"name": "Columbia Middle School", "lat": 33.6974, "lon": -84.2535, "proficiency": 0.107, "district": "DeKalb County", "city": "Decatur", "ncessch": "130174002480"}, {"name": "Wadsworth Magnet School for High Achievers", "lat": 33.743729, "lon": -84.26605, "proficiency": 1.0, "district": "DeKalb County", "city": "Decatur", "ncessch": "130174003750"}, {"name": "Leadership Preparatory Academy", "lat": 33.6989, "lon": -84.1365, "proficiency": 0.307, "district": "DeKalb County", "city": "Lithonia", "ncessch": "130174004006"}, {"name": "GLOBE Academy Charter School I", "lat": 33.849, "lon": -84.2909, "proficiency": 0.708, "district": "DeKalb County", "city": "Atlanta", "ncessch": "130174004142"}, {"name": "Tapestry Public Charter School", "lat": 33.8863, "lon": -84.275799, "proficiency": 0.37, "district": "DeKalb County", "city": "Doraville", "ncessch": "130174004159"}, {"name": "Stephenson Middle School", "lat": 33.7742, "lon": -84.1158, "proficiency": 0.296, "district": "DeKalb County", "city": "Stone Mountain", "ncessch": "130174001547"}, {"name": "Mary McLeod Bethune Middle School", "lat": 33.7343, "lon": -84.2023, "proficiency": 0.189, "district": "DeKalb County", "city": "Decatur", "ncessch": "130174002482"}, {"name": "Chamblee Middle School", "lat": 33.8967, "lon": -84.3109, "proficiency": 0.592, "district": "DeKalb County", "city": "Chamblee", "ncessch": "130174003336"}, {"name": "DeKalb Alternative School", "lat": 33.798459, "lon": -84.198287, "proficiency": 0.0, "district": "DeKalb County", "city": "Stone Mountain", "ncessch": "130174002313"}, {"name": "Stone Mountain Middle School", "lat": 33.8327, "lon": -84.212, "proficiency": 0.232, "district": "DeKalb County", "city": "Tucker", "ncessch": "130174003337"}, {"name": "The Champion Middle Theme School", "lat": 33.8052, "lon": -84.1733, "proficiency": 0.382, "district": "DeKalb County", "city": "Stone Mountain", "ncessch": "130174003643"}, {"name": "Miller Grove Middle School", "lat": 33.7239, "lon": -84.1835, "proficiency": 0.079, "district": "DeKalb County", "city": "Decatur", "ncessch": "130174001568"}, {"name": "Tucker Middle School", "lat": 33.8472, "lon": -84.2142, "proficiency": 0.302, "district": "DeKalb County", "city": "Tucker", "ncessch": "130174003338"}, {"name": "DeKalb PATH Academy Charter School", "lat": 33.8758, "lon": -84.3379, "proficiency": 0.3, "district": "DeKalb County", "city": "Atlanta", "ncessch": "130174003339"}, {"name": "Henderson Middle School", "lat": 33.867, "lon": -84.2525, "proficiency": 0.25, "district": "DeKalb County", "city": "Chamblee", "ncessch": "130174001586"}, {"name": "Druid Hills Middle School", "lat": 33.8193, "lon": -84.273, "proficiency": 0.492, "district": "DeKalb County", "city": "Decatur", "ncessch": "130174001589"}, {"name": "DeKalb Agriculture Technology and Environment School", "lat": 33.8244, "lon": -84.1994, "proficiency": 0.616, "district": "DeKalb County", "city": "Stone Mountain", "ncessch": "130174003955"}, {"name": "DeKalb Elementary School of the Arts", "lat": 33.77892, "lon": -84.260847, "proficiency": 0.706, "district": "DeKalb County", "city": "Avondale Estates", "ncessch": "130174000656"}, {"name": "McNair Middle School", "lat": 33.719133, "lon": -84.297705, "proficiency": 0.317, "district": "DeKalb County", "city": "Decatur", "ncessch": "130174000649"}, {"name": "Dodge County Middle School", "lat": 32.20512, "lon": -83.187955, "proficiency": 0.205, "district": "Dodge County", "city": "Eastman", "ncessch": "130177000803"}, {"name": "DAC (Dodge County Achievement Center)", "lat": 32.184317, "lon": -83.188233, "proficiency": 0.0, "district": "Dodge County", "city": "Eastman", "ncessch": "130177004186"}, {"name": "Dooly County Middle School", "lat": 32.1848, "lon": -83.7665, "proficiency": 0.054, "district": "Dooly County", "city": "Pinehurst", "ncessch": "130180002075"}, {"name": "Dooly County Prep Academy", "lat": 32.093044, "lon": -83.783882, "proficiency": 0.0, "district": "Dooly County", "city": "Vienna", "ncessch": "130180004286"}, {"name": "Albany Middle School", "lat": 31.591506, "lon": -84.109484, "proficiency": 0.294, "district": "Dougherty County", "city": "Albany", "ncessch": "130183000833"}, {"name": "Robert A. Cross Middle Magnet", "lat": 31.5734, "lon": -84.2497, "proficiency": 0.85, "district": "Dougherty County", "city": "Albany", "ncessch": "130183002546"}, {"name": "Radium Springs Middle School", "lat": 31.5183, "lon": -84.1276, "proficiency": 0.075, "district": "Dougherty County", "city": "Albany", "ncessch": "130183003343"}, {"name": "South Georgia Regional Achievement Center- The Phoenix", "lat": 31.568409, "lon": -84.103416, "proficiency": 0.059, "district": "Dougherty County", "city": "Albany", "ncessch": "130183004407"}, {"name": "Merry Acres Middle School", "lat": 31.5871, "lon": -84.1883, "proficiency": 0.249, "district": "Dougherty County", "city": "Albany", "ncessch": "130183000842"}, {"name": "Yeager Middle School", "lat": 33.6962, "lon": -84.7708, "proficiency": 0.324, "district": "Douglas County", "city": "Douglasville", "ncessch": "130186002547"}, {"name": "Factory Shoals Middle School", "lat": 33.72358, "lon": -84.65026, "proficiency": 0.192, "district": "Douglas County", "city": "Douglasville", "ncessch": "130186003557"}, {"name": "Mason Creek Middle School", "lat": 33.715968, "lon": -84.831146, "proficiency": 0.56, "district": "Douglas County", "city": "Winston", "ncessch": "130186003890"}, {"name": "Fairplay Middle School", "lat": 33.6181, "lon": -84.8483, "proficiency": 0.454, "district": "Douglas County", "city": "Douglasville", "ncessch": "130186000851"}, {"name": "Chestnut Log Middle School", "lat": 33.7366, "lon": -84.6948, "proficiency": 0.23, "district": "Douglas County", "city": "Douglasville", "ncessch": "130186002000"}, {"name": "Brighten Academy", "lat": 33.737391, "lon": -84.72764, "proficiency": 0.482, "district": "Douglas County", "city": "Douglasville", "ncessch": "130186003670"}, {"name": "Youth Villages at Inner Harbour", "lat": 33.6777, "lon": -84.7339, "proficiency": 0.0, "district": "Douglas County", "city": "Douglasville", "ncessch": "130186003689"}, {"name": "Turner Middle School", "lat": 33.7819, "lon": -84.6601, "proficiency": 0.177, "district": "Douglas County", "city": "Lithia Springs", "ncessch": "130186000856"}, {"name": "Chapel Hill Middle School", "lat": 33.6963, "lon": -84.7175, "proficiency": 0.362, "district": "Douglas County", "city": "Douglasville", "ncessch": "130186000865"}, {"name": "Stewart Middle School", "lat": 33.7581, "lon": -84.7467, "proficiency": 0.274, "district": "Douglas County", "city": "Douglasville", "ncessch": "130186000861"}, {"name": "Early County Middle School", "lat": 31.376, "lon": -84.9411, "proficiency": 0.252, "district": "Early County", "city": "Blakely", "ncessch": "130192002163"}, {"name": "Echols County Elementary/Middle School", "lat": 30.699578, "lon": -83.024662, "proficiency": 0.807, "district": "Echols County", "city": "Statenville", "ncessch": "130195003976"}, {"name": "Ebenezer Middle School", "lat": 32.346818, "lon": -81.228003, "proficiency": 0.636, "district": "Effingham County", "city": "Rincon", "ncessch": "130198002550"}, {"name": "Effingham County Middle School", "lat": 32.354, "lon": -81.3439, "proficiency": 0.569, "district": "Effingham County", "city": "Guyton", "ncessch": "130198000888"}, {"name": "South Effingham Middle School", "lat": 32.1888, "lon": -81.3368, "proficiency": 0.721, "district": "Effingham County", "city": "Guyton", "ncessch": "130198001597"}, {"name": "Elbert County Middle School", "lat": 34.1066, "lon": -82.8946, "proficiency": 0.315, "district": "Elbert County", "city": "Elberton", "ncessch": "130201002871"}, {"name": "Swainsboro Middle School", "lat": 32.5726, "lon": -82.3093, "proficiency": 0.304, "district": "Emanuel County", "city": "Swainsboro", "ncessch": "130204002034"}, {"name": "Emanuel County Institute", "lat": 32.580736, "lon": -82.154955, "proficiency": 0.449, "district": "Emanuel County", "city": "Twin City", "ncessch": "130204000905"}, {"name": "Second Chance", "lat": 32.152066, "lon": -81.909432, "proficiency": 0.065, "district": "Evans County", "city": "Claxton", "ncessch": "130207004287"}, {"name": "Claxton Middle School", "lat": 32.152066, "lon": -81.909432, "proficiency": 0.076, "district": "Evans County", "city": "Claxton", "ncessch": "130207000911"}, {"name": "Fannin County Middle School", "lat": 34.8706, "lon": -84.3022, "proficiency": 0.414, "district": "Fannin County", "city": "Blue Ridge", "ncessch": "130210000067"}, {"name": "Bennett's Mill Middle School", "lat": 33.443, "lon": -84.511, "proficiency": 0.736, "district": "Fayette County", "city": "Fayetteville", "ncessch": "130213003638"}, {"name": "J.C. Booth Middle School", "lat": 33.41546, "lon": -84.551644, "proficiency": 0.819, "district": "Fayette County", "city": "Peachtree City", "ncessch": "130213000925"}, {"name": "Rising Starr Middle School", "lat": 33.3421, "lon": -84.5195, "proficiency": 0.796, "district": "Fayette County", "city": "Fayetteville", "ncessch": "130213002166"}, {"name": "Whitewater Middle School", "lat": 33.3875, "lon": -84.4751, "proficiency": 0.761, "district": "Fayette County", "city": "Fayetteville", "ncessch": "130213002117"}, {"name": "Flat Rock Middle School", "lat": 33.4961, "lon": -84.5694, "proficiency": 0.636, "district": "Fayette County", "city": "Tyrone", "ncessch": "130213002118"}, {"name": "Pepperell High School", "lat": 34.1811, "lon": -85.1801, "proficiency": 0.59, "district": "Floyd County", "city": "Lindale", "ncessch": "130219003351"}, {"name": "Model High", "lat": 34.31, "lon": -85.099, "proficiency": 0.705, "district": "Floyd County", "city": "Rome", "ncessch": "130219002373"}, {"name": "Armuchee High School", "lat": 34.3427, "lon": -85.175, "proficiency": 0.644, "district": "Floyd County", "city": "Rome", "ncessch": "130219002375"}, {"name": "Coosa High School", "lat": 34.2633, "lon": -85.3041, "proficiency": 0.589, "district": "Floyd County", "city": "Rome", "ncessch": "130219000937"}, {"name": "Riverwatch Middle School", "lat": 34.1244, "lon": -84.1096, "proficiency": 0.721, "district": "Forsyth County", "city": "Suwanee", "ncessch": "130222003352"}, {"name": "Vickery Creek Middle School", "lat": 34.1788, "lon": -84.2231, "proficiency": 0.801, "district": "Forsyth County", "city": "Cumming", "ncessch": "130222002261"}, {"name": "Otwell Middle School", "lat": 34.2185, "lon": -84.1374, "proficiency": 0.426, "district": "Forsyth County", "city": "Cumming", "ncessch": "130222000951"}, {"name": "Little Mill Middle School", "lat": 34.2496, "lon": -84.0207, "proficiency": 0.396, "district": "Forsyth County", "city": "Cumming", "ncessch": "130222003355"}, {"name": "Lakeside Middle School", "lat": 34.1651, "lon": -84.0976, "proficiency": 0.844, "district": "Forsyth County", "city": "Cumming", "ncessch": "130222003858"}, {"name": "Liberty Middle School", "lat": 34.2878, "lon": -84.2051, "proficiency": 0.5, "district": "Forsyth County", "city": "Cumming", "ncessch": "130222002559"}, {"name": "Piney Grove Middle School", "lat": 34.1448, "lon": -84.1787, "proficiency": 0.872, "district": "Forsyth County", "city": "Cumming", "ncessch": "130222003357"}, {"name": "North Forsyth Middle School", "lat": 34.2778, "lon": -84.1036, "proficiency": 0.583, "district": "Forsyth County", "city": "Cumming", "ncessch": "130222002178"}, {"name": "South Forsyth Middle School", "lat": 34.115894, "lon": -84.152968, "proficiency": 0.9, "district": "Forsyth County", "city": "Cumming", "ncessch": "130222002262"}, {"name": "DeSana Middle School", "lat": 34.12939, "lon": -84.238405, "proficiency": 0.712, "district": "Forsyth County", "city": "Alpharetta", "ncessch": "130222004228"}, {"name": "Hendricks Middle School", "lat": 34.220803, "lon": -84.241866, "proficiency": 0.773, "district": "Forsyth County", "city": "Cumming", "ncessch": "130222004417"}, {"name": "Franklin County Middle School", "lat": 34.394886, "lon": -83.194216, "proficiency": 0.392, "district": "Franklin County", "city": "Carnesville", "ncessch": "130225003358"}, {"name": "Hopewell Middle School", "lat": 34.1008, "lon": -84.2811, "proficiency": 0.522, "district": "Fulton County", "city": "Alpharetta", "ncessch": "130228003360"}, {"name": "Renaissance Middle School", "lat": 33.6164, "lon": -84.6214, "proficiency": 0.304, "district": "Fulton County", "city": "Fairburn", "ncessch": "130228003563"}, {"name": "Main Street Charter Academy", "lat": 33.641596, "lon": -84.481704, "proficiency": 0.172, "district": "Fulton County", "city": "College Park", "ncessch": "130228003990"}, {"name": "Crabapple Middle School", "lat": 34.044233, "lon": -84.375693, "proficiency": 0.73, "district": "Fulton County", "city": "Roswell", "ncessch": "130228001928"}, {"name": "Camp Creek Middle School", "lat": 33.6375, "lon": -84.5279, "proficiency": 0.237, "district": "Fulton County", "city": "Atlanta", "ncessch": "130228001956"}, {"name": "McNair Middle School", "lat": 33.593976, "lon": -84.484237, "proficiency": 0.171, "district": "Fulton County", "city": "College Park", "ncessch": "130228002035"}, {"name": "KIPP South Fulton Academy School", "lat": 33.6756, "lon": -84.4311, "proficiency": 0.58, "district": "Fulton County", "city": "Atlanta", "ncessch": "130228002885"}, {"name": "Chattahoochee Hills Charter School", "lat": 33.581521, "lon": -84.702301, "proficiency": 0.321, "district": "Fulton County", "city": "Fairburn", "ncessch": "130228004147"}, {"name": "Holcomb Bridge Middle School", "lat": 33.9935, "lon": -84.2835, "proficiency": 0.436, "district": "Fulton County", "city": "Alpharetta", "ncessch": "130228001930"}, {"name": "Ridgeview Charter School", "lat": 33.898218, "lon": -84.359291, "proficiency": 0.562, "district": "Fulton County", "city": "Atlanta", "ncessch": "130228001957"}, {"name": "Woodland Middle School", "lat": 33.6677, "lon": -84.4811, "proficiency": 0.173, "district": "Fulton County", "city": "East Point", "ncessch": "130228002036"}, {"name": "Elkins Pointe Middle School", "lat": 34.0581, "lon": -84.3366, "proficiency": 0.54, "district": "Fulton County", "city": "Roswell", "ncessch": "130228002492"}, {"name": "Autrey Mill Middle School", "lat": 34.0188, "lon": -84.2396, "proficiency": 0.798, "district": "Fulton County", "city": "Alpharetta", "ncessch": "130228002886"}, {"name": "Haynes Bridge Middle School", "lat": 34.0405, "lon": -84.2822, "proficiency": 0.574, "district": "Fulton County", "city": "Alpharetta", "ncessch": "130228001929"}, {"name": "Bear Creek Middle School", "lat": 33.5563, "lon": -84.6258, "proficiency": 0.195, "district": "Fulton County", "city": "Fairburn", "ncessch": "130228002121"}, {"name": "River Trail Middle School", "lat": 34.0434, "lon": -84.1243, "proficiency": 0.822, "district": "Fulton County", "city": "Duluth", "ncessch": "130228002493"}, {"name": "Amana Academy School", "lat": 34.069218, "lon": -84.302681, "proficiency": 0.418, "district": "Fulton County", "city": "Alpharetta", "ncessch": "130228003535"}, {"name": "Webb Bridge Middle School", "lat": 34.0675, "lon": -84.2315, "proficiency": 0.878, "district": "Fulton County", "city": "Alpharetta", "ncessch": "130228001627"}, {"name": "Sandtown Middle School", "lat": 33.6998, "lon": -84.5611, "proficiency": 0.366, "district": "Fulton County", "city": "Atlanta", "ncessch": "130228003368"}, {"name": "Taylor Road Middle School", "lat": 34.0529, "lon": -84.2092, "proficiency": 0.825, "district": "Fulton County", "city": "Alpharetta", "ncessch": "130228002123"}, {"name": "Northwestern Middle School", "lat": 34.0962, "lon": -84.3369, "proficiency": 0.751, "district": "Fulton County", "city": "Alpharetta", "ncessch": "130228001631"}, {"name": "Sandy Springs Middle School", "lat": 33.99702, "lon": -84.339515, "proficiency": 0.394, "district": "Fulton County", "city": "Atlanta", "ncessch": "130228000975"}, {"name": "Paul D. West Middle School", "lat": 33.6886, "lon": -84.4656, "proficiency": 0.247, "district": "Fulton County", "city": "East Point", "ncessch": "130228002564"}, {"name": "Fulton Academy of Science and Technology", "lat": 34.056795, "lon": -84.359813, "proficiency": 0.579, "district": "Fulton County", "city": "Roswell", "ncessch": "130228004259"}, {"name": "Fulton Academy of Virtual Excellence", "lat": 33.909873, "lon": -84.426403, "proficiency": 0.189, "district": "Fulton County", "city": "Atlanta", "ncessch": "130228004409"}, {"name": "Clear Creek Middle School", "lat": 34.61465, "lon": -84.455723, "proficiency": 0.681, "district": "Gilmer County", "city": "Ellijay", "ncessch": "130234003371"}, {"name": "Glascock County Middle/High School", "lat": 33.241035, "lon": -82.611183, "proficiency": 0.568, "district": "Glascock County", "city": "Gibson", "ncessch": "130237001055"}, {"name": "Morningstar Treatment Services- Inc. Youth Estate", "lat": 31.314296, "lon": -81.472007, "proficiency": 0.484, "district": "Glynn County", "city": "Brunswick", "ncessch": "130240003697"}, {"name": "Glynn Middle", "lat": 31.1398, "lon": -81.4818, "proficiency": 0.525, "district": "Glynn County", "city": "Brunswick", "ncessch": "130240001064"}, {"name": "Jane Macon Middle", "lat": 31.261665, "lon": -81.562465, "proficiency": 0.433, "district": "Glynn County", "city": "Brunswick", "ncessch": "130240001058"}, {"name": "Risley Middle School", "lat": 31.132006, "lon": -81.593876, "proficiency": 0.49, "district": "Glynn County", "city": "Brunswick", "ncessch": "130240004076"}, {"name": "Needwood Middle School", "lat": 31.2777, "lon": -81.4668, "proficiency": 0.498, "district": "Glynn County", "city": "Brunswick", "ncessch": "130240002266"}, {"name": "Red Bud Middle School", "lat": 34.528185, "lon": -84.839687, "proficiency": 0.476, "district": "Gordon County", "city": "Calhoun", "ncessch": "130243004118"}, {"name": "Ashworth Middle School", "lat": 34.5199, "lon": -84.9238, "proficiency": 0.35, "district": "Gordon County", "city": "Calhoun", "ncessch": "130243002175"}, {"name": "Washington Middle School", "lat": 30.874754, "lon": -84.224553, "proficiency": 0.424, "district": "Grady County", "city": "Cairo", "ncessch": "130246001084"}, {"name": "Whigham Elementary School", "lat": 30.8813, "lon": -84.3286, "proficiency": 0.5, "district": "Grady County", "city": "Whigham", "ncessch": "130246001082"}, {"name": "Shiver Elementary School", "lat": 31.003607, "lon": -84.205243, "proficiency": 0.75, "district": "Grady County", "city": "Pelham", "ncessch": "130246001079"}, {"name": "Anita White Carson Middle School", "lat": 33.5612, "lon": -83.18, "proficiency": 0.295, "district": "Greene County", "city": "Greensboro", "ncessch": "130249002383"}, {"name": "LAKE OCONEE CHARTER", "lat": 33.489205, "lon": -83.242008, "proficiency": 0.546, "district": "Greene County", "city": "Greensboro", "ncessch": "130249003570"}, {"name": "Trickum Middle School", "lat": 33.886714, "lon": -84.119753, "proficiency": 0.568, "district": "Gwinnett County", "city": "Lilburn", "ncessch": "130255001115"}, {"name": "Pinckneyville Middle School", "lat": 33.98466, "lon": -84.228941, "proficiency": 0.507, "district": "Gwinnett County", "city": "Peachtree Corners", "ncessch": "130255001960"}, {"name": "Richards Middle School", "lat": 33.9278, "lon": -84.0202, "proficiency": 0.434, "district": "Gwinnett County", "city": "Lawrenceville", "ncessch": "130255002004"}, {"name": "Creekland Middle School", "lat": 34.0011, "lon": -84.008, "proficiency": 0.535, "district": "Gwinnett County", "city": "Lawrenceville", "ncessch": "130255001632"}, {"name": "Crews Middle School", "lat": 33.9071, "lon": -84.0088, "proficiency": 0.831, "district": "Gwinnett County", "city": "Lawrenceville", "ncessch": "130255002196"}, {"name": "Osborne Middle School", "lat": 34.078014, "lon": -83.872967, "proficiency": 0.77, "district": "Gwinnett County", "city": "Hoschton", "ncessch": "130255003380"}, {"name": "Lanier Middle School", "lat": 34.148298, "lon": -84.065636, "proficiency": 0.727, "district": "Gwinnett County", "city": "Sugar Hill", "ncessch": "130255003738"}, {"name": "Sweetwater Middle School", "lat": 33.9265, "lon": -84.1076, "proficiency": 0.346, "district": "Gwinnett County", "city": "Lawrenceville", "ncessch": "130255001144"}, {"name": "Five Forks Middle School", "lat": 33.8842, "lon": -84.0693, "proficiency": 0.777, "district": "Gwinnett County", "city": "Lawrenceville", "ncessch": "130255001143"}, {"name": "Shiloh Middle School", "lat": 33.8258, "lon": -84.0725, "proficiency": 0.298, "district": "Gwinnett County", "city": "Snellville", "ncessch": "130255001910"}, {"name": "Hull Middle School", "lat": 34.0136, "lon": -84.1032, "proficiency": 0.729, "district": "Gwinnett County", "city": "Duluth", "ncessch": "130255001633"}, {"name": "Berkmar Middle School", "lat": 33.9038, "lon": -84.1285, "proficiency": 0.339, "district": "Gwinnett County", "city": "Lilburn", "ncessch": "130255003385"}, {"name": "Dacula Middle School", "lat": 33.9913, "lon": -83.8947, "proficiency": 0.518, "district": "Gwinnett County", "city": "Dacula", "ncessch": "130255001907"}, {"name": "Gwinnett InterVention Education (GIVE) Center East", "lat": 33.986333, "lon": -83.971812, "proficiency": 0.071, "district": "Gwinnett County", "city": "Lawrenceville", "ncessch": "130255000308"}, {"name": "Jones Middle School", "lat": 34.1033, "lon": -83.9372, "proficiency": 0.744, "district": "Gwinnett County", "city": "Buford", "ncessch": "130255003388"}, {"name": "McConnell Middle School", "lat": 33.8952, "lon": -83.9142, "proficiency": 0.575, "district": "Gwinnett County", "city": "Loganville", "ncessch": "130255001638"}, {"name": "Duluth Middle School", "lat": 33.987, "lon": -84.1584, "proficiency": 0.467, "district": "Gwinnett County", "city": "Duluth", "ncessch": "130255001122"}, {"name": "Bay Creek Middle School", "lat": 33.8727, "lon": -83.9606, "proficiency": 0.779, "district": "Gwinnett County", "city": "Grayson", "ncessch": "130255003870"}, {"name": "Grace Snell Middle School", "lat": 33.8419, "lon": -83.9441, "proficiency": 0.417, "district": "Gwinnett County", "city": "Loganville", "ncessch": "130255003993"}, {"name": "New Life Academy of Excellence", "lat": 34.01329, "lon": -84.170711, "proficiency": 0.637, "district": "Gwinnett County", "city": "Duluth", "ncessch": "130255003991"}, {"name": "Lilburn Middle School", "lat": 33.8876, "lon": -84.1446, "proficiency": 0.388, "district": "Gwinnett County", "city": "Lilburn", "ncessch": "130255001111"}, {"name": "Moore Middle School", "lat": 33.9395, "lon": -84.0215, "proficiency": 0.453, "district": "Gwinnett County", "city": "Lawrenceville", "ncessch": "130255004026"}, {"name": "Gwinnett Intervention Education Center (GIVE) West", "lat": 33.95649, "lon": -84.214236, "proficiency": 0.065, "district": "Gwinnett County", "city": "Norcross", "ncessch": "130255003690"}, {"name": "Northbrook Middle School", "lat": 34.00673, "lon": -84.068731, "proficiency": 0.637, "district": "Gwinnett County", "city": "Suwanee", "ncessch": "130255004149"}, {"name": "Couch Middle School", "lat": 33.90106, "lon": -83.967006, "proficiency": 0.693, "district": "Gwinnett County", "city": "Grayson", "ncessch": "130255003917"}, {"name": "Gwinnett Online Campus", "lat": 33.984154, "lon": -83.97177, "proficiency": 0.41, "district": "Gwinnett County", "city": "Lawrenceville", "ncessch": "130255004057"}, {"name": "Radloff Middle School", "lat": 33.9459, "lon": -84.1397, "proficiency": 0.312, "district": "Gwinnett County", "city": "Duluth", "ncessch": "130255003398"}, {"name": "North Gwinnett Middle School", "lat": 34.079, "lon": -84.0614, "proficiency": 0.92, "district": "Gwinnett County", "city": "Sugar Hill", "ncessch": "130255003945"}, {"name": "Twin Rivers Middle School", "lat": 34.04576, "lon": -83.946516, "proficiency": 0.741, "district": "Gwinnett County", "city": "Buford", "ncessch": "130255003912"}, {"name": "Jordan Middle School", "lat": 33.961894, "lon": -83.969502, "proficiency": 0.459, "district": "Gwinnett County", "city": "Lawrenceville", "ncessch": "130255004184"}, {"name": "Coleman Middle School", "lat": 34.00445, "lon": -84.142841, "proficiency": 0.766, "district": "Gwinnett County", "city": "Duluth", "ncessch": "130255004234"}, {"name": "International Transition Center", "lat": 33.963667, "lon": -84.004324, "proficiency": 0.0, "district": "Gwinnett County", "city": "Lawrenceville", "ncessch": "130255004257"}, {"name": "Snellville Middle School", "lat": 33.8341, "lon": -84.0031, "proficiency": 0.308, "district": "Gwinnett County", "city": "Snellville", "ncessch": "130255001136"}, {"name": "Summerour Middle School", "lat": 33.941018, "lon": -84.202165, "proficiency": 0.357, "district": "Gwinnett County", "city": "Norcross", "ncessch": "130255001124"}, {"name": "Hilliard A. Wilbanks Middle School", "lat": 34.563673, "lon": -83.522715, "proficiency": 0.6, "district": "Habersham County", "city": "Demorest", "ncessch": "130258004032"}, {"name": "Habersham Success Academy", "lat": 34.557474, "lon": -83.495974, "proficiency": 0.143, "district": "Habersham County", "city": "Mount Airy", "ncessch": "130258004144"}, {"name": "North Habersham Middle School", "lat": 34.636, "lon": -83.5121, "proficiency": 0.695, "district": "Habersham County", "city": "Clarkesville", "ncessch": "130258001147"}, {"name": "South Habersham Middle School", "lat": 34.5232, "lon": -83.5717, "proficiency": 0.598, "district": "Habersham County", "city": "Cornelia", "ncessch": "130258001154"}, {"name": "C. W. Davis Middle School", "lat": 34.189629, "lon": -83.898234, "proficiency": 0.409, "district": "Hall County", "city": "Flowery Branch", "ncessch": "130261002326"}, {"name": "Chestatee Middle School", "lat": 34.3447, "lon": -83.8983, "proficiency": 0.374, "district": "Hall County", "city": "Gainesville", "ncessch": "130261002327"}, {"name": "East Hall Middle School", "lat": 34.3078, "lon": -83.7418, "proficiency": 0.301, "district": "Hall County", "city": "Gainesville", "ncessch": "130261002044"}, {"name": "West Hall Middle School", "lat": 34.2217, "lon": -83.9096, "proficiency": 0.315, "district": "Hall County", "city": "Oakwood", "ncessch": "130261000357"}, {"name": "North Hall Middle School", "lat": 34.424, "lon": -83.8519, "proficiency": 0.564, "district": "Hall County", "city": "Gainesville", "ncessch": "130261002045"}, {"name": "Cherokee Bluff Middle", "lat": 34.15056, "lon": -83.884851, "proficiency": 0.576, "district": "Hall County", "city": "Flowery Branch", "ncessch": "130261004308"}, {"name": "The Foundry", "lat": 34.238172, "lon": -83.857845, "proficiency": 0.0, "district": "Hall County", "city": "Gainesville", "ncessch": "130261004305"}, {"name": "World Language Academy Middle School", "lat": 34.222889, "lon": -83.859286, "proficiency": 0.4, "district": "Hall County", "city": "Gainesville", "ncessch": "130261004328"}, {"name": "South Hall Middle School", "lat": 34.222822, "lon": -83.859333, "proficiency": 0.395, "district": "Hall County", "city": "Gainesville", "ncessch": "130261001169"}, {"name": "Hancock Central Middle School", "lat": 33.300698, "lon": -82.970037, "proficiency": 0.043, "district": "Hancock County", "city": "Sparta", "ncessch": "130264003539"}, {"name": "Haralson County Middle School", "lat": 33.7699, "lon": -85.2182, "proficiency": 0.619, "district": "Haralson County", "city": "Tallapoosa", "ncessch": "130267001639"}, {"name": "Haralson County Rebel Academy", "lat": 33.764495, "lon": -85.244333, "proficiency": 0.0, "district": "Haralson County", "city": "Tallapoosa", "ncessch": "130267004310"}, {"name": "Harris County Carver Middle School", "lat": 32.764885, "lon": -84.889028, "proficiency": 0.644, "district": "Harris County", "city": "Hamilton", "ncessch": "130270002271"}, {"name": "Hart County Middle School", "lat": 34.3502, "lon": -82.9202, "proficiency": 0.525, "district": "Hart County", "city": "Hartwell", "ncessch": "130273002127"}, {"name": "Heard County Middle School", "lat": 33.300518, "lon": -85.118472, "proficiency": 0.518, "district": "Heard County", "city": "Franklin", "ncessch": "130279002574"}, {"name": "Arrow Academy Alternative School", "lat": 33.275625, "lon": -85.09326, "proficiency": 0.0, "district": "Heard County", "city": "Franklin", "ncessch": "130279004413"}, {"name": "Dutchtown Middle School", "lat": 33.4701, "lon": -84.247, "proficiency": 0.276, "district": "Henry County", "city": "Hampton", "ncessch": "130282003411"}, {"name": "Locust Grove Middle", "lat": 33.348931, "lon": -84.058186, "proficiency": 0.186, "district": "Henry County", "city": "Locust Grove", "ncessch": "130282003937"}, {"name": "Hampton Middle School", "lat": 33.379452, "lon": -84.249707, "proficiency": 0.217, "district": "Henry County", "city": "Hampton", "ncessch": "130282003952"}, {"name": "Woodland Middle School", "lat": 33.56578, "lon": -84.156554, "proficiency": 0.308, "district": "Henry County", "city": "Stockbridge", "ncessch": "130282003415"}, {"name": "Eagle's Landing Middle School", "lat": 33.4882, "lon": -84.2088, "proficiency": 0.123, "district": "Henry County", "city": "McDonough", "ncessch": "130282000399"}, {"name": "Austin Road Middle School", "lat": 33.6094, "lon": -84.1841, "proficiency": 0.288, "district": "Henry County", "city": "Stockbridge", "ncessch": "130282001663"}, {"name": "Ola Middle School", "lat": 33.4465, "lon": -84.0491, "proficiency": 0.522, "district": "Henry County", "city": "McDonough", "ncessch": "130282003419"}, {"name": "Luella Middle School", "lat": 33.3739, "lon": -84.2038, "proficiency": 0.189, "district": "Henry County", "city": "Locust Grove", "ncessch": "130282002393"}, {"name": "Union Grove Middle", "lat": 33.5062, "lon": -84.1302, "proficiency": 0.538, "district": "Henry County", "city": "McDonough", "ncessch": "130282002394"}, {"name": "EXCEL Academy", "lat": 33.451091, "lon": -84.136143, "proficiency": 0.026, "district": "Henry County", "city": "McDonough", "ncessch": "130282004214"}, {"name": "McDonough Middle School", "lat": 33.439316, "lon": -84.129942, "proficiency": 0.127, "district": "Henry County", "city": "McDonough", "ncessch": "130282001206"}, {"name": "Stockbridge Middle School", "lat": 33.5581, "lon": -84.2219, "proficiency": 0.135, "district": "Henry County", "city": "Stockbridge", "ncessch": "130282001213"}, {"name": "Huntington Middle School", "lat": 32.5989, "lon": -83.6006, "proficiency": 0.516, "district": "Houston County", "city": "Warner Robins", "ncessch": "130288001224"}, {"name": "Mossy Creek Middle School", "lat": 32.533714, "lon": -83.700638, "proficiency": 0.634, "district": "Houston County", "city": "Kathleen", "ncessch": "130288003661"}, {"name": "Feagin Mill Middle School", "lat": 32.5698, "lon": -83.6758, "proficiency": 0.624, "district": "Houston County", "city": "Warner Robins", "ncessch": "130288001676"}, {"name": "Perry Middle School", "lat": 32.4854, "lon": -83.7268, "proficiency": 0.608, "district": "Houston County", "city": "Perry", "ncessch": "130288001238"}, {"name": "Thomson Middle School", "lat": 32.63378, "lon": -83.693689, "proficiency": 0.475, "district": "Houston County", "city": "Centerville", "ncessch": "130288001221"}, {"name": "Bonaire Middle School", "lat": 32.544954, "lon": -83.588287, "proficiency": 0.723, "district": "Houston County", "city": "Bonaire", "ncessch": "130288001677"}, {"name": "Northside Middle School", "lat": 32.6351, "lon": -83.6446, "proficiency": 0.288, "district": "Houston County", "city": "Warner Robins", "ncessch": "130288001223"}, {"name": "Warner Robins Middle School", "lat": 32.598, "lon": -83.6537, "proficiency": 0.304, "district": "Houston County", "city": "Warner Robins", "ncessch": "130288001236"}, {"name": "Irwin County Middle School", "lat": 31.57764, "lon": -83.239448, "proficiency": 0.354, "district": "Irwin County", "city": "Ocilla", "ncessch": "130291001243"}, {"name": "East Jackson Comprehensive High School", "lat": 34.1431, "lon": -83.4633, "proficiency": 0.504, "district": "Jackson County", "city": "Commerce", "ncessch": "130294003421"}, {"name": "West Jackson Middle School", "lat": 34.095, "lon": -83.6892, "proficiency": 0.653, "district": "Jackson County", "city": "Jefferson", "ncessch": "130294001696"}, {"name": "Jasper County Middle School", "lat": 33.3185, "lon": -83.6887, "proficiency": 0.347, "district": "Jasper County", "city": "Monticello", "ncessch": "130297002397"}, {"name": "Jeff Davis Middle School", "lat": 31.862449, "lon": -82.620325, "proficiency": 0.563, "district": "Jeff Davis County", "city": "Hazlehurst", "ncessch": "130300001256"}, {"name": "Jefferson County Middle School", "lat": 33.098045, "lon": -82.417119, "proficiency": 0.137, "district": "Jefferson County", "city": "Stapleton", "ncessch": "130306004340"}, {"name": "Jenkins County Middle School", "lat": 32.809882, "lon": -81.943585, "proficiency": 0.395, "district": "Jenkins County", "city": "Millen", "ncessch": "130309002398"}, {"name": "Johnson County Middle School", "lat": 32.724885, "lon": -82.728513, "proficiency": 0.517, "district": "Johnson County", "city": "Wrightsville", "ncessch": "130312002400"}, {"name": "Clifton Ridge Middle School", "lat": 32.880585, "lon": -83.581843, "proficiency": 0.498, "district": "Jones County", "city": "Macon", "ncessch": "130315002502"}, {"name": "Gray Station Middle School", "lat": 32.9946, "lon": -83.5268, "proficiency": 0.574, "district": "Jones County", "city": "Gray", "ncessch": "130315003424"}, {"name": "Lamar County Middle School", "lat": 33.0453, "lon": -84.1774, "proficiency": 0.373, "district": "Lamar County", "city": "Barnesville", "ncessch": "130321002273"}, {"name": "Lanier County Middle School", "lat": 31.036889, "lon": -83.078382, "proficiency": 0.531, "district": "Lanier County", "city": "Lakeland", "ncessch": "130324002402"}, {"name": "East Laurens Middle School", "lat": 32.562319, "lon": -82.819527, "proficiency": 0.501, "district": "Laurens County", "city": "Dublin", "ncessch": "130189001729"}, {"name": "West Laurens Middle School", "lat": 32.497766, "lon": -82.956671, "proficiency": 0.48, "district": "Laurens County", "city": "Dublin", "ncessch": "130189000878"}, {"name": "Lee County Middle School West", "lat": 31.7423, "lon": -84.1692, "proficiency": 0.608, "district": "Lee County", "city": "Leesburg", "ncessch": "130327000146"}, {"name": "Lee County Middle School East", "lat": 31.738531, "lon": -84.154033, "proficiency": 0.562, "district": "Lee County", "city": "Leesburg", "ncessch": "130327004128"}, {"name": "Midway Middle School", "lat": 31.804781, "lon": -81.452528, "proficiency": 0.254, "district": "Liberty County", "city": "Midway", "ncessch": "130330002504"}, {"name": "Snelson-Golden Middle School", "lat": 31.8676, "lon": -81.5841, "proficiency": 0.274, "district": "Liberty County", "city": "Hinesville", "ncessch": "130330001007"}, {"name": "Lewis Frasier Middle School", "lat": 31.8138, "lon": -81.599, "proficiency": 0.242, "district": "Liberty County", "city": "Hinesville", "ncessch": "130330001736"}, {"name": "Lincoln County Middle School", "lat": 33.791023, "lon": -82.489556, "proficiency": 0.687, "district": "Lincoln County", "city": "Lincolnton", "ncessch": "130333002407"}, {"name": "Long County Middle School", "lat": 31.733294, "lon": -81.722094, "proficiency": 0.237, "district": "Long County", "city": "Ludowici", "ncessch": "130336004120"}, {"name": "Pine Grove Middle School", "lat": 30.9557, "lon": -83.2596, "proficiency": 0.605, "district": "Lowndes County", "city": "Valdosta", "ncessch": "130339003904"}, {"name": "Lowndes Middle School", "lat": 30.7914, "lon": -83.2621, "proficiency": 0.557, "district": "Lowndes County", "city": "Valdosta", "ncessch": "130339001315"}, {"name": "Hahira Middle School", "lat": 30.9911, "lon": -83.3669, "proficiency": 0.684, "district": "Lowndes County", "city": "Hahira", "ncessch": "130339001313"}, {"name": "Lumpkin County Middle School", "lat": 34.5423, "lon": -83.9905, "proficiency": 0.502, "district": "Lumpkin County", "city": "Dahlonega", "ncessch": "130342001319"}, {"name": "Macon County Middle School", "lat": 32.290748, "lon": -84.018267, "proficiency": 0.103, "district": "Macon County", "city": "Montezuma", "ncessch": "130345001329"}, {"name": "Madison County Middle School", "lat": 34.08859, "lon": -83.15722, "proficiency": 0.471, "district": "Madison County", "city": "Danielsville", "ncessch": "130348001332"}, {"name": "Marion County Middle/High School", "lat": 32.362784, "lon": -84.536294, "proficiency": 0.267, "district": "Marion County", "city": "Buena Vista", "ncessch": "130354001346"}, {"name": "Thomson-McDuffie Middle School", "lat": 33.476576, "lon": -82.477066, "proficiency": 0.223, "district": "McDuffie County", "city": "Thomson", "ncessch": "130357003737"}, {"name": "McIntosh County Middle School", "lat": 31.3682, "lon": -81.4295, "proficiency": 0.317, "district": "McIntosh County", "city": "Darien", "ncessch": "130360002412"}, {"name": "Good Sheperd Therapeutic Center", "lat": 32.8809, "lon": -84.709476, "proficiency": 0.162, "district": "Meriwether County", "city": "Warm Springs", "ncessch": "130363003633"}, {"name": "Greenville Middle School", "lat": 33.048136, "lon": -84.709319, "proficiency": 0.181, "district": "Meriwether County", "city": "Greenville", "ncessch": "130363004238"}, {"name": "Manchester Middle School", "lat": 32.859156, "lon": -84.615269, "proficiency": 0.153, "district": "Meriwether County", "city": "Manchester", "ncessch": "130363001361"}, {"name": "Miller County Middle School", "lat": 31.191268, "lon": -84.712842, "proficiency": 0.569, "district": "Miller County", "city": "Colquitt", "ncessch": "130366002414"}, {"name": "Mitchell County Middle School", "lat": 31.240276, "lon": -84.237065, "proficiency": 0.544, "district": "Mitchell County", "city": "Camilla", "ncessch": "130369001744"}, {"name": "Monroe County Middle School- Banks Stephens Campus", "lat": 33.012548, "lon": -83.916511, "proficiency": 0.681, "district": "Monroe County", "city": "Forsyth", "ncessch": "130372004065"}, {"name": "Montgomery County Middle School", "lat": 32.18244, "lon": -82.582295, "proficiency": 0.478, "district": "Montgomery County", "city": "Mount Vernon", "ncessch": "130375002417"}, {"name": "Morgan County Middle School", "lat": 33.597603, "lon": -83.450972, "proficiency": 0.616, "district": "Morgan County", "city": "Madison", "ncessch": "130378001379"}, {"name": "Pleasant Valley Innovative School", "lat": 34.825992, "lon": -84.758567, "proficiency": 0.392, "district": "Murray County", "city": "Eton", "ncessch": "130384003574"}, {"name": "Bagley Middle School", "lat": 34.825185, "lon": -84.810183, "proficiency": 0.39, "district": "Murray County", "city": "Chatsworth", "ncessch": "130384002086"}, {"name": "Gladden Middle School", "lat": 34.78, "lon": -84.7795, "proficiency": 0.413, "district": "Murray County", "city": "Chatsworth", "ncessch": "130384001386"}, {"name": "Midland Middle School", "lat": 32.5539, "lon": -84.8673, "proficiency": 0.268, "district": "Muscogee County", "city": "Midland", "ncessch": "130387002337"}, {"name": "Aaron Cohn Middle School", "lat": 32.550143, "lon": -84.824682, "proficiency": 0.454, "district": "Muscogee County", "city": "Midland", "ncessch": "130387004127"}, {"name": "Fort Middle School", "lat": 32.4881, "lon": -84.8979, "proficiency": 0.193, "district": "Muscogee County", "city": "Columbus", "ncessch": "130387001394"}, {"name": "Blackmon Road Middle School", "lat": 32.5484, "lon": -84.8962, "proficiency": 0.533, "district": "Muscogee County", "city": "Columbus", "ncessch": "130387001376"}, {"name": "Veterans Memorial Middle School", "lat": 32.5774, "lon": -84.93, "proficiency": 0.354, "district": "Muscogee County", "city": "Columbus", "ncessch": "130387003680"}, {"name": "Baker Middle School", "lat": 32.4283, "lon": -84.9449, "proficiency": 0.024, "district": "Muscogee County", "city": "Columbus", "ncessch": "130387002420"}, {"name": "East Columbus Magnet Academy", "lat": 32.4655, "lon": -84.8848, "proficiency": 0.108, "district": "Muscogee County", "city": "Columbus", "ncessch": "130387002421"}, {"name": "Double Churches Middle School", "lat": 32.5587, "lon": -84.9744, "proficiency": 0.294, "district": "Muscogee County", "city": "Columbus", "ncessch": "130387002422"}, {"name": "Rainey McCullers School of the Arts", "lat": 32.475259, "lon": -84.944115, "proficiency": 0.556, "district": "Muscogee County", "city": "Columbus", "ncessch": "130387004270"}, {"name": "Arnold Middle School", "lat": 32.5144, "lon": -84.9634, "proficiency": 0.045, "district": "Muscogee County", "city": "Columbus", "ncessch": "130387001413"}, {"name": "Richards Middle School", "lat": 32.4921, "lon": -84.9471, "proficiency": 0.488, "district": "Muscogee County", "city": "Columbus", "ncessch": "130387001400"}, {"name": "Rothschild Leadership Academy School", "lat": 32.4682, "lon": -84.9172, "proficiency": 0.06, "district": "Muscogee County", "city": "Columbus", "ncessch": "130387001399"}, {"name": "Eddy Middle School", "lat": 32.4146, "lon": -84.9504, "proficiency": 0.05, "district": "Muscogee County", "city": "Columbus", "ncessch": "130387001432"}, {"name": "Veterans Memorial Middle School", "lat": 33.5741, "lon": -83.9713, "proficiency": 0.241, "district": "Newton County", "city": "Covington", "ncessch": "130393002424"}, {"name": "Liberty Middle School", "lat": 33.565175, "lon": -83.940363, "proficiency": 0.18, "district": "Newton County", "city": "Covington", "ncessch": "130393003927"}, {"name": "Clements Middle School", "lat": 33.608697, "lon": -83.937657, "proficiency": 0.229, "district": "Newton County", "city": "Covington", "ncessch": "130393003869"}, {"name": "Newton County Theme School at Ficquett", "lat": 33.599626, "lon": -83.854732, "proficiency": 0.856, "district": "Newton County", "city": "Covington", "ncessch": "130393003920"}, {"name": "Cousins Middle School", "lat": 33.6126, "lon": -83.8792, "proficiency": 0.158, "district": "Newton County", "city": "Covington", "ncessch": "130393001457"}, {"name": "Indian Creek Middle School", "lat": 33.568, "lon": -83.8535, "proficiency": 0.208, "district": "Newton County", "city": "Covington", "ncessch": "130393002224"}, {"name": "Oconee County Middle School", "lat": 33.874, "lon": -83.4446, "proficiency": 0.774, "district": "Oconee County", "city": "Watkinsville", "ncessch": "130396000018"}, {"name": "Malcom Bridge Middle School", "lat": 33.9121, "lon": -83.5049, "proficiency": 0.853, "district": "Oconee County", "city": "Bogart", "ncessch": "130396002225"}, {"name": "Oglethorpe County Middle School", "lat": 33.895375, "lon": -83.108749, "proficiency": 0.625, "district": "Oglethorpe County", "city": "Crawford", "ncessch": "130399001467"}, {"name": "Sammy McClure Sr. Middle School", "lat": 34.0698, "lon": -84.8099, "proficiency": 0.411, "district": "Paulding County", "city": "Dallas", "ncessch": "130402003693"}, {"name": "South Paulding Middle School", "lat": 33.8186, "lon": -84.8697, "proficiency": 0.284, "district": "Paulding County", "city": "Dallas", "ncessch": "130402002187"}, {"name": "Lena Mae Moses Middle School", "lat": 33.9622, "lon": -84.8134, "proficiency": 0.441, "district": "Paulding County", "city": "Dallas", "ncessch": "130402002508"}, {"name": "P. B. Ritch Middle School", "lat": 33.913857, "lon": -84.76925, "proficiency": 0.29, "district": "Paulding County", "city": "Dallas", "ncessch": "130402004074"}, {"name": "J. A. Dobbins Middle School", "lat": 33.8325, "lon": -84.7526, "proficiency": 0.344, "district": "Paulding County", "city": "Powder Springs", "ncessch": "130402001786"}, {"name": "East Paulding Middle School", "lat": 33.9333, "lon": -84.7483, "proficiency": 0.451, "district": "Paulding County", "city": "Dallas", "ncessch": "130402000542"}, {"name": "Irma C. Austin Middle School", "lat": 33.804314, "lon": -84.830395, "proficiency": 0.373, "district": "Paulding County", "city": "Douglasville", "ncessch": "130402003440"}, {"name": "Carl Scoggins Sr. Middle school", "lat": 33.839096, "lon": -84.952729, "proficiency": 0.401, "district": "Paulding County", "city": "Dallas", "ncessch": "130402003822"}, {"name": "Herschel Jones Middle School", "lat": 33.9274, "lon": -84.8456, "proficiency": 0.203, "district": "Paulding County", "city": "Dallas", "ncessch": "130402001472"}, {"name": "Fort Valley Middle School", "lat": 32.569152, "lon": -83.914816, "proficiency": 0.275, "district": "Peach County", "city": "Fort Valley", "ncessch": "130405001482"}, {"name": "Byron Middle School", "lat": 32.6484, "lon": -83.7531, "proficiency": 0.254, "district": "Peach County", "city": "Byron", "ncessch": "130405001807"}, {"name": "Pickens County Junior High School", "lat": 34.4442, "lon": -84.4201, "proficiency": 0.405, "district": "Pickens County", "city": "Jasper", "ncessch": "130411002048"}, {"name": "Pierce County Middle School", "lat": 31.3285, "lon": -82.2168, "proficiency": 0.641, "district": "Pierce County", "city": "Blackshear", "ncessch": "130414001808"}, {"name": "Pike County Middle School", "lat": 33.080177, "lon": -84.338589, "proficiency": 0.289, "district": "Pike County", "city": "Zebulon", "ncessch": "130417001496"}, {"name": "Cedartown Middle School", "lat": 34.0339, "lon": -85.2199, "proficiency": 0.345, "district": "Polk County", "city": "Cedartown", "ncessch": "130420002594"}, {"name": "Rockmart Middle School", "lat": 34.0202, "lon": -85.016, "proficiency": 0.285, "district": "Polk County", "city": "Rockmart", "ncessch": "130420003442"}, {"name": "Harpst Academy", "lat": 34.008924, "lon": -85.243973, "proficiency": 0.0, "district": "Polk County", "city": "Cedartown", "ncessch": "130420003614"}, {"name": "Pulaski County Middle School", "lat": 32.279627, "lon": -83.490871, "proficiency": 0.32, "district": "Pulaski County", "city": "Hawkinsville", "ncessch": "130422001045"}, {"name": "Putnam County Middle School", "lat": 33.3349, "lon": -83.3688, "proficiency": 0.466, "district": "Putnam County", "city": "Eatonton", "ncessch": "130426003878"}, {"name": "Quitman County Elementary", "lat": 31.885094, "lon": -85.08234, "proficiency": 0.063, "district": "Quitman County", "city": "Georgetown", "ncessch": "130429001518"}, {"name": "Rabun County Middle School", "lat": 34.82711, "lon": -83.421243, "proficiency": 0.524, "district": "Rabun County", "city": "Tiger", "ncessch": "130432002425"}, {"name": "Randolph County Middle School", "lat": 31.710737, "lon": -84.860137, "proficiency": 0.244, "district": "Randolph County", "city": "Cuthbert", "ncessch": "130435002426"}, {"name": "Freedom Park Elementary", "lat": 33.405586, "lon": -82.127267, "proficiency": 0.156, "district": "Richmond County", "city": "Fort Gordon", "ncessch": "130438002596"}, {"name": "Lighthouse Care Center of Augusta", "lat": 33.49097, "lon": -82.087341, "proficiency": 0.0, "district": "Richmond County", "city": "Augusta", "ncessch": "130438003486"}, {"name": "Pine Hill Middle School", "lat": 33.3285, "lon": -82.0481, "proficiency": 0.143, "district": "Richmond County", "city": "Hephzibah", "ncessch": "130438003947"}, {"name": "W.S. Hornsby Middle School", "lat": 33.4589, "lon": -81.9387, "proficiency": 0.061, "district": "Richmond County", "city": "Augusta", "ncessch": "130438003924"}, {"name": "Glenn Hills Middle School", "lat": 33.4322, "lon": -82.0741, "proficiency": 0.008, "district": "Richmond County", "city": "Augusta", "ncessch": "130438001817"}, {"name": "Richmond County Technical Career Magnet School", "lat": 33.414409, "lon": -82.047318, "proficiency": 0.485, "district": "Richmond County", "city": "Augusta", "ncessch": "130438004069"}, {"name": "Spirit Creek Middle School", "lat": 33.345327, "lon": -82.077018, "proficiency": 0.088, "district": "Richmond County", "city": "Hephzibah", "ncessch": "130438002089"}, {"name": "Belair K-8 School", "lat": 33.448596, "lon": -82.121954, "proficiency": 0.186, "district": "Richmond County", "city": "Augusta", "ncessch": "130438004312"}, {"name": "Richmond Hill K-8", "lat": 33.400018, "lon": -82.03093, "proficiency": 0.064, "district": "Richmond County", "city": "Augusta", "ncessch": "130438004334"}, {"name": "Langford Middle School", "lat": 33.482797, "lon": -82.043168, "proficiency": 0.024, "district": "Richmond County", "city": "Augusta", "ncessch": "130438001559"}, {"name": "Hephzibah Middle School", "lat": 33.302, "lon": -82.0927, "proficiency": 0.11, "district": "Richmond County", "city": "Hephzibah", "ncessch": "130438001554"}, {"name": "Johnson Magnet", "lat": 33.4656, "lon": -81.9811, "proficiency": 0.694, "district": "Richmond County", "city": "Augusta", "ncessch": "130438001534"}, {"name": "Davidson Magnet School", "lat": 33.4738, "lon": -81.9759, "proficiency": 0.806, "district": "Richmond County", "city": "Augusta", "ncessch": "130438001567"}, {"name": "Murphey Middle School", "lat": 33.45527, "lon": -82.000298, "proficiency": 0.059, "district": "Richmond County", "city": "Augusta", "ncessch": "130438001579"}, {"name": "Tutt Middle School", "lat": 33.4895, "lon": -82.0389, "proficiency": 0.193, "district": "Richmond County", "city": "Augusta", "ncessch": "130438001574"}, {"name": "General Ray Davis Middle School", "lat": 33.5962, "lon": -84.0922, "proficiency": 0.341, "district": "Rockdale County", "city": "Stockbridge", "ncessch": "130441003446"}, {"name": "Conyers Middle School", "lat": 33.6839, "lon": -84.0046, "proficiency": 0.234, "district": "Rockdale County", "city": "Conyers", "ncessch": "130441001588"}, {"name": "Memorial Middle School", "lat": 33.6029, "lon": -83.9904, "proficiency": 0.328, "district": "Rockdale County", "city": "Conyers", "ncessch": "130441000583"}, {"name": "Edwards Middle School", "lat": 33.6235, "lon": -84.0367, "proficiency": 0.315, "district": "Rockdale County", "city": "Conyers", "ncessch": "130441001587"}, {"name": "Schley Middle High School", "lat": 32.216945, "lon": -84.289735, "proficiency": 0.736, "district": "Schley County", "city": "Ellaville", "ncessch": "130447002428"}, {"name": "Screven County Middle School", "lat": 32.7546, "lon": -81.6223, "proficiency": 0.419, "district": "Screven County", "city": "Sylvania", "ncessch": "130450002231"}, {"name": "Seminole County Middle/High School", "lat": 31.0181, "lon": -84.8815, "proficiency": 0.33, "district": "Seminole County", "city": "Donalsonville", "ncessch": "130453001391"}, {"name": "Carver Road Middle School", "lat": 33.1943, "lon": -84.3, "proficiency": 0.241, "district": "Griffin-Spalding County", "city": "Griffin", "ncessch": "130252003448"}, {"name": "Kennedy Road Middle School", "lat": 33.2664, "lon": -84.2351, "proficiency": 0.226, "district": "Griffin-Spalding County", "city": "Griffin", "ncessch": "130252003449"}, {"name": "Rehoboth Road Middle School", "lat": 33.217233, "lon": -84.192191, "proficiency": 0.261, "district": "Griffin-Spalding County", "city": "Griffin", "ncessch": "130252003951"}, {"name": "Cowan Road Middle School", "lat": 33.2767, "lon": -84.3074, "proficiency": 0.111, "district": "Griffin-Spalding County", "city": "Griffin", "ncessch": "130252002430"}, {"name": "Stephens County Middle School", "lat": 34.547402, "lon": -83.298751, "proficiency": 0.467, "district": "Stephens County", "city": "Toccoa", "ncessch": "130456001624"}, {"name": "Stewart County Middle School", "lat": 32.052378, "lon": -84.752605, "proficiency": 0.303, "district": "Stewart County", "city": "Lumpkin", "ncessch": "130459002431"}, {"name": "Sumter County Middle School", "lat": 32.114034, "lon": -84.21461, "proficiency": 0.111, "district": "Sumter County", "city": "Americus", "ncessch": "130462002090"}, {"name": "Central Elementary/High School", "lat": 32.690008, "lon": -84.543343, "proficiency": 0.138, "district": "Talbot County", "city": "Talbotton", "ncessch": "130465001637"}, {"name": "Taliaferro County School", "lat": 33.558422, "lon": -82.909503, "proficiency": 0.294, "district": "Taliaferro County", "city": "Crawfordville", "ncessch": "130468002514"}, {"name": "North Tattnall Middle School", "lat": 32.0845, "lon": -82.1225, "proficiency": 0.402, "district": "Tattnall County", "city": "Reidsville", "ncessch": "130477002433"}, {"name": "South Tattnall Middle School", "lat": 31.9326, "lon": -81.9202, "proficiency": 0.447, "district": "Tattnall County", "city": "Glennville", "ncessch": "130477002434"}, {"name": "Taylor County Middle School", "lat": 32.5541, "lon": -84.2325, "proficiency": 0.463, "district": "Taylor County", "city": "Butler", "ncessch": "130480002439"}, {"name": "Telfair County Middle School", "lat": 32.047576, "lon": -82.911326, "proficiency": 0.414, "district": "Telfair County", "city": "Mc Rae Helena", "ncessch": "130483002441"}, {"name": "Telfair Alternative Preparation School", "lat": 32.067728, "lon": -82.910417, "proficiency": 0.0, "district": "Telfair County", "city": "Mc Rae Helena", "ncessch": "130483004302"}, {"name": "Terrell Middle School", "lat": 31.756389, "lon": -84.414776, "proficiency": 0.162, "district": "Terrell County", "city": "Dawson", "ncessch": "130486003735"}, {"name": "Bishop Hall Charter School", "lat": 30.86055, "lon": -83.952626, "proficiency": 0.397, "district": "Thomas County", "city": "Thomasville", "ncessch": "130489002342"}, {"name": "Thomas County Middle School", "lat": 30.877332, "lon": -83.970262, "proficiency": 0.404, "district": "Thomas County", "city": "Thomasville", "ncessch": "130489002147"}, {"name": "Eighth Street Middle School", "lat": 31.4622, "lon": -83.5207, "proficiency": 0.373, "district": "Tift County", "city": "Tifton", "ncessch": "130498002283"}, {"name": "Northeast Middle School", "lat": 31.486, "lon": -83.5141, "proficiency": 0.355, "district": "Tift County", "city": "Tifton", "ncessch": "130498001691"}, {"name": "Toombs County Middle School", "lat": 32.185878, "lon": -82.335133, "proficiency": 0.231, "district": "Toombs County", "city": "Lyons", "ncessch": "130504002993"}, {"name": "Towns County Middle School", "lat": 34.9311, "lon": -83.7311, "proficiency": 0.769, "district": "Towns County", "city": "Hiawassee", "ncessch": "130507002998"}, {"name": "Treutlen Middle/High School", "lat": 32.412621, "lon": -82.64043, "proficiency": 0.262, "district": "Treutlen County", "city": "Soperton", "ncessch": "130510001699"}, {"name": "Gardner-Newman Middle School", "lat": 33.068221, "lon": -84.984392, "proficiency": 0.375, "district": "Troup County", "city": "LaGrange", "ncessch": "130000100593"}, {"name": "Callaway Middle School", "lat": 33.115, "lon": -84.9736, "proficiency": 0.223, "district": "Troup County", "city": "LaGrange", "ncessch": "130000102443"}, {"name": "Bradfield Center - Ault Academy", "lat": 33.034827, "lon": -85.01776, "proficiency": 1.0, "district": "Troup County", "city": "LaGrange", "ncessch": "130000103620"}, {"name": "Long Cane Middle School", "lat": 32.958855, "lon": -85.125782, "proficiency": 0.556, "district": "Troup County", "city": "LaGrange", "ncessch": "130000101852"}, {"name": "The Hope Academy School", "lat": 33.053644, "lon": -85.030525, "proficiency": 0.032, "district": "Troup County", "city": "LaGrange", "ncessch": "130000104369"}, {"name": "Turner County Middle School", "lat": 31.706019, "lon": -83.642058, "proficiency": 0.26, "district": "Turner County", "city": "Ashburn", "ncessch": "130519000657"}, {"name": "Twiggs Middle School", "lat": 32.682791, "lon": -83.358139, "proficiency": 0.204, "district": "Twiggs County", "city": "Jeffersonville", "ncessch": "130522003611"}, {"name": "Union County Middle School", "lat": 34.877772, "lon": -83.953337, "proficiency": 0.474, "district": "Union County", "city": "Blairsville", "ncessch": "130525003456"}, {"name": "Woody Gap High/Elementary School", "lat": 34.6921, "lon": -84.0239, "proficiency": 0.0, "district": "Union County", "city": "Suches", "ncessch": "130525001721"}, {"name": "Upson-Lee Middle School", "lat": 32.8868, "lon": -84.3134, "proficiency": 0.314, "district": "Thomaston-Upson County", "city": "Thomaston", "ncessch": "130528001723"}, {"name": "Chattanooga Valley Middle School", "lat": 34.9298, "lon": -85.3577, "proficiency": 0.209, "district": "Walker County", "city": "Flintstone", "ncessch": "130537003457"}, {"name": "Saddle Ridge Elementary and Middle School", "lat": 34.845159, "lon": -85.239654, "proficiency": 0.345, "district": "Walker County", "city": "Rock Spring", "ncessch": "130537004121"}, {"name": "LaFayette Middle School", "lat": 34.726, "lon": -85.2739, "proficiency": 0.167, "district": "Walker County", "city": "La Fayette", "ncessch": "130537001741"}, {"name": "Rossville Middle School", "lat": 34.938465, "lon": -85.314813, "proficiency": 0.193, "district": "Walker County", "city": "Rossville", "ncessch": "130537003800"}, {"name": "Youth Middle School", "lat": 33.7795, "lon": -83.8545, "proficiency": 0.525, "district": "Walton County", "city": "Loganville", "ncessch": "130539003459"}, {"name": "Carver Middle School", "lat": 33.795842, "lon": -83.675649, "proficiency": 0.37, "district": "Walton County", "city": "Monroe", "ncessch": "130539000031"}, {"name": "Loganville Middle School", "lat": 33.854243, "lon": -83.86465, "proficiency": 0.571, "district": "Walton County", "city": "Loganville", "ncessch": "130539001767"}, {"name": "Waycross Middle School", "lat": 31.2131, "lon": -82.3403, "proficiency": 0.377, "district": "Ware County", "city": "Waycross", "ncessch": "130543002204"}, {"name": "Ware County Middle School", "lat": 31.2345, "lon": -82.3917, "proficiency": 0.351, "district": "Ware County", "city": "Waycross", "ncessch": "130543001779"}, {"name": "Warren County Middle School", "lat": 33.4176, "lon": -82.68, "proficiency": 0.191, "district": "Warren County", "city": "Warrenton", "ncessch": "130546003462"}, {"name": "T. J. Elder Middle School", "lat": 33.0028, "lon": -82.8161, "proficiency": 0.202, "district": "Washington County", "city": "Sandersville", "ncessch": "130549002289"}, {"name": "Martha Puckett Middle School", "lat": 31.6167, "lon": -81.9147, "proficiency": 0.408, "district": "Wayne County", "city": "Jesup", "ncessch": "130555000673"}, {"name": "Arthur Williams Middle School", "lat": 31.5835, "lon": -81.8756, "proficiency": 0.49, "district": "Wayne County", "city": "Jesup", "ncessch": "130555000685"}, {"name": "Webster County Elementary/Middle School", "lat": 32.062355, "lon": -84.542013, "proficiency": 0.25, "district": "Webster County", "city": "Preston", "ncessch": "130558003015"}, {"name": "Wheeler County Middle School", "lat": 32.154188, "lon": -82.776457, "proficiency": 0.524, "district": "Wheeler County", "city": "Alamo", "ncessch": "130564004241"}, {"name": "White County Middle School", "lat": 34.6028, "lon": -83.77, "proficiency": 0.405, "district": "White County", "city": "Cleveland", "ncessch": "130567001813"}, {"name": "New Hope Middle School", "lat": 34.87697, "lon": -84.98456, "proficiency": 0.487, "district": "Whitfield County", "city": "Dalton", "ncessch": "130570003465"}, {"name": "Eastbrook Middle School", "lat": 34.745817, "lon": -84.931845, "proficiency": 0.229, "district": "Whitfield County", "city": "Dalton", "ncessch": "130570001816"}, {"name": "North Whitfield Middle School", "lat": 34.873626, "lon": -84.941153, "proficiency": 0.473, "district": "Whitfield County", "city": "Dalton", "ncessch": "130570001822"}, {"name": "Valley Point Middle School", "lat": 34.680891, "lon": -84.986897, "proficiency": 0.547, "district": "Whitfield County", "city": "Dalton", "ncessch": "130570001821"}, {"name": "Westside Middle School", "lat": 34.785624, "lon": -85.050526, "proficiency": 0.743, "district": "Whitfield County", "city": "Rocky Face", "ncessch": "130570001820"}, {"name": "Wilcox County Middle School", "lat": 31.939569, "lon": -83.445133, "proficiency": 0.565, "district": "Wilcox County", "city": "Rochelle", "ncessch": "130573002451"}, {"name": "Washington-Wilkes Middle School", "lat": 33.759896, "lon": -82.734376, "proficiency": 0.316, "district": "Wilkes County", "city": "Washington", "ncessch": "130576003942"}, {"name": "Wilkinson County Middle School", "lat": 32.826504, "lon": -83.214271, "proficiency": 0.097, "district": "Wilkinson County", "city": "Irwinton", "ncessch": "130579001843"}, {"name": "Worth County Middle School", "lat": 31.5492, "lon": -83.8376, "proficiency": 0.385, "district": "Worth County", "city": "Sylvester", "ncessch": "130585000733"}, {"name": "Worth County Achievement Center", "lat": 31.543053, "lon": -83.835833, "proficiency": 0.0, "district": "Worth County", "city": "Sylvester", "ncessch": "130585004231"}, {"name": "Herman J. Russell West End Academy", "lat": 33.7341, "lon": -84.4211, "proficiency": 0.286, "district": "Atlanta Public Schools", "city": "Atlanta", "ncessch": "130012002344"}, {"name": "Kipp Strive Charter School", "lat": 33.7421, "lon": -84.4348, "proficiency": 0.255, "district": "Atlanta Public Schools", "city": "Atlanta", "ncessch": "130012003823"}, {"name": "KIPP VISION Charter School", "lat": 33.689136, "lon": -84.36683, "proficiency": 0.241, "district": "Atlanta Public Schools", "city": "Atlanta", "ncessch": "130012003992"}, {"name": "The Kindezi School", "lat": 33.754816, "lon": -84.513549, "proficiency": 0.056, "district": "Atlanta Public Schools", "city": "Atlanta", "ncessch": "130012004012"}, {"name": "Crawford Long Middle School", "lat": 33.6665, "lon": -84.3944, "proficiency": 0.199, "district": "Atlanta Public Schools", "city": "Atlanta", "ncessch": "130012000017"}, {"name": "Ralph Bunche Middle School", "lat": 33.7013, "lon": -84.5307, "proficiency": 0.119, "district": "Atlanta Public Schools", "city": "Atlanta", "ncessch": "130012000150"}, {"name": "Sylvan Hills Middle School", "lat": 33.7153, "lon": -84.4191, "proficiency": 0.204, "district": "Atlanta Public Schools", "city": "Atlanta", "ncessch": "130012000058"}, {"name": "Centennial Place Academy (Charter)", "lat": 33.7697, "lon": -84.3954, "proficiency": 0.254, "district": "Atlanta Public Schools", "city": "Atlanta", "ncessch": "130012002290"}, {"name": "Atlanta Neighborhood Charter - Middle", "lat": 33.732522, "lon": -84.355146, "proficiency": 0.514, "district": "Atlanta Public Schools", "city": "Atlanta", "ncessch": "130012003541"}, {"name": "Hillside Conant School", "lat": 33.7903, "lon": -84.3654, "proficiency": 0.059, "district": "Atlanta Public Schools", "city": "Atlanta", "ncessch": "130012003660"}, {"name": "Jean Childs Young Middle School", "lat": 33.7327, "lon": -84.4895, "proficiency": 0.116, "district": "Atlanta Public Schools", "city": "Atlanta", "ncessch": "130012001866"}, {"name": "Judson Price Middle School", "lat": 33.7089, "lon": -84.3874, "proficiency": 0.25, "district": "Atlanta Public Schools", "city": "Atlanta", "ncessch": "130012000060"}, {"name": "Westside Atlanta Charter School", "lat": 33.804767, "lon": -84.461822, "proficiency": 0.543, "district": "Atlanta Public Schools", "city": "Atlanta", "ncessch": "130012004139"}, {"name": "Martin L. King Jr. Middle School", "lat": 33.7386, "lon": -84.3806, "proficiency": 0.207, "district": "Atlanta Public Schools", "city": "Atlanta", "ncessch": "130012000025"}, {"name": "Hank Aaron New Beginnings Academy", "lat": 33.675164, "lon": -84.398488, "proficiency": 0.015, "district": "Atlanta Public Schools", "city": "Atlanta", "ncessch": "130012002798"}, {"name": "Atlanta Classical Academy", "lat": 33.84378, "lon": -84.407711, "proficiency": 0.594, "district": "Atlanta Public Schools", "city": "Atlanta", "ncessch": "130012004145"}, {"name": "Charles Drew Charter JA/SR Academy", "lat": 33.7465, "lon": -84.3113, "proficiency": 0.631, "district": "Atlanta Public Schools", "city": "Atlanta", "ncessch": "130012004161"}, {"name": "KIPP WAYS Academy Charter School", "lat": 33.76452, "lon": -84.422721, "proficiency": 0.21, "district": "Atlanta Public Schools", "city": "Atlanta", "ncessch": "130012003031"}, {"name": "Wesley International Academy Charter", "lat": 33.746662, "lon": -84.380944, "proficiency": 0.31, "district": "Atlanta Public Schools", "city": "Atlanta", "ncessch": "130012003589"}, {"name": "Corretta Scott King Young Womens' Leadership Academy", "lat": 33.7893, "lon": -84.4793, "proficiency": 0.384, "district": "Atlanta Public Schools", "city": "Atlanta", "ncessch": "130012003980"}, {"name": "B.E.S.T Academy", "lat": 33.788712, "lon": -84.479439, "proficiency": 0.35, "district": "Atlanta Public Schools", "city": "Atlanta", "ncessch": "130012003558"}, {"name": "Michael R. Hollis Innovation Academy", "lat": 33.76076, "lon": -84.41205, "proficiency": 0.274, "district": "Atlanta Public Schools", "city": "Atlanta", "ncessch": "130012004237"}, {"name": "Woodson Park Academy School", "lat": 33.773042, "lon": -84.439369, "proficiency": 0.06, "district": "Atlanta Public Schools", "city": "Atlanta", "ncessch": "130012004224"}, {"name": "Kindezi Old 4th Ward", "lat": 33.7682, "lon": -84.374561, "proficiency": 0.072, "district": "Atlanta Public Schools", "city": "Atlanta", "ncessch": "130012004277"}, {"name": "John Lewis Invictus Academy", "lat": 33.774616, "lon": -84.447932, "proficiency": 0.049, "district": "Atlanta Public Schools", "city": "Atlanta", "ncessch": "130012004276"}, {"name": "KIPP Soul Academy", "lat": 33.793978, "lon": -84.498402, "proficiency": 0.151, "district": "Atlanta Public Schools", "city": "Atlanta", "ncessch": "130012004395"}, {"name": "David T Howard Middle School", "lat": 33.758849, "lon": -84.369043, "proficiency": 0.63, "district": "Atlanta Public Schools", "city": "Atlanta", "ncessch": "130012000027"}, {"name": "Willis A. Sutton Middle School", "lat": 33.8322, "lon": -84.4067, "proficiency": 0.444, "district": "Atlanta Public Schools", "city": "Atlanta", "ncessch": "130012000107"}, {"name": "Bremen Middle School", "lat": 33.712576, "lon": -85.117831, "proficiency": 0.857, "district": "Bremen City", "city": "Bremen", "ncessch": "130051003757"}, {"name": "Buford Middle School", "lat": 34.132754, "lon": -83.986619, "proficiency": 0.845, "district": "Buford City", "city": "Buford", "ncessch": "130060000276"}, {"name": "Calhoun Middle School", "lat": 34.498607, "lon": -84.955751, "proficiency": 0.509, "district": "Calhoun City", "city": "Calhoun", "ncessch": "130072000307"}, {"name": "Carrollton Jr. High School", "lat": 33.5591, "lon": -85.0812, "proficiency": 0.381, "district": "Carrollton City", "city": "Carrollton", "ncessch": "130087000336"}, {"name": "Cartersville Middle School", "lat": 34.1347, "lon": -84.8221, "proficiency": 0.589, "district": "Cartersville City", "city": "Cartersville", "ncessch": "130090000342"}, {"name": "Gordon Lee Middle School", "lat": 34.8709, "lon": -85.2967, "proficiency": 0.555, "district": "Chickamauga City", "city": "Chickamauga", "ncessch": "130114002456"}, {"name": "Commerce Middle School", "lat": 34.1879, "lon": -83.4753, "proficiency": 0.564, "district": "Commerce City", "city": "Commerce", "ncessch": "130144000623"}, {"name": "Dalton Jr. High School", "lat": 34.791543, "lon": -84.938017, "proficiency": 0.369, "district": "Dalton Public Schools", "city": "Dalton", "ncessch": "130162004419"}, {"name": "Beacon Hill Middle School", "lat": 33.7681, "lon": -84.299, "proficiency": 0.758, "district": "City Schools of Decatur", "city": "Decatur", "ncessch": "130168000796"}, {"name": "Dublin Middle School", "lat": 32.5691, "lon": -82.922, "proficiency": 0.299, "district": "Dublin City", "city": "Dublin", "ncessch": "130187000869"}, {"name": "Moore Street Facility", "lat": 32.539286, "lon": -82.927015, "proficiency": 0.125, "district": "Dublin City", "city": "Dublin", "ncessch": "130187004050"}, {"name": "Gainesville Middle School West", "lat": 34.280913, "lon": -83.869035, "proficiency": 0.234, "district": "Gainesville City", "city": "Gainesville-", "ncessch": "130231003619"}, {"name": "Gainesville Middle School East", "lat": 34.311297, "lon": -83.806893, "proficiency": 0.251, "district": "Gainesville City", "city": "Gainesville", "ncessch": "130231003897"}, {"name": "Jefferson Middle School", "lat": 34.1202, "lon": -83.5898, "proficiency": 0.742, "district": "Jefferson City", "city": "Jefferson", "ncessch": "130303002346"}, {"name": "Marietta Middle School", "lat": 33.9544, "lon": -84.5575, "proficiency": 0.426, "district": "Marietta City", "city": "Marietta", "ncessch": "130351001339"}, {"name": "Odyssey Charter School", "lat": 33.403938, "lon": -84.748812, "proficiency": 0.474, "district": "State Charter Schools- Odyssey Charter School", "city": "Newnan", "ncessch": "130002303482"}, {"name": "Georgia Cyber Academy", "lat": 33.615726, "lon": -84.446215, "proficiency": 0.277, "district": "State Charter Schools- Georgia Cyber Academy", "city": "Atlanta", "ncessch": "130023204148"}, {"name": "Utopian Academy for the Arts Charter School", "lat": 33.613501, "lon": -84.300195, "proficiency": 0.13, "district": "State Charter Schools- Utopian Academy for the Arts Charter", "city": "Ellenwood", "ncessch": "130023304164"}, {"name": "Cherokee Charter Academy", "lat": 34.1617, "lon": -84.535, "proficiency": 0.416, "district": "State Charter Schools- Cherokee Charter Academy", "city": "Canton", "ncessch": "130023004051"}, {"name": "Georgia Connections Academy", "lat": 33.9994, "lon": -84.0894, "proficiency": 0.346, "district": "State Charter Schools- Georgia Connections Academy", "city": "Duluth", "ncessch": "130022704031"}, {"name": "Ivy Preparatory Academy- Inc", "lat": 33.745907, "lon": -84.32794, "proficiency": 0.241, "district": "State Charter Schools- Ivy Preparatory Academy- Inc", "city": "Atlanta", "ncessch": "130022604023"}, {"name": "International Charter School of Atlanta", "lat": 34.058797, "lon": -84.314708, "proficiency": 0.673, "district": "State Charter Schools- International Charter School of Atla", "city": "Roswell", "ncessch": "130023404179"}, {"name": "Scintilla Charter Academy", "lat": 30.8688, "lon": -83.245613, "proficiency": 0.63, "district": "State Charter Schools- Scintilla Charter Academy", "city": "Valdosta", "ncessch": "130023604192"}, {"name": "Georgia School for Innovation and the Classics", "lat": 33.248556, "lon": -82.095795, "proficiency": 0.403, "district": "State Charter Schools- Georgia School for Innovation and th", "city": "Hephzibah", "ncessch": "130023804205"}, {"name": "Dubois Integrity Academy", "lat": 33.578028, "lon": -84.417153, "proficiency": 0.215, "district": "State Charter Schools- Dubois Integrity Academy", "city": "Riverdale", "ncessch": "130023704193"}, {"name": "Statesboro STEAM Academy", "lat": 32.453693, "lon": -81.774143, "proficiency": 0.267, "district": "State Charter Schools II- Statesboro STEAM Academy", "city": "Statesboro", "ncessch": "130000502626"}, {"name": "Pataula Charter Academy", "lat": 31.559649, "lon": -84.725492, "proficiency": 0.439, "district": "State Charter Schools II- Pataula Charter Academy", "city": "Edison", "ncessch": "130021803964"}, {"name": "Fulton Leadership Academy", "lat": 33.685351, "lon": -84.476181, "proficiency": 0.177, "district": "State Charter Schools II- Fulton Leadership Academy", "city": "East Point", "ncessch": "130021703961"}, {"name": "Atlanta Heights Charter School", "lat": 33.762973, "lon": -84.513714, "proficiency": 0.145, "district": "State Charter Schools II- Atlanta Heights Charter School", "city": "Atlanta", "ncessch": "130022104021"}, {"name": "Coweta Charter Academy", "lat": 33.296619, "lon": -84.588354, "proficiency": 0.547, "district": "State Charter Schools II- Coweta Charter Academy", "city": "Senoia", "ncessch": "130022204007"}, {"name": "Cirrus Charter Academy", "lat": 32.824767, "lon": -83.662005, "proficiency": 0.206, "district": "State Charter Schools II- Cirrus Charter Academy", "city": "Macon", "ncessch": "130023904226"}, {"name": "Southwest Georgia S.T.E.M. Charter Academy", "lat": 31.762848, "lon": -84.616644, "proficiency": 0.444, "district": "State Charter Schools II- Southwest Georgia S.T.E.M. Charte", "city": "Shellman", "ncessch": "130024304253"}, {"name": "Brookhaven Innovation Academy", "lat": 33.940232, "lon": -84.220628, "proficiency": 0.39, "district": "State Charter Schools II- Brookhaven Innovation Academy", "city": "Norcross", "ncessch": "130024204249"}, {"name": "Liberty Tech Charter Academy", "lat": 33.291671, "lon": -84.461155, "proficiency": 0.643, "district": "State Charter Schools II- Liberty Tech Charter Academy", "city": "Brooks", "ncessch": "130024104229"}, {"name": "Genesis Innovation Academy for Boys", "lat": 33.715914, "lon": -84.354709, "proficiency": 0.445, "district": "State Charter Schools II- Genesis Innovation Academy for Bo", "city": "Atlanta", "ncessch": "130024804288"}, {"name": "Genesis Innovation Academy for Girls", "lat": 33.715914, "lon": -84.354709, "proficiency": 0.13, "district": "State Charter Schools II- Genesis Innovation Academy for Gi", "city": "Atlanta", "ncessch": "130024404272"}, {"name": "SAIL Charter Academy - School for Arts-Infused Learning", "lat": 33.555027, "lon": -82.16781, "proficiency": 0.567, "district": "State Charter Schools II- SAIL Charter Academy - School for", "city": "Evans", "ncessch": "130024504293"}, {"name": "SLAM Academy of Atlanta", "lat": 33.689241, "lon": -84.496613, "proficiency": 0.0, "district": "State Charter Schools II- SLAM Academy of Atlanta", "city": "Atlanta", "ncessch": "130025104306"}, {"name": "Academy For Classical Education", "lat": 32.939286, "lon": -83.727915, "proficiency": 0.813, "district": "State Charter Schools II- Academy For Classical Education", "city": "Macon", "ncessch": "130025204345"}, {"name": "Spring Creek Charter Academy", "lat": 30.932125, "lon": -84.534296, "proficiency": 0.278, "district": "State Charter Schools II- Spring Creek Charter Academy", "city": "Bainbridge", "ncessch": "130025304349"}, {"name": "Furlow Charter School", "lat": 32.046258, "lon": -84.230266, "proficiency": 0.163, "district": "State Charter Schools II- Furlow Charter School", "city": "Americus", "ncessch": "130025804373"}, {"name": "Atlanta SMART Academy", "lat": 33.752756, "lon": -84.474272, "proficiency": 0.281, "district": "State Charter Schools II- Atlanta SMART Academy", "city": "Atlanta", "ncessch": "130025904374"}, {"name": "Baconton Community Charter School", "lat": 31.37655, "lon": -84.156013, "proficiency": 0.559, "district": "State Charter Schools II- Baconton Community Charter School", "city": "Baconton", "ncessch": "130025604363"}, {"name": "Atlanta Unbound Academy", "lat": 33.660719, "lon": -84.445933, "proficiency": 0.0, "district": "State Charter Schools II- Atlanta Unbound Academy", "city": "College Park", "ncessch": "130026104376"}, {"name": "Georgia Fugees Academy Charter School", "lat": 33.881977, "lon": -84.230534, "proficiency": 0.465, "district": "State Charter Schools II- Georgia Fugees Academy Charter Sc", "city": "Decatur", "ncessch": "130026304378"}, {"name": "Northwest Classical Academy", "lat": 34.029269, "lon": -84.640186, "proficiency": 0.391, "district": "State Charter Schools II- Northwest Classical Academy", "city": "Kennesaw", "ncessch": "130026404424"}, {"name": "Destination Career Academy of Georgia", "lat": 33.909121, "lon": -84.485231, "proficiency": 0.087, "district": "State Charter Schools II- Destination Career Academy of Geor", "city": "Atlanta", "ncessch": "130585304460"}, {"name": "Pelham City Middle School", "lat": 31.1247, "lon": -84.1576, "proficiency": 0.225, "district": "Pelham City", "city": "Pelham", "ncessch": "130408002462"}, {"name": "Rome Middle School", "lat": 34.2878, "lon": -85.149, "proficiency": 0.33, "district": "Rome City", "city": "Rome", "ncessch": "130444000154"}, {"name": "Social Circle Middle School", "lat": 33.6593, "lon": -83.7294, "proficiency": 0.323, "district": "Social Circle City", "city": "Social Circle", "ncessch": "130454002463"}, {"name": "MacIntyre Park Middle School", "lat": 30.8458, "lon": -83.9714, "proficiency": 0.199, "district": "Thomasville City", "city": "Thomasville", "ncessch": "130495001679"}, {"name": "Trion Middle School", "lat": 34.5383, "lon": -85.325, "proficiency": 0.767, "district": "Trion City", "city": "Trion", "ncessch": "130513002466"}, {"name": "Valdosta Middle School", "lat": 30.867465, "lon": -83.290996, "proficiency": 0.244, "district": "Valdosta City", "city": "Valdosta", "ncessch": "130531001734"}, {"name": "Newbern Middle School", "lat": 30.86541, "lon": -83.250712, "proficiency": 0.129, "district": "Valdosta City", "city": "Valdosta", "ncessch": "130531001076"}, {"name": "J. R. Trippe Middle School", "lat": 32.2434, "lon": -82.4106, "proficiency": 0.284, "district": "Vidalia City", "city": "Vidalia", "ncessch": "130534001740"}, {"name": "Atlanta Area School for the Deaf", "lat": 33.802741, "lon": -84.240062, "proficiency": 0.0, "district": "State Schools", "city": "Clarkston", "ncessch": "130025404352"}, {"name": "Georgia Academy for the Blind", "lat": 32.84815, "lon": -83.668565, "proficiency": 0.0, "district": "State Schools", "city": "Macon", "ncessch": "130025404331"}, {"name": "Georgia School for the Deaf", "lat": 34.097164, "lon": -85.350427, "proficiency": 0.0, "district": "State Schools", "city": "Cave Spring", "ncessch": "130025404367"}, {"name": "Augusta Youth Development Campus", "lat": 33.39139, "lon": -82.006156, "proficiency": 0.0, "district": "Department of Juvenile Justice", "city": "Augusta", "ncessch": "130002603488"}, {"name": "Muscogee Youth Development Campus", "lat": 32.526671, "lon": -84.853919, "proficiency": 0.0, "district": "Department of Juvenile Justice", "city": "Midland", "ncessch": "130002603650"}, {"name": "Macon Youth Development Campus", "lat": 32.8303, "lon": -83.5551, "proficiency": 0.0, "district": "Department of Juvenile Justice", "city": "Macon", "ncessch": "130002603490"}], "districts": [{"name": "Appling County", "lat": 31.7232, "lon": -82.3399, "proficiency": 0.443, "schoolCount": 1}, {"name": "Atkinson County", "lat": 31.32105, "lon": -82.84949, "proficiency": 0.569, "schoolCount": 1}, {"name": "Bacon County", "lat": 31.521944, "lon": -82.459265, "proficiency": 0.565, "schoolCount": 1}, {"name": "Baker County", "lat": 31.311646, "lon": -84.344302, "proficiency": 0.278, "schoolCount": 1}, {"name": "Baldwin County", "lat": 33.0834, "lon": -83.2668, "proficiency": 0.185, "schoolCount": 1}, {"name": "Banks County", "lat": 34.3126, "lon": -83.4785, "proficiency": 0.542, "schoolCount": 1}, {"name": "Barrow County", "lat": 33.975126, "lon": -83.71845525, "proficiency": 0.3828, "schoolCount": 4}, {"name": "Bartow County", "lat": 34.210375, "lon": -84.8699, "proficiency": 0.555, "schoolCount": 4}, {"name": "Ben Hill County", "lat": 31.7349605, "lon": -83.26029249999999, "proficiency": 0.2, "schoolCount": 2}, {"name": "Berrien County", "lat": 31.2118, "lon": -83.262, "proficiency": 0.671, "schoolCount": 1}, {"name": "Bibb County", "lat": 32.837454, "lon": -83.684687375, "proficiency": 0.1129, "schoolCount": 8}, {"name": "Bleckley County", "lat": 32.410604500000005, "lon": -83.32179450000001, "proficiency": 0.298, "schoolCount": 2}, {"name": "Brantley County", "lat": 31.193284, "lon": -82.025235, "proficiency": 0.584, "schoolCount": 1}, {"name": "Brooks County", "lat": 30.8072595, "lon": -83.5708045, "proficiency": 0.096, "schoolCount": 2}, {"name": "Bryan County", "lat": 31.9989, "lon": -81.4602, "proficiency": 0.5085, "schoolCount": 2}, {"name": "Bulloch County", "lat": 32.44685125, "lon": -81.80953475, "proficiency": 0.4667, "schoolCount": 4}, {"name": "Burke County", "lat": 33.084, "lon": -81.9943, "proficiency": 0.302, "schoolCount": 1}, {"name": "Butts County", "lat": 33.28572, "lon": -83.982349, "proficiency": 0.374, "schoolCount": 1}, {"name": "Calhoun County", "lat": 31.564423, "lon": -84.723224, "proficiency": 0.171, "schoolCount": 1}, {"name": "Camden County", "lat": 30.774299999999997, "lon": -81.60839999999999, "proficiency": 0.5485, "schoolCount": 2}, {"name": "Candler County", "lat": 32.362092, "lon": -82.05114, "proficiency": 0.422, "schoolCount": 1}, {"name": "Carroll County", "lat": 33.64552557142857, "lon": -85.09375471428572, "proficiency": 0.3496, "schoolCount": 7}, {"name": "Catoosa County", "lat": 34.928699333333334, "lon": -85.18674333333333, "proficiency": 0.5327, "schoolCount": 3}, {"name": "Charlton County", "lat": 30.8156, "lon": -82.0115, "proficiency": 0.361, "schoolCount": 1}, {"name": "Savannah-Chatham County", "lat": 32.04561713636364, "lon": -81.12340377272727, "proficiency": 0.311, "schoolCount": 22}, {"name": "Chattahoochee County", "lat": 32.312421, "lon": -84.754388, "proficiency": 0.413, "schoolCount": 1}, {"name": "Chattooga County", "lat": 34.44726666666667, "lon": -85.41263333333335, "proficiency": 0.2147, "schoolCount": 3}, {"name": "Cherokee County", "lat": 34.171685714285715, "lon": -84.47897928571429, "proficiency": 0.5764, "schoolCount": 7}, {"name": "Clarke County", "lat": 33.963625, "lon": -83.37835, "proficiency": 0.3355, "schoolCount": 4}, {"name": "Clay County", "lat": 31.620837, "lon": -85.042746, "proficiency": 0.333, "schoolCount": 1}, {"name": "Clayton County", "lat": 33.5574084375, "lon": -84.358132125, "proficiency": 0.2443, "schoolCount": 16}, {"name": "Clinch County", "lat": 31.049029, "lon": -82.750117, "proficiency": 0.491, "schoolCount": 1}, {"name": "Cobb County", "lat": 33.949568392857145, "lon": -84.56453889285714, "proficiency": 0.4965, "schoolCount": 28}, {"name": "Coffee County", "lat": 31.5397, "lon": -82.8354, "proficiency": 0.362, "schoolCount": 1}, {"name": "Colquitt County", "lat": 31.1914, "lon": -83.799, "proficiency": 0.367, "schoolCount": 1}, {"name": "Columbia County", "lat": 33.5267745, "lon": -82.176957875, "proficiency": 0.4911, "schoolCount": 8}, {"name": "Cook County", "lat": 31.155176, "lon": -83.437312, "proficiency": 0.526, "schoolCount": 1}, {"name": "Coweta County", "lat": 33.387955999999996, "lon": -84.71889057142857, "proficiency": 0.4169, "schoolCount": 7}, {"name": "Crawford County", "lat": 32.720634, "lon": -84.004821, "proficiency": 0.306, "schoolCount": 1}, {"name": "Crisp County", "lat": 31.954, "lon": -83.7635, "proficiency": 0.143, "schoolCount": 1}, {"name": "Dade County", "lat": 34.8722, "lon": -85.5185, "proficiency": 0.5, "schoolCount": 1}, {"name": "Dawson County", "lat": 34.420212, "lon": -84.113194, "proficiency": 0.454, "schoolCount": 1}, {"name": "Decatur County", "lat": 30.898114, "lon": -84.556545, "proficiency": 0.2845, "schoolCount": 2}, {"name": "DeKalb County", "lat": 33.78614289655172, "lon": -84.23017293103447, "proficiency": 0.3378, "schoolCount": 29}, {"name": "Dodge County", "lat": 32.1947185, "lon": -83.188094, "proficiency": 0.1025, "schoolCount": 2}, {"name": "Dooly County", "lat": 32.138922, "lon": -83.775191, "proficiency": 0.027, "schoolCount": 2}, {"name": "Dougherty County", "lat": 31.567743, "lon": -84.1557, "proficiency": 0.3054, "schoolCount": 5}, {"name": "Douglas County", "lat": 33.7141839, "lon": -84.73811459999999, "proficiency": 0.3055, "schoolCount": 10}, {"name": "Early County", "lat": 31.376, "lon": -84.9411, "proficiency": 0.252, "schoolCount": 1}, {"name": "Echols County", "lat": 30.699578, "lon": -83.024662, "proficiency": 0.807, "schoolCount": 1}, {"name": "Effingham County", "lat": 32.296539333333335, "lon": -81.302901, "proficiency": 0.642, "schoolCount": 3}, {"name": "Elbert County", "lat": 34.1066, "lon": -82.8946, "proficiency": 0.315, "schoolCount": 1}, {"name": "Emanuel County", "lat": 32.576668, "lon": -82.23212749999999, "proficiency": 0.3765, "schoolCount": 2}, {"name": "Evans County", "lat": 32.152066, "lon": -81.909432, "proficiency": 0.0705, "schoolCount": 2}, {"name": "Fannin County", "lat": 34.8706, "lon": -84.3022, "proficiency": 0.414, "schoolCount": 1}, {"name": "Fayette County", "lat": 33.416832, "lon": -84.5253288, "proficiency": 0.7496, "schoolCount": 5}, {"name": "Floyd County", "lat": 34.274275, "lon": -85.18955, "proficiency": 0.632, "schoolCount": 4}, {"name": "Forsyth County", "lat": 34.192080636363634, "lon": -84.15536718181819, "proficiency": 0.6844, "schoolCount": 11}, {"name": "Franklin County", "lat": 34.394886, "lon": -83.194216, "proficiency": 0.392, "schoolCount": 1}, {"name": "Fulton County", "lat": 33.872242, "lon": -84.39482152000001, "proficiency": 0.4714, "schoolCount": 25}, {"name": "Gilmer County", "lat": 34.61465, "lon": -84.455723, "proficiency": 0.681, "schoolCount": 1}, {"name": "Glascock County", "lat": 33.241035, "lon": -82.611183, "proficiency": 0.568, "schoolCount": 1}, {"name": "Glynn County", "lat": 31.225093400000002, "lon": -81.5153896, "proficiency": 0.486, "schoolCount": 5}, {"name": "Gordon County", "lat": 34.5240425, "lon": -84.8817435, "proficiency": 0.413, "schoolCount": 2}, {"name": "Grady County", "lat": 30.919887, "lon": -84.25279866666666, "proficiency": 0.558, "schoolCount": 3}, {"name": "Greene County", "lat": 33.5252025, "lon": -83.211004, "proficiency": 0.4205, "schoolCount": 2}, {"name": "Gwinnett County", "lat": 33.95970388235294, "lon": -84.04748561764707, "proficiency": 0.517, "schoolCount": 34}, {"name": "Habersham County", "lat": 34.57008675, "lon": -83.52562225, "proficiency": 0.509, "schoolCount": 4}, {"name": "Hall County", "lat": 34.258030222222224, "lon": -83.8623498888889, "proficiency": 0.3704, "schoolCount": 9}, {"name": "Hancock County", "lat": 33.300698, "lon": -82.970037, "proficiency": 0.043, "schoolCount": 1}, {"name": "Haralson County", "lat": 33.767197499999995, "lon": -85.2312665, "proficiency": 0.3095, "schoolCount": 2}, {"name": "Harris County", "lat": 32.764885, "lon": -84.889028, "proficiency": 0.644, "schoolCount": 1}, {"name": "Hart County", "lat": 34.3502, "lon": -82.9202, "proficiency": 0.525, "schoolCount": 1}, {"name": "Heard County", "lat": 33.2880715, "lon": -85.10586599999999, "proficiency": 0.259, "schoolCount": 2}, {"name": "Henry County", "lat": 33.469747500000004, "lon": -84.16461933333333, "proficiency": 0.2446, "schoolCount": 12}, {"name": "Houston County", "lat": 32.574956, "lon": -83.66051425, "proficiency": 0.5215, "schoolCount": 8}, {"name": "Irwin County", "lat": 31.57764, "lon": -83.239448, "proficiency": 0.354, "schoolCount": 1}, {"name": "Jackson County", "lat": 34.11905, "lon": -83.57625, "proficiency": 0.5785, "schoolCount": 2}, {"name": "Jasper County", "lat": 33.3185, "lon": -83.6887, "proficiency": 0.347, "schoolCount": 1}, {"name": "Jeff Davis County", "lat": 31.862449, "lon": -82.620325, "proficiency": 0.563, "schoolCount": 1}, {"name": "Jefferson County", "lat": 33.098045, "lon": -82.417119, "proficiency": 0.137, "schoolCount": 1}, {"name": "Jenkins County", "lat": 32.809882, "lon": -81.943585, "proficiency": 0.395, "schoolCount": 1}, {"name": "Johnson County", "lat": 32.724885, "lon": -82.728513, "proficiency": 0.517, "schoolCount": 1}, {"name": "Jones County", "lat": 32.9375925, "lon": -83.5543215, "proficiency": 0.536, "schoolCount": 2}, {"name": "Lamar County", "lat": 33.0453, "lon": -84.1774, "proficiency": 0.373, "schoolCount": 1}, {"name": "Lanier County", "lat": 31.036889, "lon": -83.078382, "proficiency": 0.531, "schoolCount": 1}, {"name": "Laurens County", "lat": 32.5300425, "lon": -82.888099, "proficiency": 0.4905, "schoolCount": 2}, {"name": "Lee County", "lat": 31.740415499999997, "lon": -84.16161650000001, "proficiency": 0.585, "schoolCount": 2}, {"name": "Liberty County", "lat": 31.828727, "lon": -81.54520933333333, "proficiency": 0.2567, "schoolCount": 3}, {"name": "Lincoln County", "lat": 33.791023, "lon": -82.489556, "proficiency": 0.687, "schoolCount": 1}, {"name": "Long County", "lat": 31.733294, "lon": -81.722094, "proficiency": 0.237, "schoolCount": 1}, {"name": "Lowndes County", "lat": 30.912733333333335, "lon": -83.2962, "proficiency": 0.6153, "schoolCount": 3}, {"name": "Lumpkin County", "lat": 34.5423, "lon": -83.9905, "proficiency": 0.502, "schoolCount": 1}, {"name": "Macon County", "lat": 32.290748, "lon": -84.018267, "proficiency": 0.103, "schoolCount": 1}, {"name": "Madison County", "lat": 34.08859, "lon": -83.15722, "proficiency": 0.471, "schoolCount": 1}, {"name": "Marion County", "lat": 32.362784, "lon": -84.536294, "proficiency": 0.267, "schoolCount": 1}, {"name": "McDuffie County", "lat": 33.476576, "lon": -82.477066, "proficiency": 0.223, "schoolCount": 1}, {"name": "McIntosh County", "lat": 31.3682, "lon": -81.4295, "proficiency": 0.317, "schoolCount": 1}, {"name": "Meriwether County", "lat": 32.929397333333334, "lon": -84.67802133333333, "proficiency": 0.1653, "schoolCount": 3}, {"name": "Miller County", "lat": 31.191268, "lon": -84.712842, "proficiency": 0.569, "schoolCount": 1}, {"name": "Mitchell County", "lat": 31.240276, "lon": -84.237065, "proficiency": 0.544, "schoolCount": 1}, {"name": "Monroe County", "lat": 33.012548, "lon": -83.916511, "proficiency": 0.681, "schoolCount": 1}, {"name": "Montgomery County", "lat": 32.18244, "lon": -82.582295, "proficiency": 0.478, "schoolCount": 1}, {"name": "Morgan County", "lat": 33.597603, "lon": -83.450972, "proficiency": 0.616, "schoolCount": 1}, {"name": "Murray County", "lat": 34.81039233333333, "lon": -84.78275000000001, "proficiency": 0.3983, "schoolCount": 3}, {"name": "Muscogee County", "lat": 32.502692461538466, "lon": -84.91864592307692, "proficiency": 0.2636, "schoolCount": 13}, {"name": "Newton County", "lat": 33.588033, "lon": -83.90612533333334, "proficiency": 0.312, "schoolCount": 6}, {"name": "Oconee County", "lat": 33.89305, "lon": -83.47475, "proficiency": 0.8135, "schoolCount": 2}, {"name": "Oglethorpe County", "lat": 33.895375, "lon": -83.108749, "proficiency": 0.625, "schoolCount": 1}, {"name": "Paulding County", "lat": 33.90011855555556, "lon": -84.82131933333334, "proficiency": 0.3553, "schoolCount": 9}, {"name": "Peach County", "lat": 32.608776000000006, "lon": -83.833958, "proficiency": 0.2645, "schoolCount": 2}, {"name": "Pickens County", "lat": 34.4442, "lon": -84.4201, "proficiency": 0.405, "schoolCount": 1}, {"name": "Pierce County", "lat": 31.3285, "lon": -82.2168, "proficiency": 0.641, "schoolCount": 1}, {"name": "Pike County", "lat": 33.080177, "lon": -84.338589, "proficiency": 0.289, "schoolCount": 1}, {"name": "Polk County", "lat": 34.021008, "lon": -85.15995766666667, "proficiency": 0.21, "schoolCount": 3}, {"name": "Pulaski County", "lat": 32.279627, "lon": -83.490871, "proficiency": 0.32, "schoolCount": 1}, {"name": "Putnam County", "lat": 33.3349, "lon": -83.3688, "proficiency": 0.466, "schoolCount": 1}, {"name": "Quitman County", "lat": 31.885094, "lon": -85.08234, "proficiency": 0.063, "schoolCount": 1}, {"name": "Rabun County", "lat": 34.82711, "lon": -83.421243, "proficiency": 0.524, "schoolCount": 1}, {"name": "Randolph County", "lat": 31.710737, "lon": -84.860137, "proficiency": 0.244, "schoolCount": 1}, {"name": "Richmond County", "lat": 33.42623153333333, "lon": -82.04565293333333, "proficiency": 0.2051, "schoolCount": 15}, {"name": "Rockdale County", "lat": 33.626625000000004, "lon": -84.030975, "proficiency": 0.3045, "schoolCount": 4}, {"name": "Schley County", "lat": 32.216945, "lon": -84.289735, "proficiency": 0.736, "schoolCount": 1}, {"name": "Screven County", "lat": 32.7546, "lon": -81.6223, "proficiency": 0.419, "schoolCount": 1}, {"name": "Seminole County", "lat": 31.0181, "lon": -84.8815, "proficiency": 0.33, "schoolCount": 1}, {"name": "Griffin-Spalding County", "lat": 33.23865825, "lon": -84.25867275, "proficiency": 0.2097, "schoolCount": 4}, {"name": "Stephens County", "lat": 34.547402, "lon": -83.298751, "proficiency": 0.467, "schoolCount": 1}, {"name": "Stewart County", "lat": 32.052378, "lon": -84.752605, "proficiency": 0.303, "schoolCount": 1}, {"name": "Sumter County", "lat": 32.114034, "lon": -84.21461, "proficiency": 0.111, "schoolCount": 1}, {"name": "Talbot County", "lat": 32.690008, "lon": -84.543343, "proficiency": 0.138, "schoolCount": 1}, {"name": "Taliaferro County", "lat": 33.558422, "lon": -82.909503, "proficiency": 0.294, "schoolCount": 1}, {"name": "Tattnall County", "lat": 32.00855, "lon": -82.02135, "proficiency": 0.4245, "schoolCount": 2}, {"name": "Taylor County", "lat": 32.5541, "lon": -84.2325, "proficiency": 0.463, "schoolCount": 1}, {"name": "Telfair County", "lat": 32.057652000000004, "lon": -82.9108715, "proficiency": 0.207, "schoolCount": 2}, {"name": "Terrell County", "lat": 31.756389, "lon": -84.414776, "proficiency": 0.162, "schoolCount": 1}, {"name": "Thomas County", "lat": 30.868941, "lon": -83.961444, "proficiency": 0.4005, "schoolCount": 2}, {"name": "Tift County", "lat": 31.4741, "lon": -83.51740000000001, "proficiency": 0.364, "schoolCount": 2}, {"name": "Toombs County", "lat": 32.185878, "lon": -82.335133, "proficiency": 0.231, "schoolCount": 1}, {"name": "Towns County", "lat": 34.9311, "lon": -83.7311, "proficiency": 0.769, "schoolCount": 1}, {"name": "Treutlen County", "lat": 32.412621, "lon": -82.64043, "proficiency": 0.262, "schoolCount": 1}, {"name": "Troup County", "lat": 33.0461094, "lon": -85.0264118, "proficiency": 0.4372, "schoolCount": 5}, {"name": "Turner County", "lat": 31.706019, "lon": -83.642058, "proficiency": 0.26, "schoolCount": 1}, {"name": "Twiggs County", "lat": 32.682791, "lon": -83.358139, "proficiency": 0.204, "schoolCount": 1}, {"name": "Union County", "lat": 34.784936, "lon": -83.9886185, "proficiency": 0.237, "schoolCount": 2}, {"name": "Thomaston-Upson County", "lat": 32.8868, "lon": -84.3134, "proficiency": 0.314, "schoolCount": 1}, {"name": "Walker County", "lat": 34.859856, "lon": -85.29651675, "proficiency": 0.2285, "schoolCount": 4}, {"name": "Walton County", "lat": 33.80986166666667, "lon": -83.79826633333333, "proficiency": 0.4887, "schoolCount": 3}, {"name": "Ware County", "lat": 31.2238, "lon": -82.366, "proficiency": 0.364, "schoolCount": 2}, {"name": "Warren County", "lat": 33.4176, "lon": -82.68, "proficiency": 0.191, "schoolCount": 1}, {"name": "Washington County", "lat": 33.0028, "lon": -82.8161, "proficiency": 0.202, "schoolCount": 1}, {"name": "Wayne County", "lat": 31.6001, "lon": -81.89515, "proficiency": 0.449, "schoolCount": 2}, {"name": "Webster County", "lat": 32.062355, "lon": -84.542013, "proficiency": 0.25, "schoolCount": 1}, {"name": "Wheeler County", "lat": 32.154188, "lon": -82.776457, "proficiency": 0.524, "schoolCount": 1}, {"name": "White County", "lat": 34.6028, "lon": -83.77, "proficiency": 0.405, "schoolCount": 1}, {"name": "Whitfield County", "lat": 34.7925856, "lon": -84.97899620000001, "proficiency": 0.4958, "schoolCount": 5}, {"name": "Wilcox County", "lat": 31.939569, "lon": -83.445133, "proficiency": 0.565, "schoolCount": 1}, {"name": "Wilkes County", "lat": 33.759896, "lon": -82.734376, "proficiency": 0.316, "schoolCount": 1}, {"name": "Wilkinson County", "lat": 32.826504, "lon": -83.214271, "proficiency": 0.097, "schoolCount": 1}, {"name": "Worth County", "lat": 31.5461265, "lon": -83.8367165, "proficiency": 0.1925, "schoolCount": 2}, {"name": "Atlanta Public Schools", "lat": 33.753465142857145, "lon": -84.41941810714286, "proficiency": 0.267, "schoolCount": 28}, {"name": "Bremen City", "lat": 33.712576, "lon": -85.117831, "proficiency": 0.857, "schoolCount": 1}, {"name": "Buford City", "lat": 34.132754, "lon": -83.986619, "proficiency": 0.845, "schoolCount": 1}, {"name": "Calhoun City", "lat": 34.498607, "lon": -84.955751, "proficiency": 0.509, "schoolCount": 1}, {"name": "Carrollton City", "lat": 33.5591, "lon": -85.0812, "proficiency": 0.381, "schoolCount": 1}, {"name": "Cartersville City", "lat": 34.1347, "lon": -84.8221, "proficiency": 0.589, "schoolCount": 1}, {"name": "Chickamauga City", "lat": 34.8709, "lon": -85.2967, "proficiency": 0.555, "schoolCount": 1}, {"name": "Commerce City", "lat": 34.1879, "lon": -83.4753, "proficiency": 0.564, "schoolCount": 1}, {"name": "Dalton Public Schools", "lat": 34.791543, "lon": -84.938017, "proficiency": 0.369, "schoolCount": 1}, {"name": "City Schools of Decatur", "lat": 33.7681, "lon": -84.299, "proficiency": 0.758, "schoolCount": 1}, {"name": "Dublin City", "lat": 32.554193, "lon": -82.9245075, "proficiency": 0.212, "schoolCount": 2}, {"name": "Gainesville City", "lat": 34.296105, "lon": -83.837964, "proficiency": 0.2425, "schoolCount": 2}, {"name": "Jefferson City", "lat": 34.1202, "lon": -83.5898, "proficiency": 0.742, "schoolCount": 1}, {"name": "Marietta City", "lat": 33.9544, "lon": -84.5575, "proficiency": 0.426, "schoolCount": 1}, {"name": "State Charter Schools- Odyssey Charter School", "lat": 33.403938, "lon": -84.748812, "proficiency": 0.474, "schoolCount": 1}, {"name": "State Charter Schools- Georgia Cyber Academy", "lat": 33.615726, "lon": -84.446215, "proficiency": 0.277, "schoolCount": 1}, {"name": "State Charter Schools- Utopian Academy for the Arts Charter", "lat": 33.613501, "lon": -84.300195, "proficiency": 0.13, "schoolCount": 1}, {"name": "State Charter Schools- Cherokee Charter Academy", "lat": 34.1617, "lon": -84.535, "proficiency": 0.416, "schoolCount": 1}, {"name": "State Charter Schools- Georgia Connections Academy", "lat": 33.9994, "lon": -84.0894, "proficiency": 0.346, "schoolCount": 1}, {"name": "State Charter Schools- Ivy Preparatory Academy- Inc", "lat": 33.745907, "lon": -84.32794, "proficiency": 0.241, "schoolCount": 1}, {"name": "State Charter Schools- International Charter School of Atla", "lat": 34.058797, "lon": -84.314708, "proficiency": 0.673, "schoolCount": 1}, {"name": "State Charter Schools- Scintilla Charter Academy", "lat": 30.8688, "lon": -83.245613, "proficiency": 0.63, "schoolCount": 1}, {"name": "State Charter Schools- Georgia School for Innovation and th", "lat": 33.248556, "lon": -82.095795, "proficiency": 0.403, "schoolCount": 1}, {"name": "State Charter Schools- Dubois Integrity Academy", "lat": 33.578028, "lon": -84.417153, "proficiency": 0.215, "schoolCount": 1}, {"name": "State Charter Schools II- Statesboro STEAM Academy", "lat": 32.453693, "lon": -81.774143, "proficiency": 0.267, "schoolCount": 1}, {"name": "State Charter Schools II- Pataula Charter Academy", "lat": 31.559649, "lon": -84.725492, "proficiency": 0.439, "schoolCount": 1}, {"name": "State Charter Schools II- Fulton Leadership Academy", "lat": 33.685351, "lon": -84.476181, "proficiency": 0.177, "schoolCount": 1}, {"name": "State Charter Schools II- Atlanta Heights Charter School", "lat": 33.762973, "lon": -84.513714, "proficiency": 0.145, "schoolCount": 1}, {"name": "State Charter Schools II- Coweta Charter Academy", "lat": 33.296619, "lon": -84.588354, "proficiency": 0.547, "schoolCount": 1}, {"name": "State Charter Schools II- Cirrus Charter Academy", "lat": 32.824767, "lon": -83.662005, "proficiency": 0.206, "schoolCount": 1}, {"name": "State Charter Schools II- Southwest Georgia S.T.E.M. Charte", "lat": 31.762848, "lon": -84.616644, "proficiency": 0.444, "schoolCount": 1}, {"name": "State Charter Schools II- Brookhaven Innovation Academy", "lat": 33.940232, "lon": -84.220628, "proficiency": 0.39, "schoolCount": 1}, {"name": "State Charter Schools II- Liberty Tech Charter Academy", "lat": 33.291671, "lon": -84.461155, "proficiency": 0.643, "schoolCount": 1}, {"name": "State Charter Schools II- Genesis Innovation Academy for Bo", "lat": 33.715914, "lon": -84.354709, "proficiency": 0.445, "schoolCount": 1}, {"name": "State Charter Schools II- Genesis Innovation Academy for Gi", "lat": 33.715914, "lon": -84.354709, "proficiency": 0.13, "schoolCount": 1}, {"name": "State Charter Schools II- SAIL Charter Academy - School for", "lat": 33.555027, "lon": -82.16781, "proficiency": 0.567, "schoolCount": 1}, {"name": "State Charter Schools II- SLAM Academy of Atlanta", "lat": 33.689241, "lon": -84.496613, "proficiency": 0.0, "schoolCount": 1}, {"name": "State Charter Schools II- Academy For Classical Education", "lat": 32.939286, "lon": -83.727915, "proficiency": 0.813, "schoolCount": 1}, {"name": "State Charter Schools II- Spring Creek Charter Academy", "lat": 30.932125, "lon": -84.534296, "proficiency": 0.278, "schoolCount": 1}, {"name": "State Charter Schools II- Furlow Charter School", "lat": 32.046258, "lon": -84.230266, "proficiency": 0.163, "schoolCount": 1}, {"name": "State Charter Schools II- Atlanta SMART Academy", "lat": 33.752756, "lon": -84.474272, "proficiency": 0.281, "schoolCount": 1}, {"name": "State Charter Schools II- Baconton Community Charter School", "lat": 31.37655, "lon": -84.156013, "proficiency": 0.559, "schoolCount": 1}, {"name": "State Charter Schools II- Atlanta Unbound Academy", "lat": 33.660719, "lon": -84.445933, "proficiency": 0.0, "schoolCount": 1}, {"name": "State Charter Schools II- Georgia Fugees Academy Charter Sc", "lat": 33.881977, "lon": -84.230534, "proficiency": 0.465, "schoolCount": 1}, {"name": "State Charter Schools II- Northwest Classical Academy", "lat": 34.029269, "lon": -84.640186, "proficiency": 0.391, "schoolCount": 1}, {"name": "State Charter Schools II- Destination Career Academy of Geor", "lat": 33.909121, "lon": -84.485231, "proficiency": 0.087, "schoolCount": 1}, {"name": "Pelham City", "lat": 31.1247, "lon": -84.1576, "proficiency": 0.225, "schoolCount": 1}, {"name": "Rome City", "lat": 34.2878, "lon": -85.149, "proficiency": 0.33, "schoolCount": 1}, {"name": "Social Circle City", "lat": 33.6593, "lon": -83.7294, "proficiency": 0.323, "schoolCount": 1}, {"name": "Thomasville City", "lat": 30.8458, "lon": -83.9714, "proficiency": 0.199, "schoolCount": 1}, {"name": "Trion City", "lat": 34.5383, "lon": -85.325, "proficiency": 0.767, "schoolCount": 1}, {"name": "Valdosta City", "lat": 30.8664375, "lon": -83.270854, "proficiency": 0.1865, "schoolCount": 2}, {"name": "Vidalia City", "lat": 32.2434, "lon": -82.4106, "proficiency": 0.284, "schoolCount": 1}, {"name": "State Schools", "lat": 33.582685, "lon": -84.41968466666667, "proficiency": 0.0, "schoolCount": 3}, {"name": "Department of Juvenile Justice", "lat": 32.91612033333333, "lon": -83.471725, "proficiency": 0.0, "schoolCount": 3}], "cities": [{"name": "Baxley", "lat": 31.7232, "lon": -82.3399, "proficiency": 0.443, "schoolCount": 1}, {"name": "Pearson", "lat": 31.32105, "lon": -82.84949, "proficiency": 0.569, "schoolCount": 1}, {"name": "Alma", "lat": 31.521944, "lon": -82.459265, "proficiency": 0.565, "schoolCount": 1}, {"name": "Newton", "lat": 31.311646, "lon": -84.344302, "proficiency": 0.278, "schoolCount": 1}, {"name": "Milledgeville", "lat": 33.0834, "lon": -83.2668, "proficiency": 0.185, "schoolCount": 1}, {"name": "Homer", "lat": 34.3126, "lon": -83.4785, "proficiency": 0.542, "schoolCount": 1}, {"name": "Winder", "lat": 33.977124333333336, "lon": -83.76188633333334, "proficiency": 0.3767, "schoolCount": 3}, {"name": "Statham", "lat": 33.969131, "lon": -83.588162, "proficiency": 0.401, "schoolCount": 1}, {"name": "Euharlee", "lat": 34.1464, "lon": -84.9291, "proficiency": 0.574, "schoolCount": 1}, {"name": "Emerson", "lat": 34.1212, "lon": -84.765, "proficiency": 0.417, "schoolCount": 1}, {"name": "Cartersville", "lat": 34.1873, "lon": -84.84595, "proficiency": 0.56, "schoolCount": 2}, {"name": "Adairsville", "lat": 34.334, "lon": -84.9157, "proficiency": 0.698, "schoolCount": 1}, {"name": "Fitzgerald", "lat": 31.7349605, "lon": -83.26029249999999, "proficiency": 0.2, "schoolCount": 2}, {"name": "Nashville", "lat": 31.2118, "lon": -83.262, "proficiency": 0.671, "schoolCount": 1}, {"name": "Macon", "lat": 32.847901538461535, "lon": -83.66714823076924, "proficiency": 0.1862, "schoolCount": 13}, {"name": "Cochran", "lat": 32.410604500000005, "lon": -83.32179450000001, "proficiency": 0.298, "schoolCount": 2}, {"name": "Nahunta", "lat": 31.193284, "lon": -82.025235, "proficiency": 0.584, "schoolCount": 1}, {"name": "Quitman", "lat": 30.8072595, "lon": -83.5708045, "proficiency": 0.096, "schoolCount": 2}, {"name": "Richmond Hill", "lat": 31.8484, "lon": -81.3122, "proficiency": 0.612, "schoolCount": 1}, {"name": "Pembroke", "lat": 32.1494, "lon": -81.6082, "proficiency": 0.405, "schoolCount": 1}, {"name": "Statesboro", "lat": 32.446860666666666, "lon": -81.79853966666667, "proficiency": 0.3443, "schoolCount": 3}, {"name": "Brooklet", "lat": 32.361966, "lon": -81.680853, "proficiency": 0.667, "schoolCount": 1}, {"name": "Portal", "lat": 32.53855, "lon": -81.93581, "proficiency": 0.434, "schoolCount": 1}, {"name": "Waynesboro", "lat": 33.084, "lon": -81.9943, "proficiency": 0.302, "schoolCount": 1}, {"name": "Jackson", "lat": 33.28572, "lon": -83.982349, "proficiency": 0.374, "schoolCount": 1}, {"name": "Edison", "lat": 31.562036, "lon": -84.724358, "proficiency": 0.305, "schoolCount": 2}, {"name": "Saint Marys", "lat": 30.7537, "lon": -81.5731, "proficiency": 0.583, "schoolCount": 1}, {"name": "Kingsland", "lat": 30.7949, "lon": -81.6437, "proficiency": 0.514, "schoolCount": 1}, {"name": "Metter", "lat": 32.362092, "lon": -82.05114, "proficiency": 0.422, "schoolCount": 1}, {"name": "Bowdon", "lat": 33.5606285, "lon": -85.2332805, "proficiency": 0.2285, "schoolCount": 2}, {"name": "Temple", "lat": 33.763999999999996, "lon": -84.9983, "proficiency": 0.293, "schoolCount": 2}, {"name": "Carrollton", "lat": 33.549286, "lon": -85.0758045, "proficiency": 0.516, "schoolCount": 2}, {"name": "Villa Rica", "lat": 33.6922, "lon": -84.9385, "proficiency": 0.47, "schoolCount": 1}, {"name": "Mt. Zion", "lat": 33.63775, "lon": -85.184213, "proficiency": 0.283, "schoolCount": 1}, {"name": "Ringgold", "lat": 34.906848999999994, "lon": -85.151465, "proficiency": 0.5755, "schoolCount": 2}, {"name": "Rossville", "lat": 34.9554325, "lon": -85.2860565, "proficiency": 0.32, "schoolCount": 2}, {"name": "Folkston", "lat": 30.8156, "lon": -82.0115, "proficiency": 0.361, "schoolCount": 1}, {"name": "Savannah", "lat": 32.034313, "lon": -81.116248, "proficiency": 0.3176, "schoolCount": 17}, {"name": "Tybee Island", "lat": 32.0041, "lon": -80.845, "proficiency": 0.532, "schoolCount": 1}, {"name": "Pooler", "lat": 32.0938, "lon": -81.2593, "proficiency": 0.172, "schoolCount": 1}, {"name": "Port Wentworth", "lat": 32.219043, "lon": -81.194708, "proficiency": 0.333, "schoolCount": 1}, {"name": "Bloomingdale", "lat": 32.072723, "lon": -81.326467, "proficiency": 0.344, "schoolCount": 1}, {"name": "Garden City", "lat": 32.03059, "lon": -81.113192, "proficiency": 0.063, "schoolCount": 1}, {"name": "Cusseta", "lat": 32.312421, "lon": -84.754388, "proficiency": 0.413, "schoolCount": 1}, {"name": "Lyerly", "lat": 34.4056, "lon": -85.4093, "proficiency": 0.205, "schoolCount": 1}, {"name": "Summerville", "lat": 34.4593, "lon": -85.3533, "proficiency": 0.116, "schoolCount": 1}, {"name": "Menlo", "lat": 34.4769, "lon": -85.4753, "proficiency": 0.323, "schoolCount": 1}, {"name": "Woodstock", "lat": 34.11211733333334, "lon": -84.52673399999999, "proficiency": 0.5513, "schoolCount": 3}, {"name": "Canton", "lat": 34.2054296, "lon": -84.4615306, "proficiency": 0.5594, "schoolCount": 5}, {"name": "Athens", "lat": 33.963625, "lon": -83.37835, "proficiency": 0.3355, "schoolCount": 4}, {"name": "Fort Gaines", "lat": 31.620837, "lon": -85.042746, "proficiency": 0.333, "schoolCount": 1}, {"name": "Jonesboro", "lat": 33.52104666666667, "lon": -84.35918666666667, "proficiency": 0.3162, "schoolCount": 6}, {"name": "Riverdale", "lat": 33.568542666666666, "lon": -84.40368433333333, "proficiency": 0.1403, "schoolCount": 3}, {"name": "Hampton", "lat": 33.42657566666667, "lon": -84.28561433333333, "proficiency": 0.2263, "schoolCount": 3}, {"name": "Morrow", "lat": 33.593795, "lon": -84.320031, "proficiency": 0.256, "schoolCount": 1}, {"name": "Rex", "lat": 33.58545, "lon": -84.28455, "proficiency": 0.312, "schoolCount": 2}, {"name": "Forest Park", "lat": 33.621628333333334, "lon": -84.361409, "proficiency": 0.186, "schoolCount": 3}, {"name": "College Park", "lat": 33.62529775, "lon": -84.4648685, "proficiency": 0.1313, "schoolCount": 4}, {"name": "Homerville", "lat": 31.049029, "lon": -82.750117, "proficiency": 0.491, "schoolCount": 1}, {"name": "Marietta", "lat": 33.984438272727274, "lon": -84.49620672727272, "proficiency": 0.5575, "schoolCount": 11}, {"name": "Mableton", "lat": 33.82340266666667, "lon": -84.546217, "proficiency": 0.3677, "schoolCount": 3}, {"name": "Kennesaw", "lat": 34.01058857142857, "lon": -84.63498057142858, "proficiency": 0.481, "schoolCount": 7}, {"name": "Smyrna", "lat": 33.864711, "lon": -84.509616, "proficiency": 0.46, "schoolCount": 2}, {"name": "Acworth", "lat": 34.0430185, "lon": -84.676122, "proficiency": 0.539, "schoolCount": 2}, {"name": "Powder Springs", "lat": 33.8784, "lon": -84.6946, "proficiency": 0.4357, "schoolCount": 3}, {"name": "Austell", "lat": 33.835049999999995, "lon": -84.63915, "proficiency": 0.377, "schoolCount": 2}, {"name": "Atlanta", "lat": 33.77191623404255, "lon": -84.41534955319149, "proficiency": 0.2854, "schoolCount": 47}, {"name": "Douglas", "lat": 31.5397, "lon": -82.8354, "proficiency": 0.362, "schoolCount": 1}, {"name": "Moultrie", "lat": 31.1914, "lon": -83.799, "proficiency": 0.367, "schoolCount": 1}, {"name": "Evans", "lat": 33.556744200000004, "lon": -82.146698, "proficiency": 0.56, "schoolCount": 5}, {"name": "Grovetown", "lat": 33.474591000000004, "lon": -82.2262405, "proficiency": 0.379, "schoolCount": 2}, {"name": "Martinez", "lat": 33.5601, "lon": -82.0802, "proficiency": 0.728, "schoolCount": 1}, {"name": "Harlem", "lat": 33.47622, "lon": -82.317302, "proficiency": 0.21, "schoolCount": 1}, {"name": "Sparks", "lat": 31.155176, "lon": -83.437312, "proficiency": 0.526, "schoolCount": 1}, {"name": "Sharpsburg", "lat": 33.414496, "lon": -84.65321, "proficiency": 0.5245, "schoolCount": 2}, {"name": "Senoia", "lat": 33.3004595, "lon": -84.593527, "proficiency": 0.4265, "schoolCount": 2}, {"name": "Newnan", "lat": 33.3972676, "lon": -84.7751852, "proficiency": 0.4074, "schoolCount": 5}, {"name": "Roberta", "lat": 32.720634, "lon": -84.004821, "proficiency": 0.306, "schoolCount": 1}, {"name": "Cordele", "lat": 31.954, "lon": -83.7635, "proficiency": 0.143, "schoolCount": 1}, {"name": "Trenton", "lat": 34.8722, "lon": -85.5185, "proficiency": 0.5, "schoolCount": 1}, {"name": "Dawsonville", "lat": 34.420212, "lon": -84.113194, "proficiency": 0.454, "schoolCount": 1}, {"name": "Bainbridge", "lat": 30.909451, "lon": -84.54912866666666, "proficiency": 0.2823, "schoolCount": 3}, {"name": "Decatur", "lat": 33.74608536363636, "lon": -84.25001718181818, "proficiency": 0.3787, "schoolCount": 11}, {"name": "Stone Mountain", "lat": 33.7968318, "lon": -84.17667739999999, "proficiency": 0.2964, "schoolCount": 5}, {"name": "Lithonia", "lat": 33.708025, "lon": -84.14415, "proficiency": 0.1973, "schoolCount": 4}, {"name": "Avondale Estates", "lat": 33.7739115, "lon": -84.265987, "proficiency": 0.617, "schoolCount": 2}, {"name": "Doraville", "lat": 33.8863, "lon": -84.275799, "proficiency": 0.37, "schoolCount": 1}, {"name": "Chamblee", "lat": 33.88185, "lon": -84.2817, "proficiency": 0.421, "schoolCount": 2}, {"name": "Tucker", "lat": 33.83995, "lon": -84.2131, "proficiency": 0.267, "schoolCount": 2}, {"name": "Eastman", "lat": 32.1947185, "lon": -83.188094, "proficiency": 0.1025, "schoolCount": 2}, {"name": "Pinehurst", "lat": 32.1848, "lon": -83.7665, "proficiency": 0.054, "schoolCount": 1}, {"name": "Vienna", "lat": 32.093044, "lon": -83.783882, "proficiency": 0.0, "schoolCount": 1}, {"name": "Albany", "lat": 31.567743, "lon": -84.1557, "proficiency": 0.3054, "schoolCount": 5}, {"name": "Douglasville", "lat": 33.71647611111111, "lon": -84.74669944444445, "proficiency": 0.299, "schoolCount": 9}, {"name": "Winston", "lat": 33.715968, "lon": -84.831146, "proficiency": 0.56, "schoolCount": 1}, {"name": "Lithia Springs", "lat": 33.7819, "lon": -84.6601, "proficiency": 0.177, "schoolCount": 1}, {"name": "Blakely", "lat": 31.376, "lon": -84.9411, "proficiency": 0.252, "schoolCount": 1}, {"name": "Statenville", "lat": 30.699578, "lon": -83.024662, "proficiency": 0.807, "schoolCount": 1}, {"name": "Rincon", "lat": 32.346818, "lon": -81.228003, "proficiency": 0.636, "schoolCount": 1}, {"name": "Guyton", "lat": 32.2714, "lon": -81.34035, "proficiency": 0.645, "schoolCount": 2}, {"name": "Elberton", "lat": 34.1066, "lon": -82.8946, "proficiency": 0.315, "schoolCount": 1}, {"name": "Swainsboro", "lat": 32.5726, "lon": -82.3093, "proficiency": 0.304, "schoolCount": 1}, {"name": "Twin City", "lat": 32.580736, "lon": -82.154955, "proficiency": 0.449, "schoolCount": 1}, {"name": "Claxton", "lat": 32.152066, "lon": -81.909432, "proficiency": 0.0705, "schoolCount": 2}, {"name": "Blue Ridge", "lat": 34.8706, "lon": -84.3022, "proficiency": 0.414, "schoolCount": 1}, {"name": "Fayetteville", "lat": 33.39086666666667, "lon": -84.50186666666666, "proficiency": 0.7643, "schoolCount": 3}, {"name": "Peachtree City", "lat": 33.41546, "lon": -84.551644, "proficiency": 0.819, "schoolCount": 1}, {"name": "Tyrone", "lat": 33.4961, "lon": -84.5694, "proficiency": 0.636, "schoolCount": 1}, {"name": "Lindale", "lat": 34.1811, "lon": -85.1801, "proficiency": 0.59, "schoolCount": 1}, {"name": "Rome", "lat": 34.30095, "lon": -85.181775, "proficiency": 0.567, "schoolCount": 4}, {"name": "Suwanee", "lat": 34.065565, "lon": -84.08916550000001, "proficiency": 0.679, "schoolCount": 2}, {"name": "Cumming", "lat": 34.206566333333335, "lon": -84.15122600000001, "proficiency": 0.6772, "schoolCount": 9}, {"name": "Alpharetta", "lat": 34.063200888888886, "lon": -84.26723177777778, "proficiency": 0.6571, "schoolCount": 9}, {"name": "Carnesville", "lat": 34.394886, "lon": -83.194216, "proficiency": 0.392, "schoolCount": 1}, {"name": "Fairburn", "lat": 33.584740333333336, "lon": -84.64983366666667, "proficiency": 0.2733, "schoolCount": 3}, {"name": "Roswell", "lat": 34.05448125, "lon": -84.3467035, "proficiency": 0.6305, "schoolCount": 4}, {"name": "East Point", "lat": 33.680550333333336, "lon": -84.47429366666667, "proficiency": 0.199, "schoolCount": 3}, {"name": "Duluth", "lat": 34.00100571428571, "lon": -84.13265028571428, "proficiency": 0.5827, "schoolCount": 7}, {"name": "Ellijay", "lat": 34.61465, "lon": -84.455723, "proficiency": 0.681, "schoolCount": 1}, {"name": "Gibson", "lat": 33.241035, "lon": -82.611183, "proficiency": 0.568, "schoolCount": 1}, {"name": "Brunswick", "lat": 31.225093400000002, "lon": -81.5153896, "proficiency": 0.486, "schoolCount": 5}, {"name": "Calhoun", "lat": 34.515564000000005, "lon": -84.90641266666667, "proficiency": 0.445, "schoolCount": 3}, {"name": "Cairo", "lat": 30.874754, "lon": -84.224553, "proficiency": 0.424, "schoolCount": 1}, {"name": "Whigham", "lat": 30.8813, "lon": -84.3286, "proficiency": 0.5, "schoolCount": 1}, {"name": "Pelham", "lat": 31.0641535, "lon": -84.1814215, "proficiency": 0.4875, "schoolCount": 2}, {"name": "Greensboro", "lat": 33.5252025, "lon": -83.211004, "proficiency": 0.4205, "schoolCount": 2}, {"name": "Lilburn", "lat": 33.89270466666667, "lon": -84.130951, "proficiency": 0.4317, "schoolCount": 3}, {"name": "Peachtree Corners", "lat": 33.98466, "lon": -84.228941, "proficiency": 0.507, "schoolCount": 1}, {"name": "Lawrenceville", "lat": 33.948224800000006, "lon": -84.0152808, "proficiency": 0.4316, "schoolCount": 10}, {"name": "Hoschton", "lat": 34.078014, "lon": -83.872967, "proficiency": 0.77, "schoolCount": 1}, {"name": "Sugar Hill", "lat": 34.113648999999995, "lon": -84.063518, "proficiency": 0.8235, "schoolCount": 2}, {"name": "Snellville", "lat": 33.82995, "lon": -84.0378, "proficiency": 0.303, "schoolCount": 2}, {"name": "Dacula", "lat": 33.9913, "lon": -83.8947, "proficiency": 0.518, "schoolCount": 1}, {"name": "Buford", "lat": 34.093938, "lon": -83.95677833333333, "proficiency": 0.7767, "schoolCount": 3}, {"name": "Loganville", "lat": 33.84271075, "lon": -83.8943625, "proficiency": 0.522, "schoolCount": 4}, {"name": "Grayson", "lat": 33.886880000000005, "lon": -83.963803, "proficiency": 0.736, "schoolCount": 2}, {"name": "Norcross", "lat": 33.94591333333333, "lon": -84.21234299999999, "proficiency": 0.2707, "schoolCount": 3}, {"name": "Demorest", "lat": 34.563673, "lon": -83.522715, "proficiency": 0.6, "schoolCount": 1}, {"name": "Mount Airy", "lat": 34.557474, "lon": -83.495974, "proficiency": 0.143, "schoolCount": 1}, {"name": "Clarkesville", "lat": 34.636, "lon": -83.5121, "proficiency": 0.695, "schoolCount": 1}, {"name": "Cornelia", "lat": 34.5232, "lon": -83.5717, "proficiency": 0.598, "schoolCount": 1}, {"name": "Flowery Branch", "lat": 34.1700945, "lon": -83.8915425, "proficiency": 0.4925, "schoolCount": 2}, {"name": "Gainesville", "lat": 34.29595428571429, "lon": -83.83933671428572, "proficiency": 0.3264, "schoolCount": 7}, {"name": "Oakwood", "lat": 34.2217, "lon": -83.9096, "proficiency": 0.315, "schoolCount": 1}, {"name": "Sparta", "lat": 33.300698, "lon": -82.970037, "proficiency": 0.043, "schoolCount": 1}, {"name": "Tallapoosa", "lat": 33.767197499999995, "lon": -85.2312665, "proficiency": 0.3095, "schoolCount": 2}, {"name": "Hamilton", "lat": 32.764885, "lon": -84.889028, "proficiency": 0.644, "schoolCount": 1}, {"name": "Hartwell", "lat": 34.3502, "lon": -82.9202, "proficiency": 0.525, "schoolCount": 1}, {"name": "Franklin", "lat": 33.2880715, "lon": -85.10586599999999, "proficiency": 0.259, "schoolCount": 2}, {"name": "Locust Grove", "lat": 33.3614155, "lon": -84.130993, "proficiency": 0.1875, "schoolCount": 2}, {"name": "Stockbridge", "lat": 33.58237, "lon": -84.1636885, "proficiency": 0.268, "schoolCount": 4}, {"name": "McDonough", "lat": 33.46626139999999, "lon": -84.130837, "proficiency": 0.2672, "schoolCount": 5}, {"name": "Warner Robins", "lat": 32.60045, "lon": -83.643675, "proficiency": 0.433, "schoolCount": 4}, {"name": "Kathleen", "lat": 32.533714, "lon": -83.700638, "proficiency": 0.634, "schoolCount": 1}, {"name": "Perry", "lat": 32.4854, "lon": -83.7268, "proficiency": 0.608, "schoolCount": 1}, {"name": "Centerville", "lat": 32.63378, "lon": -83.693689, "proficiency": 0.475, "schoolCount": 1}, {"name": "Bonaire", "lat": 32.544954, "lon": -83.588287, "proficiency": 0.723, "schoolCount": 1}, {"name": "Ocilla", "lat": 31.57764, "lon": -83.239448, "proficiency": 0.354, "schoolCount": 1}, {"name": "Commerce", "lat": 34.165499999999994, "lon": -83.4693, "proficiency": 0.534, "schoolCount": 2}, {"name": "Jefferson", "lat": 34.1076, "lon": -83.6395, "proficiency": 0.6975, "schoolCount": 2}, {"name": "Monticello", "lat": 33.3185, "lon": -83.6887, "proficiency": 0.347, "schoolCount": 1}, {"name": "Hazlehurst", "lat": 31.862449, "lon": -82.620325, "proficiency": 0.563, "schoolCount": 1}, {"name": "Stapleton", "lat": 33.098045, "lon": -82.417119, "proficiency": 0.137, "schoolCount": 1}, {"name": "Millen", "lat": 32.809882, "lon": -81.943585, "proficiency": 0.395, "schoolCount": 1}, {"name": "Wrightsville", "lat": 32.724885, "lon": -82.728513, "proficiency": 0.517, "schoolCount": 1}, {"name": "Gray", "lat": 32.9946, "lon": -83.5268, "proficiency": 0.574, "schoolCount": 1}, {"name": "Barnesville", "lat": 33.0453, "lon": -84.1774, "proficiency": 0.373, "schoolCount": 1}, {"name": "Lakeland", "lat": 31.036889, "lon": -83.078382, "proficiency": 0.531, "schoolCount": 1}, {"name": "Dublin", "lat": 32.54211775, "lon": -82.90630325, "proficiency": 0.3513, "schoolCount": 4}, {"name": "Leesburg", "lat": 31.740415499999997, "lon": -84.16161650000001, "proficiency": 0.585, "schoolCount": 2}, {"name": "Midway", "lat": 31.804781, "lon": -81.452528, "proficiency": 0.254, "schoolCount": 1}, {"name": "Hinesville", "lat": 31.8407, "lon": -81.59155000000001, "proficiency": 0.258, "schoolCount": 2}, {"name": "Lincolnton", "lat": 33.791023, "lon": -82.489556, "proficiency": 0.687, "schoolCount": 1}, {"name": "Ludowici", "lat": 31.733294, "lon": -81.722094, "proficiency": 0.237, "schoolCount": 1}, {"name": "Valdosta", "lat": 30.869754999999998, "lon": -83.2618042, "proficiency": 0.433, "schoolCount": 5}, {"name": "Hahira", "lat": 30.9911, "lon": -83.3669, "proficiency": 0.684, "schoolCount": 1}, {"name": "Dahlonega", "lat": 34.5423, "lon": -83.9905, "proficiency": 0.502, "schoolCount": 1}, {"name": "Montezuma", "lat": 32.290748, "lon": -84.018267, "proficiency": 0.103, "schoolCount": 1}, {"name": "Danielsville", "lat": 34.08859, "lon": -83.15722, "proficiency": 0.471, "schoolCount": 1}, {"name": "Buena Vista", "lat": 32.362784, "lon": -84.536294, "proficiency": 0.267, "schoolCount": 1}, {"name": "Thomson", "lat": 33.476576, "lon": -82.477066, "proficiency": 0.223, "schoolCount": 1}, {"name": "Darien", "lat": 31.3682, "lon": -81.4295, "proficiency": 0.317, "schoolCount": 1}, {"name": "Warm Springs", "lat": 32.8809, "lon": -84.709476, "proficiency": 0.162, "schoolCount": 1}, {"name": "Greenville", "lat": 33.048136, "lon": -84.709319, "proficiency": 0.181, "schoolCount": 1}, {"name": "Manchester", "lat": 32.859156, "lon": -84.615269, "proficiency": 0.153, "schoolCount": 1}, {"name": "Colquitt", "lat": 31.191268, "lon": -84.712842, "proficiency": 0.569, "schoolCount": 1}, {"name": "Camilla", "lat": 31.240276, "lon": -84.237065, "proficiency": 0.544, "schoolCount": 1}, {"name": "Forsyth", "lat": 33.012548, "lon": -83.916511, "proficiency": 0.681, "schoolCount": 1}, {"name": "Mount Vernon", "lat": 32.18244, "lon": -82.582295, "proficiency": 0.478, "schoolCount": 1}, {"name": "Madison", "lat": 33.597603, "lon": -83.450972, "proficiency": 0.616, "schoolCount": 1}, {"name": "Eton", "lat": 34.825992, "lon": -84.758567, "proficiency": 0.392, "schoolCount": 1}, {"name": "Chatsworth", "lat": 34.8025925, "lon": -84.79484149999999, "proficiency": 0.4015, "schoolCount": 2}, {"name": "Midland", "lat": 32.54357133333333, "lon": -84.84863366666667, "proficiency": 0.2407, "schoolCount": 3}, {"name": "Columbus", "lat": 32.49372354545455, "lon": -84.93185590909091, "proficiency": 0.2459, "schoolCount": 11}, {"name": "Covington", "lat": 33.588033, "lon": -83.90612533333334, "proficiency": 0.312, "schoolCount": 6}, {"name": "Watkinsville", "lat": 33.874, "lon": -83.4446, "proficiency": 0.774, "schoolCount": 1}, {"name": "Bogart", "lat": 33.9121, "lon": -83.5049, "proficiency": 0.853, "schoolCount": 1}, {"name": "Crawford", "lat": 33.895375, "lon": -83.108749, "proficiency": 0.625, "schoolCount": 1}, {"name": "Dallas", "lat": 33.923464714285714, "lon": -84.82983985714286, "proficiency": 0.3544, "schoolCount": 7}, {"name": "Fort Valley", "lat": 32.569152, "lon": -83.914816, "proficiency": 0.275, "schoolCount": 1}, {"name": "Byron", "lat": 32.6484, "lon": -83.7531, "proficiency": 0.254, "schoolCount": 1}, {"name": "Jasper", "lat": 34.4442, "lon": -84.4201, "proficiency": 0.405, "schoolCount": 1}, {"name": "Blackshear", "lat": 31.3285, "lon": -82.2168, "proficiency": 0.641, "schoolCount": 1}, {"name": "Zebulon", "lat": 33.080177, "lon": -84.338589, "proficiency": 0.289, "schoolCount": 1}, {"name": "Cedartown", "lat": 34.021412, "lon": -85.23193649999999, "proficiency": 0.1725, "schoolCount": 2}, {"name": "Rockmart", "lat": 34.0202, "lon": -85.016, "proficiency": 0.285, "schoolCount": 1}, {"name": "Hawkinsville", "lat": 32.279627, "lon": -83.490871, "proficiency": 0.32, "schoolCount": 1}, {"name": "Eatonton", "lat": 33.3349, "lon": -83.3688, "proficiency": 0.466, "schoolCount": 1}, {"name": "Georgetown", "lat": 31.885094, "lon": -85.08234, "proficiency": 0.063, "schoolCount": 1}, {"name": "Tiger", "lat": 34.82711, "lon": -83.421243, "proficiency": 0.524, "schoolCount": 1}, {"name": "Cuthbert", "lat": 31.710737, "lon": -84.860137, "proficiency": 0.244, "schoolCount": 1}, {"name": "Fort Gordon", "lat": 33.405586, "lon": -82.127267, "proficiency": 0.156, "schoolCount": 1}, {"name": "Augusta", "lat": 33.4502875, "lon": -82.02882208333334, "proficiency": 0.215, "schoolCount": 12}, {"name": "Hephzibah", "lat": 33.30609575, "lon": -82.07840325, "proficiency": 0.186, "schoolCount": 4}, {"name": "Conyers", "lat": 33.63676666666667, "lon": -84.01056666666666, "proficiency": 0.2923, "schoolCount": 3}, {"name": "Ellaville", "lat": 32.216945, "lon": -84.289735, "proficiency": 0.736, "schoolCount": 1}, {"name": "Sylvania", "lat": 32.7546, "lon": -81.6223, "proficiency": 0.419, "schoolCount": 1}, {"name": "Donalsonville", "lat": 31.0181, "lon": -84.8815, "proficiency": 0.33, "schoolCount": 1}, {"name": "Griffin", "lat": 33.23865825, "lon": -84.25867275, "proficiency": 0.2097, "schoolCount": 4}, {"name": "Toccoa", "lat": 34.547402, "lon": -83.298751, "proficiency": 0.467, "schoolCount": 1}, {"name": "Lumpkin", "lat": 32.052378, "lon": -84.752605, "proficiency": 0.303, "schoolCount": 1}, {"name": "Americus", "lat": 32.080146, "lon": -84.222438, "proficiency": 0.137, "schoolCount": 2}, {"name": "Talbotton", "lat": 32.690008, "lon": -84.543343, "proficiency": 0.138, "schoolCount": 1}, {"name": "Crawfordville", "lat": 33.558422, "lon": -82.909503, "proficiency": 0.294, "schoolCount": 1}, {"name": "Reidsville", "lat": 32.0845, "lon": -82.1225, "proficiency": 0.402, "schoolCount": 1}, {"name": "Glennville", "lat": 31.9326, "lon": -81.9202, "proficiency": 0.447, "schoolCount": 1}, {"name": "Butler", "lat": 32.5541, "lon": -84.2325, "proficiency": 0.463, "schoolCount": 1}, {"name": "Mc Rae Helena", "lat": 32.057652000000004, "lon": -82.9108715, "proficiency": 0.207, "schoolCount": 2}, {"name": "Dawson", "lat": 31.756389, "lon": -84.414776, "proficiency": 0.162, "schoolCount": 1}, {"name": "Thomasville", "lat": 30.861227333333332, "lon": -83.96476266666667, "proficiency": 0.3333, "schoolCount": 3}, {"name": "Tifton", "lat": 31.4741, "lon": -83.51740000000001, "proficiency": 0.364, "schoolCount": 2}, {"name": "Lyons", "lat": 32.185878, "lon": -82.335133, "proficiency": 0.231, "schoolCount": 1}, {"name": "Hiawassee", "lat": 34.9311, "lon": -83.7311, "proficiency": 0.769, "schoolCount": 1}, {"name": "Soperton", "lat": 32.412621, "lon": -82.64043, "proficiency": 0.262, "schoolCount": 1}, {"name": "LaGrange", "lat": 33.0461094, "lon": -85.0264118, "proficiency": 0.4372, "schoolCount": 5}, {"name": "Ashburn", "lat": 31.706019, "lon": -83.642058, "proficiency": 0.26, "schoolCount": 1}, {"name": "Jeffersonville", "lat": 32.682791, "lon": -83.358139, "proficiency": 0.204, "schoolCount": 1}, {"name": "Blairsville", "lat": 34.877772, "lon": -83.953337, "proficiency": 0.474, "schoolCount": 1}, {"name": "Suches", "lat": 34.6921, "lon": -84.0239, "proficiency": 0.0, "schoolCount": 1}, {"name": "Thomaston", "lat": 32.8868, "lon": -84.3134, "proficiency": 0.314, "schoolCount": 1}, {"name": "Flintstone", "lat": 34.9298, "lon": -85.3577, "proficiency": 0.209, "schoolCount": 1}, {"name": "Rock Spring", "lat": 34.845159, "lon": -85.239654, "proficiency": 0.345, "schoolCount": 1}, {"name": "La Fayette", "lat": 34.726, "lon": -85.2739, "proficiency": 0.167, "schoolCount": 1}, {"name": "Monroe", "lat": 33.795842, "lon": -83.675649, "proficiency": 0.37, "schoolCount": 1}, {"name": "Waycross", "lat": 31.2238, "lon": -82.366, "proficiency": 0.364, "schoolCount": 2}, {"name": "Warrenton", "lat": 33.4176, "lon": -82.68, "proficiency": 0.191, "schoolCount": 1}, {"name": "Sandersville", "lat": 33.0028, "lon": -82.8161, "proficiency": 0.202, "schoolCount": 1}, {"name": "Jesup", "lat": 31.6001, "lon": -81.89515, "proficiency": 0.449, "schoolCount": 2}, {"name": "Preston", "lat": 32.062355, "lon": -84.542013, "proficiency": 0.25, "schoolCount": 1}, {"name": "Alamo", "lat": 32.154188, "lon": -82.776457, "proficiency": 0.524, "schoolCount": 1}, {"name": "Cleveland", "lat": 34.6028, "lon": -83.77, "proficiency": 0.405, "schoolCount": 1}, {"name": "Dalton", "lat": 34.7937694, "lon": -84.9564944, "proficiency": 0.421, "schoolCount": 5}, {"name": "Rocky Face", "lat": 34.785624, "lon": -85.050526, "proficiency": 0.743, "schoolCount": 1}, {"name": "Rochelle", "lat": 31.939569, "lon": -83.445133, "proficiency": 0.565, "schoolCount": 1}, {"name": "Washington", "lat": 33.759896, "lon": -82.734376, "proficiency": 0.316, "schoolCount": 1}, {"name": "Irwinton", "lat": 32.826504, "lon": -83.214271, "proficiency": 0.097, "schoolCount": 1}, {"name": "Sylvester", "lat": 31.5461265, "lon": -83.8367165, "proficiency": 0.1925, "schoolCount": 2}, {"name": "Bremen", "lat": 33.712576, "lon": -85.117831, "proficiency": 0.857, "schoolCount": 1}, {"name": "Chickamauga", "lat": 34.8709, "lon": -85.2967, "proficiency": 0.555, "schoolCount": 1}, {"name": "Gainesville-", "lat": 34.280913, "lon": -83.869035, "proficiency": 0.234, "schoolCount": 1}, {"name": "Ellenwood", "lat": 33.613501, "lon": -84.300195, "proficiency": 0.13, "schoolCount": 1}, {"name": "Shellman", "lat": 31.762848, "lon": -84.616644, "proficiency": 0.444, "schoolCount": 1}, {"name": "Brooks", "lat": 33.291671, "lon": -84.461155, "proficiency": 0.643, "schoolCount": 1}, {"name": "Baconton", "lat": 31.37655, "lon": -84.156013, "proficiency": 0.559, "schoolCount": 1}, {"name": "Social Circle", "lat": 33.6593, "lon": -83.7294, "proficiency": 0.323, "schoolCount": 1}, {"name": "Trion", "lat": 34.5383, "lon": -85.325, "proficiency": 0.767, "schoolCount": 1}, {"name": "Vidalia", "lat": 32.2434, "lon": -82.4106, "proficiency": 0.284, "schoolCount": 1}, {"name": "Clarkston", "lat": 33.802741, "lon": -84.240062, "proficiency": 0.0, "schoolCount": 1}, {"name": "Cave Spring", "lat": 34.097164, "lon": -85.350427, "proficiency": 0.0, "schoolCount": 1}]}