{"state": "HI", "stateName": "Hawaii", "year": 2020, "naep": {"text": "3 out of 4", "numerator": 3, "denominator": 4}, "schools": [{"name": "Kahuku High & Intermediate School", "lat": 21.675348, "lon": -157.947764, "proficiency": 0.345, "district": "Hawaii Department of Education", "city": "Kahuku", "ncessch": "150003000007"}, {"name": "Kailua Intermediate School", "lat": 21.394223, "lon": -157.7363, "proficiency": 0.29, "district": "Hawaii Department of Education", "city": "Kailua", "ncessch": "150003000010"}, {"name": "Governor Samuel Wilder King Intermediate School", "lat": 21.427425, "lon": -157.805831, "proficiency": 0.17, "district": "Hawaii Department of Education", "city": "Kaneohe", "ncessch": "150003000016"}, {"name": "Puohala Elementary School", "lat": 21.409798, "lon": -157.791346, "proficiency": 0.245, "district": "Hawaii Department of Education", "city": "Kaneohe", "ncessch": "150003000023"}, {"name": "Waimanalo Elementary & Intermediate School", "lat": 21.346174, "lon": -157.71482, "proficiency": 0.05, "district": "Hawaii Department of Education", "city": "Waimanalo", "ncessch": "150003000026"}, {"name": "Hilo Intermediate School", "lat": 19.72014, "lon": -155.095936, "proficiency": 0.27, "district": "Hawaii Department of Education", "city": "Hilo", "ncessch": "150003000030"}, {"name": "Honokaa High & Intermediate School", "lat": 20.077179, "lon": -155.464148, "proficiency": 0.075, "district": "Hawaii Department of Education", "city": "Honokaa", "ncessch": "150003000034"}, {"name": "Prince Jonah Kalanianaole Elementary & Intermediate School", "lat": 19.790308, "lon": -155.094006, "proficiency": 0.05, "district": "Hawaii Department of Education", "city": "Papaikou", "ncessch": "150003000036"}, {"name": "Kau High & Pahala Elementary School", "lat": 19.201972, "lon": -155.47973, "proficiency": 0.025, "district": "Hawaii Department of Education", "city": "Pahala", "ncessch": "150003000038"}, {"name": "Keaau Middle School", "lat": 19.621734, "lon": -155.038094, "proficiency": 0.075, "district": "Hawaii Department of Education", "city": "Keaau", "ncessch": "150003000040"}, {"name": "Laupahoehoe Community - PCS", "lat": 19.979666, "lon": -155.228333, "proficiency": 0.245, "district": "Hawaii Department of Education", "city": "Laupahoehoe", "ncessch": "150003000046"}, {"name": "Paauilo Elementary & Intermediate School", "lat": 20.039371, "lon": -155.372904, "proficiency": 0.3, "district": "Hawaii Department of Education", "city": "Paauilo", "ncessch": "150003000049"}, {"name": "Pahoa High & Intermediate School", "lat": 19.491144, "lon": -154.941894, "proficiency": 0.17, "district": "Hawaii Department of Education", "city": "Pahoa", "ncessch": "150003000050"}, {"name": "Waiakea Intermediate School", "lat": 19.695254, "lon": -155.07724, "proficiency": 0.22, "district": "Hawaii Department of Education", "city": "Hilo", "ncessch": "150003000053"}, {"name": "Hana High & Elementary School", "lat": 20.776853, "lon": -155.998863, "proficiency": 0.3, "district": "Hawaii Department of Education", "city": "Hana", "ncessch": "150003000058"}, {"name": "Iao Intermediate School", "lat": 20.884856, "lon": -156.500318, "proficiency": 0.17, "district": "Hawaii Department of Education", "city": "Wailuku", "ncessch": "150003000059"}, {"name": "Lahaina Intermediate School", "lat": 20.886799, "lon": -156.6624, "proficiency": 0.17, "district": "Hawaii Department of Education", "city": "Lahaina", "ncessch": "150003000068"}, {"name": "Lanai High & Elementary School", "lat": 20.826139, "lon": -156.923206, "proficiency": 0.05, "district": "Hawaii Department of Education", "city": "Lanai City", "ncessch": "150003000070"}, {"name": "Waimea Canyon Middle School", "lat": 21.961502, "lon": -159.67256, "proficiency": 0.12, "district": "Hawaii Department of Education", "city": "Waimea", "ncessch": "150003000092"}, {"name": "Nanakuli High & Intermediate School", "lat": 21.387965, "lon": -158.132015, "proficiency": 0.05, "district": "Hawaii Department of Education", "city": "Waianae", "ncessch": "150003000117"}, {"name": "Ilima Intermediate School", "lat": 21.31679, "lon": -158.011534, "proficiency": 0.27, "district": "Hawaii Department of Education", "city": "Ewa Beach", "ncessch": "150003000129"}, {"name": "Highlands Intermediate School", "lat": 21.401076, "lon": -157.962492, "proficiency": 0.3, "district": "Hawaii Department of Education", "city": "Pearl City", "ncessch": "150003000131"}, {"name": "Major Sheldon Wheeler Middle School", "lat": 21.486776, "lon": -158.037845, "proficiency": 0.37, "district": "Hawaii Department of Education", "city": "Wahiawa", "ncessch": "150003000137"}, {"name": "Waialua High & Intermediate School", "lat": 21.565419, "lon": -158.126209, "proficiency": 0.22, "district": "Hawaii Department of Education", "city": "Waialua", "ncessch": "150003000141"}, {"name": "Wahiawa Middle School", "lat": 21.494311, "lon": -158.018525, "proficiency": 0.17, "district": "Hawaii Department of Education", "city": "Wahiawa", "ncessch": "150003000143"}, {"name": "Moanalua Middle School", "lat": 21.349623, "lon": -157.89341, "proficiency": 0.44, "district": "Hawaii Department of Education", "city": "Honolulu", "ncessch": "150003000156"}, {"name": "Waipahu Intermediate School", "lat": 21.381308, "lon": -158.013472, "proficiency": 0.21, "district": "Hawaii Department of Education", "city": "Waipahu", "ncessch": "150003000158"}, {"name": "King David Kalakaua Middle School", "lat": 21.328604, "lon": -157.87613, "proficiency": 0.25, "district": "Hawaii Department of Education", "city": "Honolulu", "ncessch": "150003000164"}, {"name": "Aliamanu Middle School", "lat": 21.34299, "lon": -157.914655, "proficiency": 0.33, "district": "Hawaii Department of Education", "city": "Honolulu", "ncessch": "150003000174"}, {"name": "Aiea Intermediate School", "lat": 21.380552, "lon": -157.923878, "proficiency": 0.37, "district": "Hawaii Department of Education", "city": "Aiea", "ncessch": "150003000176"}, {"name": "President George Washington Middle School", "lat": 21.296351, "lon": -157.83553, "proficiency": 0.27, "district": "Hawaii Department of Education", "city": "Honolulu", "ncessch": "150003000180"}, {"name": "Robert Louis Stevenson Middle School", "lat": 21.310488, "lon": -157.840599, "proficiency": 0.27, "district": "Hawaii Department of Education", "city": "Honolulu", "ncessch": "150003000184"}, {"name": "Niu Valley Middle School", "lat": 21.285746, "lon": -157.74037, "proficiency": 0.42, "district": "Hawaii Department of Education", "city": "Honolulu", "ncessch": "150003000192"}, {"name": "Prince David Kawananakoa Middle School", "lat": 21.3197, "lon": -157.8512, "proficiency": 0.32, "district": "Hawaii Department of Education", "city": "Honolulu", "ncessch": "150003000205"}, {"name": "Kaimuki Middle School", "lat": 21.269938, "lon": -157.797179, "proficiency": 0.61, "district": "Hawaii Department of Education", "city": "Honolulu", "ncessch": "150003000211"}, {"name": "William P Jarrett Middle School", "lat": 21.297481, "lon": -157.796968, "proficiency": 0.37, "district": "Hawaii Department of Education", "city": "Honolulu", "ncessch": "150003000218"}, {"name": "Governor Sanford B Dole Middle School", "lat": 21.342523, "lon": -157.870415, "proficiency": 0.075, "district": "Hawaii Department of Education", "city": "Honolulu", "ncessch": "150003000222"}, {"name": "Princess Ruth Keelikolani Middle School", "lat": 21.311735, "lon": -157.856581, "proficiency": 0.025, "district": "Hawaii Department of Education", "city": "Honolulu", "ncessch": "150003000223"}, {"name": "Waianae Intermediate School", "lat": 21.453181, "lon": -158.191874, "proficiency": 0.05, "district": "Hawaii Department of Education", "city": "Waianae", "ncessch": "150003000229"}, {"name": "Samuel Enoka Kalama Intermediate School", "lat": 20.850564, "lon": -156.320938, "proficiency": 0.27, "district": "Hawaii Department of Education", "city": "Makawao", "ncessch": "150003000233"}, {"name": "Kealakehe Intermediate School", "lat": 19.669643, "lon": -155.984387, "proficiency": 0.075, "district": "Hawaii Department of Education", "city": "Kailua-Kona", "ncessch": "150003000235"}, {"name": "Lokelani Intermediate School", "lat": 20.745833, "lon": -156.448308, "proficiency": 0.22, "district": "Hawaii Department of Education", "city": "Kihei", "ncessch": "150003000238"}, {"name": "Kamaile Academy PCS", "lat": 21.457018, "lon": -158.194873, "proficiency": 0.05, "district": "Hawaii Department of Education", "city": "Waianae", "ncessch": "150003000240"}, {"name": "Maui Waena Intermediate School", "lat": 20.874035, "lon": -156.485142, "proficiency": 0.22, "district": "Hawaii Department of Education", "city": "Kahului", "ncessch": "150003000241"}, {"name": "Anuenue School", "lat": 21.304205, "lon": -157.789977, "proficiency": 0.1, "district": "Hawaii Department of Education", "city": "Honolulu", "ncessch": "150003000246"}, {"name": "Waikoloa Elementary and Middle School", "lat": 19.946387, "lon": -155.790645, "proficiency": 0.17, "district": "Hawaii Department of Education", "city": "Waikoloa", "ncessch": "150003000247"}, {"name": "Konawaena Middle School", "lat": 19.510069, "lon": -155.914744, "proficiency": 0.17, "district": "Hawaii Department of Education", "city": "Kealakekua", "ncessch": "150003000252"}, {"name": "Kapaa Middle School", "lat": 22.078693, "lon": -159.328324, "proficiency": 0.17, "district": "Hawaii Department of Education", "city": "Kapaa", "ncessch": "150003000255"}, {"name": "Mililani Middle School", "lat": 21.475585, "lon": -157.988471, "proficiency": 0.35, "district": "Hawaii Department of Education", "city": "Mililani", "ncessch": "150003000256"}, {"name": "Kapolei Middle School", "lat": 21.332847, "lon": -158.057623, "proficiency": 0.27, "district": "Hawaii Department of Education", "city": "Kapolei", "ncessch": "150003000259"}, {"name": "Connections - New Century PCS", "lat": 19.725277, "lon": -155.08656, "proficiency": 0.15, "district": "Hawaii Department of Education", "city": "Hilo", "ncessch": "150003000262"}, {"name": "Kanu o ka Aina - New Century PCS", "lat": 20.016148, "lon": -155.652684, "proficiency": 0.1, "district": "Hawaii Department of Education", "city": "Kamuela", "ncessch": "150003000263"}, {"name": "West Hawaii Explorations Academy", "lat": 19.714, "lon": -156.036404, "proficiency": 0.3, "district": "Hawaii Department of Education", "city": "Kailua-Kona", "ncessch": "150003000265"}, {"name": "Chiefess Kamakahelei Middle School", "lat": 21.967234, "lon": -159.388179, "proficiency": 0.21, "district": "Hawaii Department of Education", "city": "Lihue", "ncessch": "150003000266"}, {"name": "Kohala Middle School", "lat": 20.227305, "lon": -155.778459, "proficiency": 0.05, "district": "Hawaii Department of Education", "city": "Kapaau", "ncessch": "150003000267"}, {"name": "Waimea Middle - PCCS", "lat": 20.01824, "lon": -155.669052, "proficiency": 0.1, "district": "Hawaii Department of Education", "city": "Kamuela", "ncessch": "150003000268"}, {"name": "Halau Ku Mana - A New Century PCS", "lat": 21.312832, "lon": -157.829534, "proficiency": 0.3, "district": "Hawaii Department of Education", "city": "Honolulu", "ncessch": "150003000270"}, {"name": "Voyager - A Public Charter School", "lat": 21.29592, "lon": -157.822901, "proficiency": 0.245, "district": "Hawaii Department of Education", "city": "Honolulu", "ncessch": "150003000271"}, {"name": "University Laboratory School", "lat": 21.297947, "lon": -157.821646, "proficiency": 0.645, "district": "Hawaii Department of Education", "city": "Honolulu", "ncessch": "150003000273"}, {"name": "Myron B. Thompson Academy - New Century PCS", "lat": 21.307678, "lon": -157.859793, "proficiency": 0.645, "district": "Hawaii Department of Education", "city": "Honolulu", "ncessch": "150003000274"}, {"name": "Hakipuu Academy", "lat": 21.408472, "lon": -157.811078, "proficiency": 0.245, "district": "Hawaii Department of Education", "city": "Kaneohe", "ncessch": "150003000275"}, {"name": "Ke Kula o Samuel M Kamakau - A Laboratory PCS", "lat": 21.405324, "lon": -157.825409, "proficiency": 0.245, "district": "Hawaii Department of Education", "city": "Kaneohe", "ncessch": "150003000276"}, {"name": "Innovations - PCS", "lat": 19.632031, "lon": -155.974707, "proficiency": 0.3, "district": "Hawaii Department of Education", "city": "Kailua-Kona", "ncessch": "150003000277"}, {"name": "Ke Ana Laahana - PCS", "lat": 19.733868, "lon": -155.035553, "proficiency": 0.245, "district": "Hawaii Department of Education", "city": "Hilo", "ncessch": "150003000278"}, {"name": "Kihei Charter School", "lat": 20.748221, "lon": -156.436248, "proficiency": 0.345, "district": "Hawaii Department of Education", "city": "Kihei", "ncessch": "150003000279"}, {"name": "Volcano School of Arts & Sciences - A Community PCS", "lat": 19.423863, "lon": -155.241402, "proficiency": 0.1, "district": "Hawaii Department of Education", "city": "Volcano", "ncessch": "150003000281"}, {"name": "Hawaii Academy of Arts & Science PCS", "lat": 19.501048, "lon": -154.944526, "proficiency": 0.17, "district": "Hawaii Department of Education", "city": "Pahoa", "ncessch": "150003000282"}, {"name": "Ka Umeke Kaeo - PCS", "lat": 19.7342, "lon": -155.035787, "proficiency": 0.245, "district": "Hawaii Department of Education", "city": "Hilo", "ncessch": "150003000283"}, {"name": "Ke Kula o Nawahiokalaniopuu Iki - Laboratory PCS", "lat": 19.605813, "lon": -155.028882, "proficiency": 0.245, "district": "Hawaii Department of Education", "city": "Keaau", "ncessch": "150003000284"}, {"name": "Ka Waihona o ka Naauao - PCS", "lat": 21.379575, "lon": -158.144202, "proficiency": 0.075, "district": "Hawaii Department of Education", "city": "Waianae", "ncessch": "150003000286"}, {"name": "Ke Kula o Ehunuikaimalino", "lat": 19.509265, "lon": -155.917695, "proficiency": 0.245, "district": "Hawaii Department of Education", "city": "Kealakekua", "ncessch": "150003000287"}, {"name": "Kua o ka La - NCPCS", "lat": 19.672087, "lon": -155.055056, "proficiency": 0.245, "district": "Hawaii Department of Education", "city": "Hilo", "ncessch": "150003000288"}, {"name": "Kanuikapono - PCS", "lat": 22.138744, "lon": -159.301637, "proficiency": 0.3, "district": "Hawaii Department of Education", "city": "Anahola", "ncessch": "150003000289"}, {"name": "Molokai Middle School", "lat": 21.164088, "lon": -157.047725, "proficiency": 0.17, "district": "Hawaii Department of Education", "city": "Hoolehua", "ncessch": "150003000290"}, {"name": "Kona Pacific - PCS", "lat": 19.520021, "lon": -155.915824, "proficiency": 0.245, "district": "Hawaii Department of Education", "city": "Kealakekua", "ncessch": "150003000293"}, {"name": "Kawaikini - NCPCS", "lat": 21.968167, "lon": -159.399772, "proficiency": 0.245, "district": "Hawaii Department of Education", "city": "Lihue", "ncessch": "150003000294"}, {"name": "Hawaii Technology Academy - PCS", "lat": 21.387435, "lon": -158.007369, "proficiency": 0.32, "district": "Hawaii Department of Education", "city": "Waipahu", "ncessch": "150003000295"}, {"name": "Ewa Makai Middle School", "lat": 21.322899, "lon": -158.027322, "proficiency": 0.24, "district": "Hawaii Department of Education", "city": "Ewa Beach", "ncessch": "150003000296"}, {"name": "School for Examining Essential Questions of Sustainability", "lat": 21.318848, "lon": -157.854502, "proficiency": 0.245, "district": "Hawaii Department of Education", "city": "Honolulu", "ncessch": "150003000298"}, {"name": "Malama Honua Charter School", "lat": 21.339034, "lon": -157.702317, "proficiency": 0.1, "district": "Hawaii Department of Education", "city": "Waimanalo", "ncessch": "150003000299"}, {"name": "Kamalani Academy", "lat": 21.50179, "lon": -158.015561, "proficiency": 0.1, "district": "Hawaii Department of Education", "city": "Wahiawa", "ncessch": "150003000303"}], "districts": [{"name": "Hawaii Department of Education", "lat": 20.82803327160494, "lon": -157.0519480493827, "proficiency": 0.2248, "schoolCount": 81}], "cities": [{"name": "Kahuku", "lat": 21.675348, "lon": -157.947764, "proficiency": 0.345, "schoolCount": 1}, {"name": "Kailua", "lat": 21.394223, "lon": -157.7363, "proficiency": 0.29, "schoolCount": 1}, {"name": "Kaneohe", "lat": 21.412754749999998, "lon": -157.80841600000002, "proficiency": 0.2263, "schoolCount": 4}, {"name": "Waimanalo", "lat": 21.342604, "lon": -157.7085685, "proficiency": 0.075, "schoolCount": 2}, {"name": "Hilo", "lat": 19.713471000000002, "lon": -155.06435533333334, "proficiency": 0.2292, "schoolCount": 6}, {"name": "Honokaa", "lat": 20.077179, "lon": -155.464148, "proficiency": 0.075, "schoolCount": 1}, {"name": "Papaikou", "lat": 19.790308, "lon": -155.094006, "proficiency": 0.05, "schoolCount": 1}, {"name": "Pahala", "lat": 19.201972, "lon": -155.47973, "proficiency": 0.025, "schoolCount": 1}, {"name": "Keaau", "lat": 19.6137735, "lon": -155.033488, "proficiency": 0.16, "schoolCount": 2}, {"name": "Laupahoehoe", "lat": 19.979666, "lon": -155.228333, "proficiency": 0.245, "schoolCount": 1}, {"name": "Paauilo", "lat": 20.039371, "lon": -155.372904, "proficiency": 0.3, "schoolCount": 1}, {"name": "Pahoa", "lat": 19.496096, "lon": -154.94321, "proficiency": 0.17, "schoolCount": 2}, {"name": "Hana", "lat": 20.776853, "lon": -155.998863, "proficiency": 0.3, "schoolCount": 1}, {"name": "Wailuku", "lat": 20.884856, "lon": -156.500318, "proficiency": 0.17, "schoolCount": 1}, {"name": "Lahaina", "lat": 20.886799, "lon": -156.6624, "proficiency": 0.17, "schoolCount": 1}, {"name": "Lanai City", "lat": 20.826139, "lon": -156.923206, "proficiency": 0.05, "schoolCount": 1}, {"name": "Waimea", "lat": 21.961502, "lon": -159.67256, "proficiency": 0.12, "schoolCount": 1}, {"name": "Waianae", "lat": 21.41943475, "lon": -158.165741, "proficiency": 0.0563, "schoolCount": 4}, {"name": "Ewa Beach", "lat": 21.319844500000002, "lon": -158.019428, "proficiency": 0.255, "schoolCount": 2}, {"name": "Pearl City", "lat": 21.401076, "lon": -157.962492, "proficiency": 0.3, "schoolCount": 1}, {"name": "Wahiawa", "lat": 21.494292333333334, "lon": -158.023977, "proficiency": 0.2133, "schoolCount": 3}, {"name": "Waialua", "lat": 21.565419, "lon": -158.126209, "proficiency": 0.22, "schoolCount": 1}, {"name": "Honolulu", "lat": 21.311329941176467, "lon": -157.83831705882352, "proficiency": 0.3271, "schoolCount": 17}, {"name": "Waipahu", "lat": 21.3843715, "lon": -158.0104205, "proficiency": 0.265, "schoolCount": 2}, {"name": "Aiea", "lat": 21.380552, "lon": -157.923878, "proficiency": 0.37, "schoolCount": 1}, {"name": "Makawao", "lat": 20.850564, "lon": -156.320938, "proficiency": 0.27, "schoolCount": 1}, {"name": "Kailua-Kona", "lat": 19.671891333333335, "lon": -155.99849933333334, "proficiency": 0.225, "schoolCount": 3}, {"name": "Kihei", "lat": 20.747027000000003, "lon": -156.442278, "proficiency": 0.2825, "schoolCount": 2}, {"name": "Kahului", "lat": 20.874035, "lon": -156.485142, "proficiency": 0.22, "schoolCount": 1}, {"name": "Waikoloa", "lat": 19.946387, "lon": -155.790645, "proficiency": 0.17, "schoolCount": 1}, {"name": "Kealakekua", "lat": 19.513118333333335, "lon": -155.91608766666667, "proficiency": 0.22, "schoolCount": 3}, {"name": "Kapaa", "lat": 22.078693, "lon": -159.328324, "proficiency": 0.17, "schoolCount": 1}, {"name": "Mililani", "lat": 21.475585, "lon": -157.988471, "proficiency": 0.35, "schoolCount": 1}, {"name": "Kapolei", "lat": 21.332847, "lon": -158.057623, "proficiency": 0.27, "schoolCount": 1}, {"name": "Kamuela", "lat": 20.017194, "lon": -155.660868, "proficiency": 0.1, "schoolCount": 2}, {"name": "Lihue", "lat": 21.9677005, "lon": -159.3939755, "proficiency": 0.2275, "schoolCount": 2}, {"name": "Kapaau", "lat": 20.227305, "lon": -155.778459, "proficiency": 0.05, "schoolCount": 1}, {"name": "Volcano", "lat": 19.423863, "lon": -155.241402, "proficiency": 0.1, "schoolCount": 1}, {"name": "Anahola", "lat": 22.138744, "lon": -159.301637, "proficiency": 0.3, "schoolCount": 1}, {"name": "Hoolehua", "lat": 21.164088, "lon": -157.047725, "proficiency": 0.17, "schoolCount": 1}]}