{"state": "IA", "stateName": "Iowa", "year": 2020, "naep": {"text": "3 out of 4", "numerator": 3, "denominator": 4}, "schools": [{"name": "North Fayette Valley  Middle School", "lat": 42.97219, "lon": -91.654291, "proficiency": 0.67, "district": "North Fayette Valley Comm School District", "city": "Elgin", "ncessch": "190000602255"}, {"name": "Colfax-Mingo Jr/Sr High School", "lat": 41.678589, "lon": -93.231292, "proficiency": 0.47, "district": "Colfax-Mingo Comm School District", "city": "Colfax", "ncessch": "190000900386"}, {"name": "Sibley-Ocheyedan Middle School", "lat": 43.405352, "lon": -95.735529, "proficiency": 0.845, "district": "Sibley-Ocheyedan Comm School District", "city": "Sibley", "ncessch": "190001501485"}, {"name": "Okoboji Middle School", "lat": 43.321954, "lon": -95.161685, "proficiency": 0.975, "district": "Okoboji Comm School District", "city": "Milford", "ncessch": "190002102003"}, {"name": "Union Middle School", "lat": 42.169236, "lon": -92.315112, "proficiency": 0.82, "district": "Union Comm School District", "city": "Dysart", "ncessch": "190002202013"}, {"name": "Sioux Central Middle School", "lat": 42.874172, "lon": -95.149322, "proficiency": 0.745, "district": "Sioux Central Comm School District", "city": "Sioux Rapids", "ncessch": "190002300835"}, {"name": "South Central Calhoun Middle School", "lat": 42.392608, "lon": -94.645338, "proficiency": 0.745, "district": "South Central Calhoun Comm School District", "city": "Rockwell City", "ncessch": "190002402153"}, {"name": "Panorama Middle School", "lat": 41.692589, "lon": -94.375142, "proficiency": 0.845, "district": "Panorama Comm School District", "city": "Panora", "ncessch": "190002501335"}, {"name": "South O'Brien Secondary School", "lat": 42.977385, "lon": -95.690881, "proficiency": 0.745, "district": "South O'Brien  Comm School District", "city": "Paullina", "ncessch": "190002601341"}, {"name": "Riverside Community High School", "lat": 41.288034, "lon": -95.39905, "proficiency": 0.745, "district": "Riverside Comm School District", "city": "Oakland", "ncessch": "190002700260"}, {"name": "East Marshall Middle School", "lat": 41.878032, "lon": -92.784051, "proficiency": 0.57, "district": "East Marshall Comm School District", "city": "Gilman", "ncessch": "190004000121"}, {"name": "GMG Secondary School", "lat": 42.095128, "lon": -92.674979, "proficiency": 0.645, "district": "GMG Comm School District", "city": "Garwin", "ncessch": "190006000179"}, {"name": "AGWSR Middle School", "lat": 42.432756, "lon": -92.931175, "proficiency": 0.545, "district": "AGWSR Comm School District", "city": "Wellsburg", "ncessch": "190306000634"}, {"name": "Adair-Casey Jr. High School", "lat": 41.520409, "lon": -94.583675, "proficiency": 0.845, "district": "Adair-Casey Comm School District", "city": "Adair", "ncessch": "190309002236"}, {"name": "ADM Middle School", "lat": 41.609816, "lon": -94.014544, "proficiency": 0.92, "district": "Adel DeSoto Minburn Comm School District", "city": "Adel", "ncessch": "190315001986"}, {"name": "Akron Westfield Middle School", "lat": 42.83251, "lon": -96.549247, "proficiency": 0.845, "district": "Akron Westfield Comm School District", "city": "Akron", "ncessch": "190322001938"}, {"name": "Albia Middle School", "lat": 41.029971, "lon": -92.802888, "proficiency": 0.72, "district": "Albia Comm School District", "city": "Albia", "ncessch": "190327001406"}, {"name": "Alburnett Middle School", "lat": 42.150256, "lon": -91.619708, "proficiency": 0.72, "district": "Alburnett Comm School District", "city": "Alburnett", "ncessch": "190330002193"}, {"name": "Algona Middle School", "lat": 43.063584, "lon": -94.223945, "proficiency": 0.77, "district": "Algona Comm School District", "city": "Algona", "ncessch": "190336000034"}, {"name": "Waukon Middle School", "lat": 43.27264, "lon": -91.491072, "proficiency": 0.67, "district": "Allamakee Comm School District", "city": "Waukon", "ncessch": "190339000039"}, {"name": "North Butler Jr/Sr High School", "lat": 42.899207, "lon": -92.799725, "proficiency": 0.745, "district": "North Butler Comm School District", "city": "Greene", "ncessch": "190345000785"}, {"name": "Alta-Aurelia Middle Sch", "lat": 42.713978, "lon": -95.428992, "proficiency": 0.845, "district": "Alta-Aurelia Comm School District", "city": "Aurelia", "ncessch": "190348002252"}, {"name": "Ames Middle School", "lat": 42.013376, "lon": -93.6708, "proficiency": 0.72, "district": "Ames Comm School District", "city": "Ames", "ncessch": "190354000060"}, {"name": "Anamosa Middle School", "lat": 42.116547, "lon": -91.271825, "proficiency": 0.77, "district": "Anamosa Comm School District", "city": "Anamosa", "ncessch": "190357000062"}, {"name": "Northview Middle School", "lat": 41.741354, "lon": -93.601958, "proficiency": 0.81, "district": "Ankeny Comm School District", "city": "Ankeny", "ncessch": "190369000380"}, {"name": "Southview Middle School", "lat": 41.720867, "lon": -93.609577, "proficiency": 0.78, "district": "Ankeny Comm School District", "city": "Ankeny", "ncessch": "190369002186"}, {"name": "Aplington-Parkersburg Middle School", "lat": 42.579574, "lon": -92.885259, "proficiency": 0.745, "district": "Aplington-Parkersburg Comm School District", "city": "Aplington", "ncessch": "190375000082"}, {"name": "Westside Junior-Senior High School", "lat": 42.075206, "lon": -95.101263, "proficiency": 0.695, "district": "Ar-We-Va Comm School District", "city": "Westside", "ncessch": "190378000085"}, {"name": "Atlantic Middle School", "lat": 41.3993, "lon": -95.006319, "proficiency": 0.72, "district": "Atlantic Comm School District", "city": "Atlantic", "ncessch": "190393000093"}, {"name": "Audubon Middle-High School", "lat": 41.71254, "lon": -94.921665, "proficiency": 0.745, "district": "Audubon Comm School District", "city": "Audubon", "ncessch": "190396000096"}, {"name": "AHSTW Intermediate School", "lat": 41.46948, "lon": -95.341794, "proficiency": 0.845, "district": "AHSTW Comm School District", "city": "Avoca", "ncessch": "190408002261"}, {"name": "Ballard Middle School", "lat": 41.897731, "lon": -93.607134, "proficiency": 0.92, "district": "Ballard Comm School District", "city": "Huxley", "ncessch": "190420000106"}, {"name": "Baxter High School", "lat": 41.826759, "lon": -93.149005, "proficiency": 0.745, "district": "Baxter Comm School District", "city": "Baxter", "ncessch": "190438000114"}, {"name": "BCLUW Middle School", "lat": 42.24394, "lon": -93.068314, "proficiency": 0.645, "district": "BCLUW Comm School District", "city": "Union", "ncessch": "190444000087"}, {"name": "Bedford High School", "lat": 40.671028, "lon": -94.723194, "proficiency": 0.695, "district": "Bedford Comm School District", "city": "Bedford", "ncessch": "190456000120"}, {"name": "Belle Plaine Jr/Sr High School", "lat": 41.889763, "lon": -92.269443, "proficiency": 0.645, "district": "Belle Plaine Comm School District", "city": "Belle Plaine", "ncessch": "190462000124"}, {"name": "Bellevue High School", "lat": 42.2544, "lon": -90.4439, "proficiency": 0.745, "district": "Bellevue Comm School District", "city": "Bellevue", "ncessch": "190465000129"}, {"name": "Belmond-Klemme Community Jr-Sr High School", "lat": 42.849346, "lon": -93.604231, "proficiency": 0.545, "district": "Belmond-Klemme Comm School District", "city": "Belmond", "ncessch": "190468000130"}, {"name": "Benton Community Middle School", "lat": 42.01279, "lon": -92.087156, "proficiency": 0.62, "district": "Benton Comm School District", "city": "Van Horne", "ncessch": "190483001987"}, {"name": "Bettendorf Middle School", "lat": 41.547136, "lon": -90.503204, "proficiency": 0.78, "district": "Bettendorf Comm School District", "city": "Bettendorf", "ncessch": "190486000143"}, {"name": "Eddyville-Blakesburg-Fremont Jr/Sr High", "lat": 41.160581, "lon": -92.615148, "proficiency": 0.545, "district": "Eddyville-Blakesburg- Fremont CSD", "city": "Eddyville", "ncessch": "190495000668"}, {"name": "Bondurant - Farrar Intermediate School", "lat": 41.698361, "lon": -93.465345, "proficiency": 0.77, "district": "Bondurant-Farrar Comm School District", "city": "Bondurant", "ncessch": "190507002125"}, {"name": "Boone Middle School", "lat": 42.054868, "lon": -93.866617, "proficiency": 0.57, "district": "Boone Comm School District", "city": "Boone", "ncessch": "190513000157"}, {"name": "Boyden-Hull High School", "lat": 43.189112, "lon": -96.136697, "proficiency": 0.745, "district": "Boyden-Hull Comm School District", "city": "Hull", "ncessch": "190519000167"}, {"name": "West Hancock Middle School", "lat": 42.937058, "lon": -93.787057, "proficiency": 0.745, "district": "West Hancock Comm School District", "city": "Kanawha", "ncessch": "190543000928"}, {"name": "Brooklyn-Guernsey-Malcom Jr-Sr High School", "lat": 41.738385, "lon": -92.44721, "proficiency": 0.645, "district": "Brooklyn-Guernsey-Malcom Comm School District", "city": "Brooklyn", "ncessch": "190549000174"}, {"name": "North Iowa Middle School", "lat": 43.388863, "lon": -93.948149, "proficiency": 0.695, "district": "North Iowa Comm School District", "city": "Buffalo Center", "ncessch": "190575001620"}, {"name": "Edward Stone Middle School", "lat": 40.796454, "lon": -91.13623, "proficiency": 0.32, "district": "Burlington Comm School District", "city": "Burlington", "ncessch": "190579000186"}, {"name": "CAM Middle School", "lat": 41.256504, "lon": -94.767271, "proficiency": 0.545, "district": "CAM Comm School District", "city": "Massena", "ncessch": "190594000200"}, {"name": "Iowa Connections Academy Middle School", "lat": 41.445338, "lon": -94.767633, "proficiency": 0.77, "district": "CAM Comm School District", "city": "Anita", "ncessch": "190594002176"}, {"name": "Calamus-Wheatland Sec Attendance Center", "lat": 41.837213, "lon": -90.838936, "proficiency": 0.645, "district": "Calamus-Wheatland Comm School District", "city": "Wheatland", "ncessch": "190600002042"}, {"name": "Camanche Middle School", "lat": 41.78716, "lon": -90.261949, "proficiency": 0.77, "district": "Camanche Comm School District", "city": "Camanche", "ncessch": "190606000207"}, {"name": "Cardinal Junior High", "lat": 40.96112, "lon": -92.237595, "proficiency": 0.52, "district": "Cardinal Comm School District", "city": "Eldon", "ncessch": "190624002246"}, {"name": "Carlisle Middle School", "lat": 41.497542, "lon": -93.501529, "proficiency": 0.67, "district": "Carlisle Comm School District", "city": "Carlisle", "ncessch": "190627001561"}, {"name": "Carroll Middle School", "lat": 42.095135, "lon": -94.861142, "proficiency": 0.82, "district": "Carroll Comm School District", "city": "Carroll", "ncessch": "190633001989"}, {"name": "Holmes Junior High School", "lat": 42.533432, "lon": -92.470973, "proficiency": 0.77, "district": "Cedar Falls Comm School District", "city": "Cedar Falls", "ncessch": "190651000224"}, {"name": "Peet Junior High School", "lat": 42.515023, "lon": -92.439667, "proficiency": 0.82, "district": "Cedar Falls Comm School District", "city": "Cedar Falls", "ncessch": "190651000229"}, {"name": "Franklin Middle School", "lat": 41.997279, "lon": -91.642412, "proficiency": 0.52, "district": "Cedar Rapids Comm School District", "city": "Cedar Rapids", "ncessch": "190654000239"}, {"name": "Harding Middle School", "lat": 42.025552, "lon": -91.650206, "proficiency": 0.67, "district": "Cedar Rapids Comm School District", "city": "Cedar Rapids", "ncessch": "190654000244"}, {"name": "McKinley STEAM Academy", "lat": 41.979338, "lon": -91.6538, "proficiency": 0.47, "district": "Cedar Rapids Comm School District", "city": "Cedar Rapids", "ncessch": "190654000254"}, {"name": "Roosevelt Creative Corridor Business Academy", "lat": 41.975984, "lon": -91.690277, "proficiency": 0.37, "district": "Cedar Rapids Comm School District", "city": "Cedar Rapids", "ncessch": "190654000258"}, {"name": "Taft Middle School", "lat": 41.97986, "lon": -91.738555, "proficiency": 0.62, "district": "Cedar Rapids Comm School District", "city": "Cedar Rapids", "ncessch": "190654000261"}, {"name": "Wilson Middle School", "lat": 41.95549, "lon": -91.666581, "proficiency": 0.42, "district": "Cedar Rapids Comm School District", "city": "Cedar Rapids", "ncessch": "190654000267"}, {"name": "Center Point-Urbana Middle School", "lat": 42.189029, "lon": -91.785985, "proficiency": 0.87, "district": "Center Point-Urbana Comm School District", "city": "Center Point", "ncessch": "190666002041"}, {"name": "Howar Middle School", "lat": 40.725275, "lon": -92.877035, "proficiency": 0.67, "district": "Centerville Comm School District", "city": "Centerville", "ncessch": "190675000279"}, {"name": "Central City High School", "lat": 42.208877, "lon": -91.52593, "proficiency": 0.645, "district": "Central City Comm School District", "city": "Central City", "ncessch": "190678000285"}, {"name": "Central DeWitt Middle School", "lat": 41.825123, "lon": -90.526901, "proficiency": 0.87, "district": "Central DeWitt School District", "city": "De Witt", "ncessch": "190681000287"}, {"name": "Central Middle School/High School", "lat": 42.856701, "lon": -91.407579, "proficiency": 0.345, "district": "Central Comm School District", "city": "Elkader", "ncessch": "190684000292"}, {"name": "Central Decatur MS/HS High School", "lat": 40.74797, "lon": -93.74064, "proficiency": 0.745, "district": "Central Decatur Comm School District", "city": "Leon", "ncessch": "190690000297"}, {"name": "Central Lee Middle  School", "lat": 40.576279, "lon": -91.515129, "proficiency": 0.77, "district": "Central Lee Comm School District", "city": "Donnellson", "ncessch": "190693000303"}, {"name": "Chariton Middle School", "lat": 41.029984, "lon": -93.316326, "proficiency": 0.67, "district": "Chariton Comm School District", "city": "Chariton", "ncessch": "190705000314"}, {"name": "Charles City MS", "lat": 43.062698, "lon": -92.655686, "proficiency": 0.67, "district": "Charles City Comm School District", "city": "Charles City", "ncessch": "190708000320"}, {"name": "Charter Oak-Ute Junior High School", "lat": 42.065704, "lon": -95.590777, "proficiency": 0.695, "district": "Charter Oak-Ute Comm School District", "city": "Charter Oak", "ncessch": "190711000328"}, {"name": "Cherokee Middle School", "lat": 42.766114, "lon": -95.54966, "proficiency": 0.82, "district": "Cherokee Comm School District", "city": "Cherokee", "ncessch": "190717000335"}, {"name": "Clarinda High School", "lat": 40.739219, "lon": -95.049557, "proficiency": 0.57, "district": "Clarinda Comm School District", "city": "Clarinda", "ncessch": "190735000340"}, {"name": "Clarion-Goldfield-Dows Middle School", "lat": 42.7353, "lon": -93.729413, "proficiency": 0.82, "district": "Clarion-Goldfield-Dows Comm School District", "city": "Clarion", "ncessch": "190738000348"}, {"name": "Clarke Middle School", "lat": 41.044039, "lon": -93.770676, "proficiency": 0.52, "district": "Clarke Comm School District", "city": "Osceola", "ncessch": "190741000350"}, {"name": "Clarksville High School", "lat": 42.786918, "lon": -92.665542, "proficiency": 0.695, "district": "Clarksville Comm School District", "city": "Clarksville", "ncessch": "190744000355"}, {"name": "Clear Creek Amana Middle School", "lat": 41.706441, "lon": -91.668697, "proficiency": 0.82, "district": "Clear Creek Amana Comm School District", "city": "Tiffin", "ncessch": "190759001903"}, {"name": "Clear Lake Middle School", "lat": 43.139836, "lon": -93.368171, "proficiency": 0.62, "district": "Clear Lake Comm School District", "city": "Clear Lake", "ncessch": "190762000364"}, {"name": "Clinton Middle School", "lat": 41.861827, "lon": -90.220272, "proficiency": 0.52, "district": "Clinton Comm School District", "city": "Clinton", "ncessch": "190771002219"}, {"name": "Prairie Point", "lat": 41.900986, "lon": -91.655269, "proficiency": 0.66, "district": "College Comm School District", "city": "Cedar Rapids", "ncessch": "190786002110"}, {"name": "Collins-Maxwell Middle/High School", "lat": 41.890615, "lon": -93.397327, "proficiency": 0.495, "district": "Collins-Maxwell Comm School District", "city": "Maxwell", "ncessch": "190790001951"}, {"name": "Colo-NESCO  Middle/High School", "lat": 42.010474, "lon": -93.317354, "proficiency": 0.745, "district": "Colo-NESCO  Comm School District", "city": "Colo", "ncessch": "190792000395"}, {"name": "Columbus Community Junior High School", "lat": 41.270016, "lon": -91.367052, "proficiency": 0.645, "district": "Columbus Comm School District", "city": "Columbus Junction", "ncessch": "190798000398"}, {"name": "Coon Rapids-Bayard 6-12 Attendance Center", "lat": 41.878151, "lon": -94.681496, "proficiency": 0.745, "district": "Coon Rapids-Bayard Comm School District", "city": "Coon Rapids", "ncessch": "190807000402"}, {"name": "Gerald W Kirn Middle School", "lat": 41.272023, "lon": -95.832744, "proficiency": 0.5, "district": "Council Bluffs Comm School District", "city": "Council Bluffs", "ncessch": "190822000419"}, {"name": "Woodrow Wilson Middle School", "lat": 41.269615, "lon": -95.873472, "proficiency": 0.57, "district": "Council Bluffs Comm School District", "city": "Council Bluffs", "ncessch": "190822000440"}, {"name": "Creston Middle School", "lat": 41.076823, "lon": -94.37247, "proficiency": 0.62, "district": "Creston Comm School District", "city": "Creston", "ncessch": "190831001237"}, {"name": "DC-G Oak View", "lat": 41.677644, "lon": -93.816135, "proficiency": 0.82, "district": "Dallas Center-Grimes Comm School District", "city": "Grimes", "ncessch": "190852002174"}, {"name": "Danville Junior-Senior High School", "lat": 40.860391, "lon": -91.316021, "proficiency": 0.845, "district": "Danville  Comm School District", "city": "Danville", "ncessch": "190855000455"}, {"name": "Frank L Smart Intermediate", "lat": 41.52499, "lon": -90.606547, "proficiency": 0.27, "district": "Davenport Comm School District", "city": "Davenport", "ncessch": "190858000464"}, {"name": "Sudlow Intermediate", "lat": 41.538948, "lon": -90.554944, "proficiency": 0.47, "district": "Davenport Comm School District", "city": "Davenport", "ncessch": "190858000482"}, {"name": "Walcott Intermediate", "lat": 41.586799, "lon": -90.767345, "proficiency": 0.62, "district": "Davenport Comm School District", "city": "Walcott", "ncessch": "190858000485"}, {"name": "Williams Intermediate", "lat": 41.550702, "lon": -90.602025, "proficiency": 0.27, "district": "Davenport Comm School District", "city": "Davenport", "ncessch": "190858000488"}, {"name": "Wood Intermediate", "lat": 41.579824, "lon": -90.598451, "proficiency": 0.42, "district": "Davenport Comm School District", "city": "Davenport", "ncessch": "190858000490"}, {"name": "Davis County Middle School", "lat": 40.755248, "lon": -92.407761, "proficiency": 0.67, "district": "Davis County Comm School District", "city": "Bloomfield", "ncessch": "190861000493"}, {"name": "Decorah Middle School", "lat": 43.300864, "lon": -91.787904, "proficiency": 0.82, "district": "Decorah Community School District", "city": "Decorah", "ncessch": "190873000498"}, {"name": "Denison Middle School", "lat": 42.032059, "lon": -95.351805, "proficiency": 0.77, "district": "Denison Comm School District", "city": "Denison", "ncessch": "190891000509"}, {"name": "Denver Middle School", "lat": 42.66499, "lon": -92.324492, "proficiency": 0.975, "district": "Denver Comm School District", "city": "Denver", "ncessch": "190894000513"}, {"name": "Hiatt Middle School", "lat": 41.601585, "lon": -93.598518, "proficiency": 0.37, "district": "Des Moines Independent Comm School District", "city": "Des Moines", "ncessch": "190897000516"}, {"name": "Brody Middle School", "lat": 41.556497, "lon": -93.651999, "proficiency": 0.57, "district": "Des Moines Independent Comm School District", "city": "Des Moines", "ncessch": "190897000517"}, {"name": "Callanan Middle School", "lat": 41.59097, "lon": -93.658363, "proficiency": 0.52, "district": "Des Moines Independent Comm School District", "city": "Des Moines", "ncessch": "190897000519"}, {"name": "Goodrell Middle School", "lat": 41.62509, "lon": -93.562548, "proficiency": 0.37, "district": "Des Moines Independent Comm School District", "city": "Des Moines", "ncessch": "190897000535"}, {"name": "Harding Middle School", "lat": 41.62717, "lon": -93.615683, "proficiency": 0.32, "district": "Des Moines Independent Comm School District", "city": "Des Moines", "ncessch": "190897000540"}, {"name": "Hoyt Middle School", "lat": 41.61958, "lon": -93.532889, "proficiency": 0.32, "district": "Des Moines Independent Comm School District", "city": "Des Moines", "ncessch": "190897000545"}, {"name": "McCombs Middle School", "lat": 41.514337, "lon": -93.618236, "proficiency": 0.47, "district": "Des Moines Independent Comm School District", "city": "Des Moines", "ncessch": "190897000557"}, {"name": "Meredith Middle School", "lat": 41.633958, "lon": -93.683104, "proficiency": 0.42, "district": "Des Moines Independent Comm School District", "city": "Des Moines", "ncessch": "190897000560"}, {"name": "Merrill Middle School", "lat": 41.583876, "lon": -93.689785, "proficiency": 0.62, "district": "Des Moines Independent Comm School District", "city": "Des Moines", "ncessch": "190897000561"}, {"name": "Weeks Middle School", "lat": 41.554642, "lon": -93.600168, "proficiency": 0.47, "district": "Des Moines Independent Comm School District", "city": "Des Moines", "ncessch": "190897000584"}, {"name": "Cowles Elementary School", "lat": 41.607987, "lon": -93.705419, "proficiency": 0.95, "district": "Des Moines Independent Comm School District", "city": "Des Moines", "ncessch": "190897002011"}, {"name": "Diagonal Junior-Senior High School", "lat": 40.80719, "lon": -94.343733, "proficiency": 0.245, "district": "Diagonal Comm School District", "city": "Diagonal", "ncessch": "190906000594"}, {"name": "Dike-New Hartford Junior High School", "lat": 42.570012, "lon": -92.61936, "proficiency": 0.92, "district": "Dike-New Hartford Comm School District", "city": "New Hartford", "ncessch": "190912001207"}, {"name": "Thomas Jefferson Middle School", "lat": 42.521313, "lon": -90.664265, "proficiency": 0.52, "district": "Dubuque Comm School District", "city": "Dubuque", "ncessch": "190948000612"}, {"name": "George Washington Middle School", "lat": 42.492516, "lon": -90.687497, "proficiency": 0.67, "district": "Dubuque Comm School District", "city": "Dubuque", "ncessch": "190948000620"}, {"name": "Eleanor Roosevelt Middle School", "lat": 42.505661, "lon": -90.753088, "proficiency": 0.7, "district": "Dubuque Comm School District", "city": "Dubuque", "ncessch": "190948000976"}, {"name": "Dunkerton High School", "lat": 42.567256, "lon": -92.159942, "proficiency": 0.645, "district": "Dunkerton Comm School District", "city": "Dunkerton", "ncessch": "190954000625"}, {"name": "Boyer Valley Middle/High School", "lat": 41.853733, "lon": -95.595561, "proficiency": 0.695, "district": "Boyer Valley Comm School District", "city": "Dunlap", "ncessch": "190957000628"}, {"name": "Durant Junior/Senior High School", "lat": 41.604002, "lon": -90.912985, "proficiency": 0.645, "district": "Durant Comm School District", "city": "Durant", "ncessch": "190960000630"}, {"name": "Robert Blue School", "lat": 42.66712, "lon": -93.914927, "proficiency": 0.62, "district": "Eagle Grove Comm School District", "city": "Eagle Grove", "ncessch": "190999000636"}, {"name": "Earlham Middle School", "lat": 41.495753, "lon": -94.12362, "proficiency": 0.745, "district": "Earlham Comm School District", "city": "Earlham", "ncessch": "191005001956"}, {"name": "East Buchanan  Middle School", "lat": 42.475854, "lon": -91.737321, "proficiency": 0.645, "district": "East Buchanan Comm School District", "city": "Winthrop", "ncessch": "191011000644"}, {"name": "Easton Valley Junior High / High School", "lat": 42.047518, "lon": -90.398375, "proficiency": 0.745, "district": "Easton Valley Comm School District", "city": "Preston", "ncessch": "191013002201"}, {"name": "River Valley Junior- Senior High School", "lat": 42.480129, "lon": -95.779451, "proficiency": 0.695, "district": "River Valley Comm School District", "city": "Correctionville", "ncessch": "191034000658"}, {"name": "East Union Middle-High School", "lat": 41.024802, "lon": -94.179783, "proficiency": 0.645, "district": "East Union Comm School District", "city": "Afton", "ncessch": "191035000661"}, {"name": "Lansing Middle School", "lat": 43.360336, "lon": -91.222044, "proficiency": 0.9, "district": "Eastern Allamakee Comm School District", "city": "Lansing", "ncessch": "191041000665"}, {"name": "Edgewood-Colesburg High School", "lat": 42.644887, "lon": -91.4052, "proficiency": 0.545, "district": "Edgewood-Colesburg Comm School District", "city": "Edgewood", "ncessch": "191050000670"}, {"name": "Emmetsburg Middle School", "lat": 43.117707, "lon": -94.693004, "proficiency": 0.745, "district": "Emmetsburg Comm School District", "city": "Emmetsburg", "ncessch": "191095000676"}, {"name": "English Valleys Jr-Sr High School", "lat": 41.515366, "lon": -92.087886, "proficiency": 0.495, "district": "English Valleys Comm School District", "city": "North English", "ncessch": "191098000679"}, {"name": "Essex Junior-Senior High School", "lat": 40.829721, "lon": -95.309002, "proficiency": 0.245, "district": "Essex Comm School District", "city": "Essex", "ncessch": "191104000683"}, {"name": "Estherville Lincoln Central Middle School", "lat": 43.400762, "lon": -94.825133, "proficiency": 0.57, "district": "Estherville Lincoln Central Com Sch Dist", "city": "Estherville", "ncessch": "191107000686"}, {"name": "ExiraElk Horn-Kimballton High School", "lat": 41.590862, "lon": -95.05701, "proficiency": 0.9, "district": "Exira-Elk Horn- Kimballton Comm Sch Dist", "city": "Elk Horn", "ncessch": "191125000674"}, {"name": "Fairfield Middle School", "lat": 40.994211, "lon": -91.969718, "proficiency": 0.72, "district": "Fairfield Comm School District", "city": "Fairfield", "ncessch": "191134000694"}, {"name": "Forest City Middle School", "lat": 43.265915, "lon": -93.6489, "proficiency": 0.87, "district": "Forest City Comm School District", "city": "Forest City", "ncessch": "191179000717"}, {"name": "Fort Dodge Middle School", "lat": 42.514311, "lon": -94.153382, "proficiency": 0.42, "district": "Fort Dodge Comm School District", "city": "Fort Dodge", "ncessch": "191182002197"}, {"name": "Fort Madison Middle School", "lat": 40.633203, "lon": -91.369241, "proficiency": 0.62, "district": "Fort Madison Comm School District", "city": "Fort Madison", "ncessch": "191185000734"}, {"name": "Fremont-Mills Middle And Senior High School", "lat": 40.885092, "lon": -95.669159, "proficiency": 0.745, "district": "Fremont-Mills Comm School District", "city": "Tabor", "ncessch": "191212000745"}, {"name": "Garner-Hayfield-Ventura Middle School", "lat": 43.094708, "lon": -93.610483, "proficiency": 0.77, "district": "Garner-Hayfield-Ventura Comm School District", "city": "Garner", "ncessch": "191233002181"}, {"name": "George-Little Rock Middle School", "lat": 43.341431, "lon": -95.993865, "proficiency": 0.695, "district": "George-Little Rock Comm School District", "city": "George", "ncessch": "191248001011"}, {"name": "Gilbert Middle School", "lat": 42.107873, "lon": -93.635899, "proficiency": 0.87, "district": "Gilbert Comm School District", "city": "Gilbert", "ncessch": "191251001471"}, {"name": "Gladbrook-Reinbeck Jr. High & High School", "lat": 42.320003, "lon": -92.598739, "proficiency": 0.845, "district": "Gladbrook-Reinbeck Comm School District", "city": "Reinbeck", "ncessch": "191266001402"}, {"name": "Glenwood Middle School", "lat": 41.05194, "lon": -95.735227, "proficiency": 0.77, "district": "Glenwood Comm School District", "city": "Glenwood", "ncessch": "191269000766"}, {"name": "Glidden-Ralston Jr-Sr High School", "lat": 42.061431, "lon": -94.728074, "proficiency": 0.495, "district": "Glidden-Ralston Comm School District", "city": "Glidden", "ncessch": "191275000772"}, {"name": "Graettinger-Terril Middle School", "lat": 43.236565, "lon": -94.755057, "proficiency": 0.495, "district": "Graettinger-Terril Comm School District", "city": "Graettinger", "ncessch": "191281002118"}, {"name": "Nodaway Valley Middle School", "lat": 41.288367, "lon": -94.566836, "proficiency": 0.645, "district": "Nodaway Valley Comm School District", "city": "Fontanelle", "ncessch": "191311000170"}, {"name": "Grinnell Community Middle School", "lat": 41.73056, "lon": -92.716435, "proficiency": 0.82, "district": "Grinnell-Newburg Comm School District", "city": "Grinnell", "ncessch": "191320000793"}, {"name": "Griswold Middle/High School", "lat": 41.239675, "lon": -95.135215, "proficiency": 0.845, "district": "Griswold Comm School District", "city": "Griswold", "ncessch": "191323000796"}, {"name": "Grundy Center Middle School", "lat": 42.35532, "lon": -92.777826, "proficiency": 0.95, "district": "Grundy Center Comm School District", "city": "Grundy Center", "ncessch": "191329000415"}, {"name": "Clayton Ridge Middle School", "lat": 42.785459, "lon": -91.096626, "proficiency": 0.645, "district": "Clayton Ridge Comm School District", "city": "Guttenberg", "ncessch": "191335000751"}, {"name": "Iowa Virtual Academy", "lat": 42.783258, "lon": -91.097327, "proficiency": 0.67, "district": "Clayton Ridge Comm School District", "city": "Guttenberg", "ncessch": "191335002206"}, {"name": "H-L-V Junior-Senior High School", "lat": 41.729622, "lon": -92.295517, "proficiency": 0.695, "district": "H-L-V Comm School District", "city": "Victor", "ncessch": "191338000808"}, {"name": "Hamburg Middle School", "lat": 40.616684, "lon": -95.652462, "proficiency": 0.75, "district": "Hamburg Comm School District", "city": "Hamburg", "ncessch": "191344002235"}, {"name": "Hampton-Dumont Middle School", "lat": 42.751758, "lon": -93.198502, "proficiency": 0.52, "district": "Hampton-Dumont Comm School District", "city": "Hampton", "ncessch": "191347000814"}, {"name": "Harlan Community Middle School", "lat": 41.65794, "lon": -95.339369, "proficiency": 0.67, "district": "Harlan Comm School District", "city": "Harlan", "ncessch": "191350000822"}, {"name": "Hartley-Melvin-Sanborn Middle School", "lat": 43.185156, "lon": -95.656601, "proficiency": 0.845, "district": "Hartley-Melvin-Sanborn Comm School District", "city": "Sanborn", "ncessch": "191366002065"}, {"name": "Highland Middle School", "lat": 41.408316, "lon": -91.541801, "proficiency": 0.845, "district": "Highland  Comm School District", "city": "Riverside", "ncessch": "191401000840"}, {"name": "Hinton High School", "lat": 42.625326, "lon": -96.296438, "proficiency": 0.77, "district": "Hinton Comm School District", "city": "Hinton", "ncessch": "191416000844"}, {"name": "Crestwood High School", "lat": 43.374743, "lon": -92.103061, "proficiency": 0.82, "district": "Howard-Winneshiek Comm School District", "city": "Cresco", "ncessch": "191428000849"}, {"name": "South Hardin Middle School", "lat": 42.303906, "lon": -93.297725, "proficiency": 0.72, "district": "Hubbard-Radcliffe Comm School District", "city": "Hubbard", "ncessch": "191431001390"}, {"name": "Hudson High School", "lat": 42.400215, "lon": -92.454606, "proficiency": 0.92, "district": "Hudson Comm School District", "city": "Hudson", "ncessch": "191434000857"}, {"name": "Humboldt Middle School", "lat": 42.714939, "lon": -94.228514, "proficiency": 0.77, "district": "Humboldt Comm School District", "city": "Humboldt", "ncessch": "191437000860"}, {"name": "Independence Junior Senior High School", "lat": 42.463063, "lon": -91.916775, "proficiency": 0.77, "district": "Independence Comm School District", "city": "Independence", "ncessch": "191458000866"}, {"name": "Indianola Middle School", "lat": 41.355693, "lon": -93.542058, "proficiency": 0.82, "district": "Indianola Comm School District", "city": "Indianola", "ncessch": "191464000875"}, {"name": "Interstate 35 Middle School", "lat": 41.210678, "lon": -93.842807, "proficiency": 0.57, "district": "Interstate 35 Comm School District", "city": "Truro", "ncessch": "191467002267"}, {"name": "Northwest Junior High School", "lat": 41.682792, "lon": -91.583897, "proficiency": 0.65, "district": "Iowa City Comm School District", "city": "Coralville", "ncessch": "191470000897"}, {"name": "Southeast Junior High School", "lat": 41.645302, "lon": -91.499699, "proficiency": 0.63, "district": "Iowa City Comm School District", "city": "Iowa City", "ncessch": "191470000901"}, {"name": "North Central Junior High School", "lat": 41.723934, "lon": -91.595781, "proficiency": 0.72, "district": "Iowa City Comm School District", "city": "North Liberty", "ncessch": "191470001392"}, {"name": "Riverbend Middle School", "lat": 42.524862, "lon": -93.271609, "proficiency": 0.57, "district": "Iowa Falls Comm School District", "city": "Iowa Falls", "ncessch": "191473000905"}, {"name": "Iowa Valley Jr-Sr High School", "lat": 41.799039, "lon": -92.066632, "proficiency": 0.845, "district": "Iowa Valley Comm School District", "city": "Marengo", "ncessch": "191485000910"}, {"name": "IKM-Manning Middle School", "lat": 41.903994, "lon": -95.056328, "proficiency": 0.745, "district": "IKM-Manning Comm School District", "city": "Manning", "ncessch": "191488000912"}, {"name": "Janesville Junior-Senior High School", "lat": 42.649899, "lon": -92.458663, "proficiency": 0.845, "district": "Janesville Consolidated School District", "city": "Janesville", "ncessch": "191518000914"}, {"name": "Greene County Middle School", "lat": 42.001906, "lon": -94.37553, "proficiency": 0.67, "district": "Greene County Comm School District", "city": "Jefferson", "ncessch": "191521000919"}, {"name": "Jesup Middle School", "lat": 42.480383, "lon": -92.064688, "proficiency": 0.72, "district": "Jesup Comm School District", "city": "Jesup", "ncessch": "191533002051"}, {"name": "Johnston Middle School", "lat": 41.674119, "lon": -93.705896, "proficiency": 0.83, "district": "Johnston Comm School District", "city": "Johnston", "ncessch": "191545000926"}, {"name": "Keokuk Middle School", "lat": 40.412267, "lon": -91.389662, "proficiency": 0.47, "district": "Keokuk Comm School District", "city": "Keokuk", "ncessch": "191563000933"}, {"name": "Keota High School", "lat": 41.370192, "lon": -91.953479, "proficiency": 0.695, "district": "Keota Comm School District", "city": "Keota", "ncessch": "191566000939"}, {"name": "Pierson Middle School", "lat": 42.548155, "lon": -95.868967, "proficiency": 0.745, "district": "Kingsley-Pierson Comm School District", "city": "Pierson", "ncessch": "191575000943"}, {"name": "Knoxville Middle School", "lat": 41.314815, "lon": -93.11654, "proficiency": 0.62, "district": "Knoxville Comm School District", "city": "Knoxville", "ncessch": "191584000949"}, {"name": "Lake Mills Middle School", "lat": 43.415161, "lon": -93.531576, "proficiency": 0.745, "district": "Lake Mills Comm School District", "city": "Lake Mills", "ncessch": "191611000964"}, {"name": "Harris-Lake Park High School", "lat": 43.445793, "lon": -95.3227, "proficiency": 0.9, "district": "Harris-Lake Park Comm School District", "city": "Lake Park", "ncessch": "191614000967"}, {"name": "Lamoni Middle School", "lat": 40.624946, "lon": -93.936286, "proficiency": 0.495, "district": "Lamoni Comm School District", "city": "Lamoni", "ncessch": "191632002019"}, {"name": "Lawton-Bronson Junior-Senior High School", "lat": 42.476211, "lon": -96.174898, "proficiency": 0.745, "district": "Lawton-Bronson Comm School District", "city": "Lawton", "ncessch": "191644000981"}, {"name": "Le Mars Middle School", "lat": 42.780789, "lon": -96.172022, "proficiency": 0.62, "district": "Le Mars Comm School District", "city": "Le Mars", "ncessch": "191653000984"}, {"name": "Lenox High School", "lat": 40.876441, "lon": -94.556797, "proficiency": 0.845, "district": "Lenox Comm School District", "city": "Lenox", "ncessch": "191662000992"}, {"name": "Lewis Central Middle School", "lat": 41.221227, "lon": -95.81961, "proficiency": 0.77, "district": "Lewis Central Comm School District", "city": "Council Bluffs", "ncessch": "191668000997"}, {"name": "North Cedar Jr/Sr High School", "lat": 41.884385, "lon": -91.059557, "proficiency": 0.745, "district": "North Cedar Comm School District", "city": "Clarence", "ncessch": "191710001001"}, {"name": "Oak Ridge School", "lat": 42.070208, "lon": -91.615164, "proficiency": 0.77, "district": "Linn-Mar Comm School District", "city": "Marion", "ncessch": "191722000810"}, {"name": "Excelsior Middle School", "lat": 42.058619, "lon": -91.597768, "proficiency": 0.75, "district": "Linn-Mar Comm School District", "city": "Marion", "ncessch": "191722001005"}, {"name": "Lisbon Middle School", "lat": 41.918655, "lon": -91.388729, "proficiency": 0.745, "district": "Lisbon Comm School District", "city": "Lisbon", "ncessch": "191725001981"}, {"name": "Logan-Magnolia Jr-Sr High School", "lat": 41.655784, "lon": -95.788269, "proficiency": 0.745, "district": "Logan-Magnolia Comm School District", "city": "Logan", "ncessch": "191746001014"}, {"name": "Lone Tree Middle-Senior High School", "lat": 41.484506, "lon": -91.426348, "proficiency": 0.645, "district": "Lone Tree Comm School District", "city": "Lone Tree", "ncessch": "191755001019"}, {"name": "Louisa-Muscatine JR/SR High School", "lat": 41.306292, "lon": -91.203478, "proficiency": 0.77, "district": "Louisa-Muscatine Comm School District", "city": "Letts", "ncessch": "191782001025"}, {"name": "Lynnville-Sully Middle School", "lat": 41.581846, "lon": -92.842229, "proficiency": 0.9, "district": "Lynnville-Sully Comm School District", "city": "Sully", "ncessch": "191803001994"}, {"name": "MFL MarMac Middle School", "lat": 43.019459, "lon": -91.186358, "proficiency": 0.67, "district": "MFL MarMac Comm School District", "city": "Mcgregor", "ncessch": "191812001068"}, {"name": "Madrid Junior High School", "lat": 41.883517, "lon": -93.814082, "proficiency": 0.645, "district": "Madrid Comm School District", "city": "Madrid", "ncessch": "191818001041"}, {"name": "East Mills Jr/Sr High School", "lat": 41.013888, "lon": -95.583588, "proficiency": 0.845, "district": "East Mills Comm School District", "city": "Hastings", "ncessch": "191824001046"}, {"name": "Manson Northwest Webster Junior High/High School", "lat": 42.535722, "lon": -94.529016, "proficiency": 0.52, "district": "Manson Northwest Webster Comm School District", "city": "Manson", "ncessch": "191833001053"}, {"name": "MVAO Middle School", "lat": 42.384696, "lon": -95.869811, "proficiency": 0.545, "district": "Maple Valley-Anthon Oto Comm School District", "city": "Anthon", "ncessch": "191848000079"}, {"name": "Maquoketa Middle School", "lat": 42.064121, "lon": -90.664034, "proficiency": 0.52, "district": "Maquoketa Comm School District", "city": "Maquoketa", "ncessch": "191851001063"}, {"name": "Maquoketa Valley Middle School", "lat": 42.426145, "lon": -91.329837, "proficiency": 0.845, "district": "Maquoketa Valley Comm School District", "city": "Delhi", "ncessch": "191854000725"}, {"name": "Vernon Middle School", "lat": 42.031001, "lon": -91.595536, "proficiency": 0.72, "district": "Marion Independent School District", "city": "Marion", "ncessch": "191869001078"}, {"name": "B R Miller Middle School", "lat": 42.046665, "lon": -92.931435, "proficiency": 0.57, "district": "Marshalltown Comm School District", "city": "Marshalltown", "ncessch": "191872001084"}, {"name": "Martensdale-St Marys Jr-Sr High School", "lat": 41.375189, "lon": -93.738831, "proficiency": 0.745, "district": "Martensdale-St Marys Comm School District", "city": "Martensdale", "ncessch": "191875001097"}, {"name": "John Adams Middle School", "lat": 43.150775, "lon": -93.169535, "proficiency": 0.52, "district": "Mason City Comm School District", "city": "Mason City", "ncessch": "191878001105"}, {"name": "MOC-Floyd Valley Middle  School", "lat": 42.989799, "lon": -96.012536, "proficiency": 0.82, "district": "MOC-Floyd Valley Comm School District", "city": "Alton", "ncessch": "191884000708"}, {"name": "Mediapolis Middle School", "lat": 41.014223, "lon": -91.161036, "proficiency": 0.82, "district": "Mediapolis Comm School District", "city": "Mediapolis", "ncessch": "191893001119"}, {"name": "Melcher-Dallas High School", "lat": 41.221602, "lon": -93.241431, "proficiency": 0.695, "district": "Melcher-Dallas Comm School District", "city": "Melcher", "ncessch": "191896001122"}, {"name": "Mid-Prairie Middle School", "lat": 41.488341, "lon": -91.700929, "proficiency": 0.77, "district": "Mid-Prairie Comm School District", "city": "Kalona", "ncessch": "191914001132"}, {"name": "Midland Middle/High  School", "lat": 42.060963, "lon": -91.006766, "proficiency": 0.645, "district": "Midland Comm School District", "city": "Wyoming", "ncessch": "191920001563"}, {"name": "Missouri Valley Middle School", "lat": 41.562937, "lon": -95.879942, "proficiency": 0.52, "district": "Missouri Valley Comm School District", "city": "Missouri Valley", "ncessch": "191944001147"}, {"name": "Montezuma Junior High School", "lat": 41.590303, "lon": -92.52503, "proficiency": 0.545, "district": "Montezuma Comm School District", "city": "Montezuma", "ncessch": "191959001151"}, {"name": "Monticello Middle School", "lat": 42.229711, "lon": -91.17641, "proficiency": 0.72, "district": "Monticello Comm School District", "city": "Monticello", "ncessch": "191965002000"}, {"name": "Moravia High School", "lat": 40.8958, "lon": -92.818482, "proficiency": 0.445, "district": "Moravia Comm School District", "city": "Moravia", "ncessch": "191971001157"}, {"name": "Mormon Trail Jr-Sr High School", "lat": 40.82659, "lon": -93.605099, "proficiency": 0.75, "district": "Mormon Trail Comm School District", "city": "Garden Grove", "ncessch": "191974001160"}, {"name": "Moulton-Udell High School", "lat": 40.688925, "lon": -92.674138, "proficiency": 0.75, "district": "Moulton-Udell Comm School District", "city": "Moulton", "ncessch": "191980001164"}, {"name": "Mount Ayr High School", "lat": 40.71689, "lon": -94.227517, "proficiency": 0.845, "district": "Mount Ayr Comm School District", "city": "Mount Ayr", "ncessch": "191986001167"}, {"name": "Mount Pleasant Middle  School", "lat": 40.969867, "lon": -91.550223, "proficiency": 0.67, "district": "Mount Pleasant Comm School District", "city": "Mount Pleasant", "ncessch": "191989001173"}, {"name": "Mount Vernon Middle School", "lat": 41.920262, "lon": -91.427645, "proficiency": 0.87, "district": "Mount Vernon Comm School District", "city": "Mount Vernon", "ncessch": "192004001178"}, {"name": "Murray Jr/Sr High", "lat": 41.039155, "lon": -93.954147, "proficiency": 0.695, "district": "Murray Comm School District", "city": "Murray", "ncessch": "192010001181"}, {"name": "Susan Clark Junior High", "lat": 41.427813, "lon": -91.0724, "proficiency": 0.5, "district": "Muscatine Comm School District", "city": "Muscatine", "ncessch": "192013002278"}, {"name": "Nashua-Plainfield Junior-SeniorHigh School", "lat": 42.949311, "lon": -92.540553, "proficiency": 0.745, "district": "Nashua-Plainfield Comm School District", "city": "Nashua", "ncessch": "192019001197"}, {"name": "Nevada Middle School", "lat": 42.021395, "lon": -93.438809, "proficiency": 0.62, "district": "Nevada Comm School District", "city": "Nevada", "ncessch": "192025002072"}, {"name": "New Hampton Middle School", "lat": 43.058768, "lon": -92.328953, "proficiency": 0.87, "district": "New Hampton Comm School District", "city": "New Hampton", "ncessch": "192034001922"}, {"name": "New London Jr-Sr High School", "lat": 40.924285, "lon": -91.401786, "proficiency": 0.845, "district": "New London Comm School District", "city": "New London", "ncessch": "192046001210"}, {"name": "Newell-Fonda Middle Sch.", "lat": 42.605499, "lon": -94.997898, "proficiency": 0.645, "district": "Newell-Fonda Comm School District", "city": "Newell", "ncessch": "192058000713"}, {"name": "Berg Middle School", "lat": 41.70503, "lon": -93.026551, "proficiency": 0.62, "district": "Newton Comm School District", "city": "Newton", "ncessch": "192061002240"}, {"name": "Central Springs Middle School", "lat": 43.147745, "lon": -93.003798, "proficiency": 0.745, "district": "Central Springs Comm School District", "city": "Nora Springs", "ncessch": "192076001236"}, {"name": "North-Linn Middle School", "lat": 42.291253, "lon": -91.661129, "proficiency": 0.745, "district": "North Linn Comm School District", "city": "Troy Mills", "ncessch": "192082001242"}, {"name": "North Union Middle School", "lat": 43.383952, "lon": -94.312862, "proficiency": 0.745, "district": "North Kossuth Comm School District", "city": "Swea City", "ncessch": "192083002179"}, {"name": "North Mahaska Jr-Sr High School", "lat": 41.459717, "lon": -92.64778, "proficiency": 0.845, "district": "North Mahaska Comm School District", "city": "New Sharon", "ncessch": "192085001245"}, {"name": "North Polk Middle School", "lat": 41.81797, "lon": -93.613954, "proficiency": 0.975, "district": "North Polk Comm School District", "city": "Alleman", "ncessch": "192091002095"}, {"name": "North Scott Junior High School", "lat": 41.650645, "lon": -90.589138, "proficiency": 0.77, "district": "North Scott Comm School District", "city": "Eldridge", "ncessch": "192094001255"}, {"name": "North Tama High School", "lat": 42.188461, "lon": -92.466658, "proficiency": 0.445, "district": "North Tama County Comm School District", "city": "Traer", "ncessch": "192100001258"}, {"name": "Northeast Middle-High School", "lat": 41.965931, "lon": -90.374634, "proficiency": 0.72, "district": "Northeast Comm School District", "city": "Goose Lake", "ncessch": "192109001266"}, {"name": "Northwood-Kensett MIddle/High School", "lat": 43.452358, "lon": -93.223839, "proficiency": 0.645, "district": "Northwood-Kensett Comm School District", "city": "Northwood", "ncessch": "192121001271"}, {"name": "Norwalk Middle School", "lat": 41.472003, "lon": -93.670793, "proficiency": 0.77, "district": "Norwalk Comm School District", "city": "Norwalk", "ncessch": "192124001274"}, {"name": "Odebolt Arthur Battle Creek Ida Grove Middle School", "lat": 42.308057, "lon": -95.252658, "proficiency": 0.77, "district": "Odebolt Arthur Battle Creek Ida Grove Comm School District", "city": "Odebolt", "ncessch": "192160001285"}, {"name": "Oelwein Middle School", "lat": 42.673721, "lon": -91.898162, "proficiency": 0.52, "district": "Oelwein Comm School District", "city": "Oelwein", "ncessch": "192163001289"}, {"name": "Ogden Middle School", "lat": 42.033026, "lon": -94.036518, "proficiency": 0.745, "district": "Ogden Comm School District", "city": "Ogden", "ncessch": "192166001294"}, {"name": "Orient-Macksburg Senior High School", "lat": 41.200805, "lon": -94.413687, "proficiency": 0.245, "district": "Orient-Macksburg Comm School District", "city": "Orient", "ncessch": "192181001299"}, {"name": "Osage Middle School", "lat": 43.277718, "lon": -92.808918, "proficiency": 0.67, "district": "Osage Comm School District", "city": "Osage", "ncessch": "192184001303"}, {"name": "Oskaloosa Middle School", "lat": 41.308355, "lon": -92.639597, "proficiency": 0.67, "district": "Oskaloosa Comm School District", "city": "Oskaloosa", "ncessch": "192187001310"}, {"name": "Evans Middle School", "lat": 41.003289, "lon": -92.435074, "proficiency": 0.49, "district": "Ottumwa Comm School District", "city": "Ottumwa", "ncessch": "192211001316"}, {"name": "Paton-Churdan Jr-Sr High School", "lat": 42.159741, "lon": -94.476302, "proficiency": 0.75, "district": "Paton-Churdan Comm School District", "city": "Churdan", "ncessch": "192238001339"}, {"name": "Pekin Community Junior/ Senior High School", "lat": 41.15485, "lon": -92.160838, "proficiency": 0.545, "district": "Pekin Comm School District", "city": "Packwood", "ncessch": "192244001343"}, {"name": "Pella Middle School", "lat": 41.405423, "lon": -92.899919, "proficiency": 0.975, "district": "Pella Comm School District", "city": "Pella", "ncessch": "192247001351"}, {"name": "Perry Middle School", "lat": 41.840737, "lon": -94.080785, "proficiency": 0.57, "district": "Perry Comm School District", "city": "Perry", "ncessch": "192253001356"}, {"name": "Pleasant Valley  Junior  High School", "lat": 41.60021, "lon": -90.392062, "proficiency": 0.85, "district": "Pleasant Valley Comm School District", "city": "LeClaire", "ncessch": "192311001361"}, {"name": "Pleasantville Middle School", "lat": 41.387826, "lon": -93.273057, "proficiency": 0.745, "district": "Pleasantville Comm School District", "city": "Pleasantville", "ncessch": "192316001403"}, {"name": "Pocahontas Area Middle/ High School", "lat": 42.733974, "lon": -94.67377, "proficiency": 0.745, "district": "Pocahontas Area Comm School District", "city": "Pocahontas", "ncessch": "192319001373"}, {"name": "John R Mott Jr/Hi School", "lat": 43.082382, "lon": -91.573414, "proficiency": 0.67, "district": "Postville Comm School District", "city": "Postville", "ncessch": "192334001378"}, {"name": "Red Oak Junior/Senior High School", "lat": 41.023271, "lon": -95.225145, "proficiency": 0.57, "district": "Red Oak Comm School District", "city": "Red Oak", "ncessch": "192400001397"}, {"name": "Remsen-Union Middle  School", "lat": 42.809104, "lon": -95.965452, "proficiency": 0.745, "district": "Remsen-Union Comm School District", "city": "Remsen", "ncessch": "192412001995"}, {"name": "Riceville High School", "lat": 43.355091, "lon": -92.552944, "proficiency": 0.745, "district": "Riceville Comm School District", "city": "Riceville", "ncessch": "192415001410"}, {"name": "Rock Valley Middle School", "lat": 43.208897, "lon": -96.287175, "proficiency": 0.72, "district": "Rock Valley Comm School District", "city": "Rock Valley", "ncessch": "192466002262"}, {"name": "Roland-Story Middle School", "lat": 42.164494, "lon": -93.499952, "proficiency": 0.82, "district": "Roland-Story Comm School District", "city": "Roland", "ncessch": "192487001424"}, {"name": "Rockford Junior-Senior High School", "lat": 43.051257, "lon": -92.932975, "proficiency": 0.845, "district": "Rudd-Rockford-Marble Rk Comm School District", "city": "Rockford", "ncessch": "192496001431"}, {"name": "Ruthven-Ayrshire High School", "lat": 43.13172, "lon": -94.902159, "proficiency": 0.75, "district": "Ruthven-Ayrshire Comm School District", "city": "Ruthven", "ncessch": "192505001967"}, {"name": "St Ansgar Middle School", "lat": 43.37428, "lon": -92.917017, "proficiency": 0.845, "district": "St Ansgar Comm School District", "city": "St Ansgar", "ncessch": "192520001440"}, {"name": "Woodside Middle School", "lat": 41.665835, "lon": -93.601764, "proficiency": 0.37, "district": "Saydel Comm School District", "city": "Des Moines", "ncessch": "192532001448"}, {"name": "Schaller-Crestland Ridge View Middle School", "lat": 42.463899, "lon": -95.155931, "proficiency": 0.67, "district": "Schaller-Crestland Comm School District", "city": "Early", "ncessch": "192538002121"}, {"name": "Schleswig Middle School", "lat": 42.164021, "lon": -95.428394, "proficiency": 0.75, "district": "Schleswig Comm School District", "city": "Schleswig", "ncessch": "192541001451"}, {"name": "Sergeant Bluff-Luton Middle School", "lat": 42.395508, "lon": -96.354173, "proficiency": 0.87, "district": "Sergeant Bluff-Luton Comm School District", "city": "Sergeant Bluff", "ncessch": "192559001891"}, {"name": "Seymour High School", "lat": 40.681133, "lon": -93.115887, "proficiency": 0.695, "district": "Seymour Comm School District", "city": "Seymour", "ncessch": "192562001465"}, {"name": "West Fork Middle School", "lat": 42.896546, "lon": -93.21816, "proficiency": 0.545, "district": "West Fork Comm School District", "city": "SHEFFIELD", "ncessch": "192592002101"}, {"name": "Sheldon Middle School", "lat": 43.183713, "lon": -95.828731, "proficiency": 0.77, "district": "Sheldon Comm School District", "city": "Sheldon", "ncessch": "192598001475"}, {"name": "Shenandoah Middle School", "lat": 40.74941, "lon": -95.359336, "proficiency": 0.52, "district": "Shenandoah Comm School District", "city": "Shenandoah", "ncessch": "192607001483"}, {"name": "Sidney High School", "lat": 40.742461, "lon": -95.660456, "proficiency": 0.9, "district": "Sidney Comm School District", "city": "Sidney", "ncessch": "192625001489"}, {"name": "Sigourney Jr-Sr High Sch", "lat": 41.328842, "lon": -92.194041, "proficiency": 0.845, "district": "Sigourney Comm School District", "city": "Sigourney", "ncessch": "192628001491"}, {"name": "Sioux Center Middle School", "lat": 43.087138, "lon": -96.166977, "proficiency": 0.77, "district": "Sioux Center Comm School District", "city": "Sioux Center", "ncessch": "192637001497"}, {"name": "North Middle School", "lat": 42.543533, "lon": -96.38282, "proficiency": 0.56, "district": "Sioux City Comm School District", "city": "Sioux City", "ncessch": "192640001287"}, {"name": "East Middle School", "lat": 42.45961, "lon": -96.33764, "proficiency": 0.61, "district": "Sioux City Comm School District", "city": "Sioux City", "ncessch": "192640001505"}, {"name": "West Middle School", "lat": 42.510381, "lon": -96.451409, "proficiency": 0.61, "district": "Sioux City Comm School District", "city": "Sioux City", "ncessch": "192640001534"}, {"name": "Solon Middle School", "lat": 41.803452, "lon": -91.504964, "proficiency": 0.87, "district": "Solon Comm School District", "city": "Solon", "ncessch": "192658000707"}, {"name": "South Hamilton Middle And High School", "lat": 42.301927, "lon": -93.646038, "proficiency": 0.745, "district": "South Hamilton Comm School District", "city": "Jewell", "ncessch": "192664001549"}, {"name": "South Page Senior High School", "lat": 40.62117, "lon": -95.119844, "proficiency": 0.75, "district": "South Page Comm School District", "city": "College Springs", "ncessch": "192667001552"}, {"name": "South Tama County Middle School", "lat": 41.993995, "lon": -92.575194, "proficiency": 0.47, "district": "South Tama County", "city": "Toledo", "ncessch": "192673001557"}, {"name": "South Winneshiek Middle School", "lat": 43.142952, "lon": -91.76279, "proficiency": 0.645, "district": "South Winneshiek Comm School District", "city": "Ossian", "ncessch": "192679001564"}, {"name": "Southeast Polk Junior High", "lat": 41.599179, "lon": -93.438122, "proficiency": 0.77, "district": "Southeast Polk Comm School District", "city": "Pleasant Hill", "ncessch": "192682001573"}, {"name": "Southeast Warren Jr-Sr High School", "lat": 41.205546, "lon": -93.496523, "proficiency": 0.745, "district": "Southeast Warren Comm School District", "city": "Liberty Center", "ncessch": "192685001576"}, {"name": "Spencer Middle School", "lat": 43.152357, "lon": -95.129451, "proficiency": 0.87, "district": "Spencer Comm School District", "city": "Spencer", "ncessch": "192691001583"}, {"name": "Spirit Lake Middle School", "lat": 43.413716, "lon": -95.099427, "proficiency": 0.72, "district": "Spirit Lake Comm School District", "city": "Spirit Lake", "ncessch": "192700001905"}, {"name": "Springville Secondary School", "lat": 42.055513, "lon": -91.445102, "proficiency": 0.645, "district": "Springville Comm School District", "city": "Springville", "ncessch": "192706001587"}, {"name": "Stanton High School", "lat": 40.984612, "lon": -95.100782, "proficiency": 0.9, "district": "Stanton Comm School District", "city": "Stanton", "ncessch": "192724001589"}, {"name": "Starmont Middle School", "lat": 42.688845, "lon": -91.648188, "proficiency": 0.545, "district": "Starmont Comm School District", "city": "Arlington", "ncessch": "192727001593"}, {"name": "Storm Lake Middle School", "lat": 42.648857, "lon": -95.226852, "proficiency": 0.62, "district": "Storm Lake Comm School District", "city": "Storm Lake", "ncessch": "192739001600"}, {"name": "West Central Valley Middle School", "lat": 41.592803, "lon": -94.193336, "proficiency": 0.77, "district": "West Central Valley Comm School District", "city": "Redfield", "ncessch": "192750000664"}, {"name": "Sumner-Fredericksburg Middle School", "lat": 42.965872, "lon": -92.195452, "proficiency": 0.72, "district": "Sumner-Fredericksburg Comm School District", "city": "Fredericksburg", "ncessch": "192760000742"}, {"name": "Tipton Middle School", "lat": 41.770877, "lon": -91.139436, "proficiency": 0.72, "district": "Tipton Comm School District", "city": "Tipton", "ncessch": "192787000290"}, {"name": "Treynor Middle School", "lat": 41.231601, "lon": -95.607947, "proficiency": 0.845, "district": "Treynor Comm School District", "city": "Treynor", "ncessch": "192796002175"}, {"name": "Tri-Center Middle School", "lat": 41.504743, "lon": -95.594969, "proficiency": 0.745, "district": "Tri-Center Comm School District", "city": "Neola", "ncessch": "192799000309"}, {"name": "Tri-County JR/SR High School", "lat": 41.45288, "lon": -92.335024, "proficiency": 0.75, "district": "Tri-County Comm School District", "city": "Thornburg", "ncessch": "192802001634"}, {"name": "Tripoli Middle/Sr High School", "lat": 42.801009, "lon": -92.260488, "proficiency": 0.495, "district": "Tripoli Comm School District", "city": "Tripoli", "ncessch": "192805001638"}, {"name": "Turkey Valley Jr-Sr High School", "lat": 43.110262, "lon": -92.035344, "proficiency": 0.645, "district": "Turkey Valley Comm School District", "city": "Jackson Junction", "ncessch": "192811001640"}, {"name": "Twin Cedars Jr-Sr High School", "lat": 41.21788, "lon": -92.926981, "proficiency": 0.495, "district": "Twin Cedars Comm School District", "city": "Bussey", "ncessch": "192817001642"}, {"name": "Underwood Middle School", "lat": 41.385139, "lon": -95.682469, "proficiency": 0.77, "district": "Underwood Comm School District", "city": "Underwood", "ncessch": "192823001892"}, {"name": "Urbandale Middle School", "lat": 41.638234, "lon": -93.724408, "proficiency": 0.72, "district": "Urbandale Comm School District", "city": "Urbandale", "ncessch": "192868001660"}, {"name": "Van Buren County Community Middle & High School", "lat": 40.730627, "lon": -91.967871, "proficiency": 0.645, "district": "Van Buren County Comm School District", "city": "Keosauqua", "ncessch": "192898001670"}, {"name": "Van Meter Middle School", "lat": 41.528966, "lon": -93.953016, "proficiency": 0.77, "district": "Van Meter Comm School District", "city": "Van Meter", "ncessch": "192901002244"}, {"name": "Southwest Valley  Middle School", "lat": 40.929994, "lon": -94.975173, "proficiency": 0.545, "district": "Villisca Comm School District", "city": "Villisca", "ncessch": "192928002207"}, {"name": "Vinton-Shellsburg Middle School", "lat": 42.15662, "lon": -92.026894, "proficiency": 0.87, "district": "Vinton-Shellsburg Comm School District", "city": "Vinton", "ncessch": "192931001680"}, {"name": "WACO High School", "lat": 41.153451, "lon": -91.660187, "proficiency": 0.745, "district": "Waco Comm School District", "city": "Wayland", "ncessch": "192949001684"}, {"name": "East Sac County Middle School", "lat": 42.419606, "lon": -94.997737, "proficiency": 0.645, "district": "East Sac County Comm School District", "city": "Sac City", "ncessch": "192958001511"}, {"name": "Wapello Junior High School", "lat": 41.179686, "lon": -91.189038, "proficiency": 0.345, "district": "Wapello Comm School District", "city": "Wapello", "ncessch": "192973001927"}, {"name": "Wapsie Valley High School", "lat": 42.680782, "lon": -92.139664, "proficiency": 0.845, "district": "Wapsie Valley Comm School District", "city": "Fairbank", "ncessch": "192976001700"}, {"name": "Washington Middle School", "lat": 41.296895, "lon": -91.688732, "proficiency": 0.57, "district": "Washington Comm School District", "city": "Washington", "ncessch": "193024001705"}, {"name": "Bunger Middle School", "lat": 42.47166, "lon": -92.274861, "proficiency": 0.62, "district": "Waterloo Comm School District", "city": "Evansdale", "ncessch": "193048000586"}, {"name": "Hoover Middle School", "lat": 42.464728, "lon": -92.362158, "proficiency": 0.67, "district": "Waterloo Comm School District", "city": "Waterloo", "ncessch": "193048001723"}, {"name": "George Washington Carver Academy", "lat": 42.521681, "lon": -92.340138, "proficiency": 0.42, "district": "Waterloo Comm School District", "city": "Waterloo", "ncessch": "193048001725"}, {"name": "Central Middle School", "lat": 42.494319, "lon": -92.399164, "proficiency": 0.57, "district": "Waterloo Comm School District", "city": "Waterloo", "ncessch": "193048002024"}, {"name": "Expo Alternative Learning Center", "lat": 42.497781, "lon": -92.306318, "proficiency": 0.3, "district": "Waterloo Comm School District", "city": "Waterloo", "ncessch": "193048002126"}, {"name": "Prairieview School", "lat": 41.6017, "lon": -93.859747, "proficiency": 0.75, "district": "Waukee Comm School District", "city": "Waukee", "ncessch": "193051000931"}, {"name": "Timberline School", "lat": 41.583411, "lon": -93.868345, "proficiency": 0.75, "district": "Waukee Comm School District", "city": "Waukee", "ncessch": "193051002222"}, {"name": "Waverly-Shell Rock Middle School", "lat": 42.720697, "lon": -92.492587, "proficiency": 0.77, "district": "Waverly-Shell Rock Comm School District", "city": "Waverly", "ncessch": "193054002163"}, {"name": "Wayne Community Jr-Sr High School", "lat": 40.757921, "lon": -93.32111, "proficiency": 0.645, "district": "Wayne Comm School District", "city": "Corydon", "ncessch": "193056001755"}, {"name": "Webster City Middle School", "lat": 42.465617, "lon": -93.822651, "proficiency": 0.67, "district": "Webster City Comm School District", "city": "Webster City", "ncessch": "193063001765"}, {"name": "West Bend-Mallard Middle School", "lat": 42.957912, "lon": -94.449642, "proficiency": 0.695, "district": "West Bend-Mallard Comm School District", "city": "West Bend", "ncessch": "193072001044"}, {"name": "West Branch Middle School", "lat": 41.669596, "lon": -91.363784, "proficiency": 0.745, "district": "West Branch Comm School District", "city": "West Branch", "ncessch": "193075001773"}, {"name": "West Central PK - 8 School", "lat": 42.770363, "lon": -91.880635, "proficiency": 0.495, "district": "West Central Comm School District", "city": "Maynard", "ncessch": "193087001778"}, {"name": "West Delaware Middle School", "lat": 42.495144, "lon": -91.45061, "proficiency": 0.82, "district": "West Delaware County Comm School District", "city": "Manchester", "ncessch": "193090001787"}, {"name": "Indian Hills Junior High School", "lat": 41.603535, "lon": -93.748187, "proficiency": 0.67, "district": "West Des Moines Comm School District", "city": "Clive", "ncessch": "193093001793"}, {"name": "Stilwell Junior High School", "lat": 41.577878, "lon": -93.724735, "proficiency": 0.73, "district": "West Des Moines Comm School District", "city": "West Des Moines", "ncessch": "193093001796"}, {"name": "West Harrison Middle School/High School", "lat": 41.709141, "lon": -96.018358, "proficiency": 0.695, "district": "West Harrison Comm School District", "city": "Mondamin", "ncessch": "193096001801"}, {"name": "West Liberty  Middle School", "lat": 41.574904, "lon": -91.261742, "proficiency": 0.67, "district": "West Liberty Comm School District", "city": "West Liberty", "ncessch": "193099001804"}, {"name": "West Lyon Junior High School", "lat": 43.392008, "lon": -96.430094, "proficiency": 0.87, "district": "West Lyon Comm School District", "city": "Inwood", "ncessch": "193102001808"}, {"name": "West Marshall Middle School", "lat": 42.019749, "lon": -93.171853, "proficiency": 0.77, "district": "West Marshall Comm School District", "city": "State Center", "ncessch": "193108001813"}, {"name": "West Monona Middle Sch", "lat": 42.022319, "lon": -96.104918, "proficiency": 0.545, "district": "West Monona Comm School District", "city": "Onawa", "ncessch": "193111000738"}, {"name": "West Sioux Middle School", "lat": 43.001013, "lon": -96.473058, "proficiency": 0.62, "district": "West Sioux Comm School District", "city": "Hawarden", "ncessch": "193129001822"}, {"name": "Drexler Middle School", "lat": 42.444326, "lon": -91.001506, "proficiency": 0.72, "district": "Western Dubuque Comm School District", "city": "Farley", "ncessch": "193135000205"}, {"name": "Cascade Junior-Senior High School", "lat": 42.300596, "lon": -91.019252, "proficiency": 0.95, "district": "Western Dubuque Comm School District", "city": "Cascade", "ncessch": "193135001825"}, {"name": "Westwood High School", "lat": 42.2301, "lon": -96.217042, "proficiency": 0.845, "district": "Westwood Comm School District", "city": "Sloan", "ncessch": "193147001837"}, {"name": "Whiting Senior High School", "lat": 42.12662, "lon": -96.156393, "proficiency": 0.75, "district": "Whiting Comm School District", "city": "Whiting", "ncessch": "193162001842"}, {"name": "Williamsburg Jr-Sr High School", "lat": 41.662939, "lon": -92.019379, "proficiency": 0.82, "district": "Williamsburg Comm School District", "city": "Williamsburg", "ncessch": "193168001845"}, {"name": "Wilton Jr-Sr High School", "lat": 41.59548, "lon": -91.010613, "proficiency": 0.77, "district": "Wilton Comm School District", "city": "Wilton", "ncessch": "193180001850"}, {"name": "Winfield-Mt Union Jr-Sr High School", "lat": 41.126591, "lon": -91.439979, "proficiency": 0.495, "district": "Winfield-Mt Union Comm School District", "city": "Winfield", "ncessch": "193183001852"}, {"name": "Winterset Junior High School", "lat": 41.325499, "lon": -94.021827, "proficiency": 0.82, "district": "Winterset Comm School District", "city": "Winterset", "ncessch": "193186000369"}, {"name": "Woodbine High School", "lat": 41.737708, "lon": -95.707219, "proficiency": 0.745, "district": "Woodbine Comm School District", "city": "WOODBINE", "ncessch": "193192001862"}, {"name": "Woodbury Central Middle School", "lat": 42.48383, "lon": -96.068149, "proficiency": 0.645, "district": "Woodbury Central Comm School District", "city": "Moville", "ncessch": "193195001864"}, {"name": "Woodward-Granger Middle School", "lat": 41.85586, "lon": -93.926097, "proficiency": 0.87, "district": "Woodward-Granger Comm School District", "city": "Woodward", "ncessch": "193201001866"}, {"name": "PCM Middle School", "lat": 41.594385, "lon": -93.231399, "proficiency": 0.77, "district": "PCM Comm School District", "city": "Prairie City", "ncessch": "199901702061"}, {"name": "Southeast Webster-Grand Southeast Valley Middle", "lat": 42.342073, "lon": -94.10595, "proficiency": 0.67, "district": "Southeast Webster Grand Comm School District", "city": "Burnside", "ncessch": "199901902217"}], "districts": [{"name": "North Fayette Valley Comm School District", "lat": 42.97219, "lon": -91.654291, "proficiency": 0.67, "schoolCount": 1}, {"name": "Colfax-Mingo Comm School District", "lat": 41.678589, "lon": -93.231292, "proficiency": 0.47, "schoolCount": 1}, {"name": "Sibley-Ocheyedan Comm School District", "lat": 43.405352, "lon": -95.735529, "proficiency": 0.845, "schoolCount": 1}, {"name": "Okoboji Comm School District", "lat": 43.321954, "lon": -95.161685, "proficiency": 0.975, "schoolCount": 1}, {"name": "Union Comm School District", "lat": 42.169236, "lon": -92.315112, "proficiency": 0.82, "schoolCount": 1}, {"name": "Sioux Central Comm School District", "lat": 42.874172, "lon": -95.149322, "proficiency": 0.745, "schoolCount": 1}, {"name": "South Central Calhoun Comm School District", "lat": 42.392608, "lon": -94.645338, "proficiency": 0.745, "schoolCount": 1}, {"name": "Panorama Comm School District", "lat": 41.692589, "lon": -94.375142, "proficiency": 0.845, "schoolCount": 1}, {"name": "South O'Brien  Comm School District", "lat": 42.977385, "lon": -95.690881, "proficiency": 0.745, "schoolCount": 1}, {"name": "Riverside Comm School District", "lat": 41.288034, "lon": -95.39905, "proficiency": 0.745, "schoolCount": 1}, {"name": "East Marshall Comm School District", "lat": 41.878032, "lon": -92.784051, "proficiency": 0.57, "schoolCount": 1}, {"name": "GMG Comm School District", "lat": 42.095128, "lon": -92.674979, "proficiency": 0.645, "schoolCount": 1}, {"name": "AGWSR Comm School District", "lat": 42.432756, "lon": -92.931175, "proficiency": 0.545, "schoolCount": 1}, {"name": "Adair-Casey Comm School District", "lat": 41.520409, "lon": -94.583675, "proficiency": 0.845, "schoolCount": 1}, {"name": "Adel DeSoto Minburn Comm School District", "lat": 41.609816, "lon": -94.014544, "proficiency": 0.92, "schoolCount": 1}, {"name": "Akron Westfield Comm School District", "lat": 42.83251, "lon": -96.549247, "proficiency": 0.845, "schoolCount": 1}, {"name": "Albia Comm School District", "lat": 41.029971, "lon": -92.802888, "proficiency": 0.72, "schoolCount": 1}, {"name": "Alburnett Comm School District", "lat": 42.150256, "lon": -91.619708, "proficiency": 0.72, "schoolCount": 1}, {"name": "Algona Comm School District", "lat": 43.063584, "lon": -94.223945, "proficiency": 0.77, "schoolCount": 1}, {"name": "Allamakee Comm School District", "lat": 43.27264, "lon": -91.491072, "proficiency": 0.67, "schoolCount": 1}, {"name": "North Butler Comm School District", "lat": 42.899207, "lon": -92.799725, "proficiency": 0.745, "schoolCount": 1}, {"name": "Alta-Aurelia Comm School District", "lat": 42.713978, "lon": -95.428992, "proficiency": 0.845, "schoolCount": 1}, {"name": "Ames Comm School District", "lat": 42.013376, "lon": -93.6708, "proficiency": 0.72, "schoolCount": 1}, {"name": "Anamosa Comm School District", "lat": 42.116547, "lon": -91.271825, "proficiency": 0.77, "schoolCount": 1}, {"name": "Ankeny Comm School District", "lat": 41.7311105, "lon": -93.6057675, "proficiency": 0.795, "schoolCount": 2}, {"name": "Aplington-Parkersburg Comm School District", "lat": 42.579574, "lon": -92.885259, "proficiency": 0.745, "schoolCount": 1}, {"name": "Ar-We-Va Comm School District", "lat": 42.075206, "lon": -95.101263, "proficiency": 0.695, "schoolCount": 1}, {"name": "Atlantic Comm School District", "lat": 41.3993, "lon": -95.006319, "proficiency": 0.72, "schoolCount": 1}, {"name": "Audubon Comm School District", "lat": 41.71254, "lon": -94.921665, "proficiency": 0.745, "schoolCount": 1}, {"name": "AHSTW Comm School District", "lat": 41.46948, "lon": -95.341794, "proficiency": 0.845, "schoolCount": 1}, {"name": "Ballard Comm School District", "lat": 41.897731, "lon": -93.607134, "proficiency": 0.92, "schoolCount": 1}, {"name": "Baxter Comm School District", "lat": 41.826759, "lon": -93.149005, "proficiency": 0.745, "schoolCount": 1}, {"name": "BCLUW Comm School District", "lat": 42.24394, "lon": -93.068314, "proficiency": 0.645, "schoolCount": 1}, {"name": "Bedford Comm School District", "lat": 40.671028, "lon": -94.723194, "proficiency": 0.695, "schoolCount": 1}, {"name": "Belle Plaine Comm School District", "lat": 41.889763, "lon": -92.269443, "proficiency": 0.645, "schoolCount": 1}, {"name": "Bellevue Comm School District", "lat": 42.2544, "lon": -90.4439, "proficiency": 0.745, "schoolCount": 1}, {"name": "Belmond-Klemme Comm School District", "lat": 42.849346, "lon": -93.604231, "proficiency": 0.545, "schoolCount": 1}, {"name": "Benton Comm School District", "lat": 42.01279, "lon": -92.087156, "proficiency": 0.62, "schoolCount": 1}, {"name": "Bettendorf Comm School District", "lat": 41.547136, "lon": -90.503204, "proficiency": 0.78, "schoolCount": 1}, {"name": "Eddyville-Blakesburg- Fremont CSD", "lat": 41.160581, "lon": -92.615148, "proficiency": 0.545, "schoolCount": 1}, {"name": "Bondurant-Farrar Comm School District", "lat": 41.698361, "lon": -93.465345, "proficiency": 0.77, "schoolCount": 1}, {"name": "Boone Comm School District", "lat": 42.054868, "lon": -93.866617, "proficiency": 0.57, "schoolCount": 1}, {"name": "Boyden-Hull Comm School District", "lat": 43.189112, "lon": -96.136697, "proficiency": 0.745, "schoolCount": 1}, {"name": "West Hancock Comm School District", "lat": 42.937058, "lon": -93.787057, "proficiency": 0.745, "schoolCount": 1}, {"name": "Brooklyn-Guernsey-Malcom Comm School District", "lat": 41.738385, "lon": -92.44721, "proficiency": 0.645, "schoolCount": 1}, {"name": "North Iowa Comm School District", "lat": 43.388863, "lon": -93.948149, "proficiency": 0.695, "schoolCount": 1}, {"name": "Burlington Comm School District", "lat": 40.796454, "lon": -91.13623, "proficiency": 0.32, "schoolCount": 1}, {"name": "CAM Comm School District", "lat": 41.350921, "lon": -94.76745199999999, "proficiency": 0.6575, "schoolCount": 2}, {"name": "Calamus-Wheatland Comm School District", "lat": 41.837213, "lon": -90.838936, "proficiency": 0.645, "schoolCount": 1}, {"name": "Camanche Comm School District", "lat": 41.78716, "lon": -90.261949, "proficiency": 0.77, "schoolCount": 1}, {"name": "Cardinal Comm School District", "lat": 40.96112, "lon": -92.237595, "proficiency": 0.52, "schoolCount": 1}, {"name": "Carlisle Comm School District", "lat": 41.497542, "lon": -93.501529, "proficiency": 0.67, "schoolCount": 1}, {"name": "Carroll Comm School District", "lat": 42.095135, "lon": -94.861142, "proficiency": 0.82, "schoolCount": 1}, {"name": "Cedar Falls Comm School District", "lat": 42.524227499999995, "lon": -92.45532, "proficiency": 0.795, "schoolCount": 2}, {"name": "Cedar Rapids Comm School District", "lat": 41.98558383333333, "lon": -91.6736385, "proficiency": 0.5117, "schoolCount": 6}, {"name": "Center Point-Urbana Comm School District", "lat": 42.189029, "lon": -91.785985, "proficiency": 0.87, "schoolCount": 1}, {"name": "Centerville Comm School District", "lat": 40.725275, "lon": -92.877035, "proficiency": 0.67, "schoolCount": 1}, {"name": "Central City Comm School District", "lat": 42.208877, "lon": -91.52593, "proficiency": 0.645, "schoolCount": 1}, {"name": "Central DeWitt School District", "lat": 41.825123, "lon": -90.526901, "proficiency": 0.87, "schoolCount": 1}, {"name": "Central Comm School District", "lat": 42.856701, "lon": -91.407579, "proficiency": 0.345, "schoolCount": 1}, {"name": "Central Decatur Comm School District", "lat": 40.74797, "lon": -93.74064, "proficiency": 0.745, "schoolCount": 1}, {"name": "Central Lee Comm School District", "lat": 40.576279, "lon": -91.515129, "proficiency": 0.77, "schoolCount": 1}, {"name": "Chariton Comm School District", "lat": 41.029984, "lon": -93.316326, "proficiency": 0.67, "schoolCount": 1}, {"name": "Charles City Comm School District", "lat": 43.062698, "lon": -92.655686, "proficiency": 0.67, "schoolCount": 1}, {"name": "Charter Oak-Ute Comm School District", "lat": 42.065704, "lon": -95.590777, "proficiency": 0.695, "schoolCount": 1}, {"name": "Cherokee Comm School District", "lat": 42.766114, "lon": -95.54966, "proficiency": 0.82, "schoolCount": 1}, {"name": "Clarinda Comm School District", "lat": 40.739219, "lon": -95.049557, "proficiency": 0.57, "schoolCount": 1}, {"name": "Clarion-Goldfield-Dows Comm School District", "lat": 42.7353, "lon": -93.729413, "proficiency": 0.82, "schoolCount": 1}, {"name": "Clarke Comm School District", "lat": 41.044039, "lon": -93.770676, "proficiency": 0.52, "schoolCount": 1}, {"name": "Clarksville Comm School District", "lat": 42.786918, "lon": -92.665542, "proficiency": 0.695, "schoolCount": 1}, {"name": "Clear Creek Amana Comm School District", "lat": 41.706441, "lon": -91.668697, "proficiency": 0.82, "schoolCount": 1}, {"name": "Clear Lake Comm School District", "lat": 43.139836, "lon": -93.368171, "proficiency": 0.62, "schoolCount": 1}, {"name": "Clinton Comm School District", "lat": 41.861827, "lon": -90.220272, "proficiency": 0.52, "schoolCount": 1}, {"name": "College Comm School District", "lat": 41.900986, "lon": -91.655269, "proficiency": 0.66, "schoolCount": 1}, {"name": "Collins-Maxwell Comm School District", "lat": 41.890615, "lon": -93.397327, "proficiency": 0.495, "schoolCount": 1}, {"name": "Colo-NESCO  Comm School District", "lat": 42.010474, "lon": -93.317354, "proficiency": 0.745, "schoolCount": 1}, {"name": "Columbus Comm School District", "lat": 41.270016, "lon": -91.367052, "proficiency": 0.645, "schoolCount": 1}, {"name": "Coon Rapids-Bayard Comm School District", "lat": 41.878151, "lon": -94.681496, "proficiency": 0.745, "schoolCount": 1}, {"name": "Council Bluffs Comm School District", "lat": 41.270819, "lon": -95.853108, "proficiency": 0.535, "schoolCount": 2}, {"name": "Creston Comm School District", "lat": 41.076823, "lon": -94.37247, "proficiency": 0.62, "schoolCount": 1}, {"name": "Dallas Center-Grimes Comm School District", "lat": 41.677644, "lon": -93.816135, "proficiency": 0.82, "schoolCount": 1}, {"name": "Danville  Comm School District", "lat": 40.860391, "lon": -91.316021, "proficiency": 0.845, "schoolCount": 1}, {"name": "Davenport Comm School District", "lat": 41.5562526, "lon": -90.6258624, "proficiency": 0.41, "schoolCount": 5}, {"name": "Davis County Comm School District", "lat": 40.755248, "lon": -92.407761, "proficiency": 0.67, "schoolCount": 1}, {"name": "Decorah Community School District", "lat": 43.300864, "lon": -91.787904, "proficiency": 0.82, "schoolCount": 1}, {"name": "Denison Comm School District", "lat": 42.032059, "lon": -95.351805, "proficiency": 0.77, "schoolCount": 1}, {"name": "Denver Comm School District", "lat": 42.66499, "lon": -92.324492, "proficiency": 0.975, "schoolCount": 1}, {"name": "Des Moines Independent Comm School District", "lat": 41.592335636363636, "lon": -93.62879199999999, "proficiency": 0.4909, "schoolCount": 11}, {"name": "Diagonal Comm School District", "lat": 40.80719, "lon": -94.343733, "proficiency": 0.245, "schoolCount": 1}, {"name": "Dike-New Hartford Comm School District", "lat": 42.570012, "lon": -92.61936, "proficiency": 0.92, "schoolCount": 1}, {"name": "Dubuque Comm School District", "lat": 42.50649666666667, "lon": -90.70161666666667, "proficiency": 0.63, "schoolCount": 3}, {"name": "Dunkerton Comm School District", "lat": 42.567256, "lon": -92.159942, "proficiency": 0.645, "schoolCount": 1}, {"name": "Boyer Valley Comm School District", "lat": 41.853733, "lon": -95.595561, "proficiency": 0.695, "schoolCount": 1}, {"name": "Durant Comm School District", "lat": 41.604002, "lon": -90.912985, "proficiency": 0.645, "schoolCount": 1}, {"name": "Eagle Grove Comm School District", "lat": 42.66712, "lon": -93.914927, "proficiency": 0.62, "schoolCount": 1}, {"name": "Earlham Comm School District", "lat": 41.495753, "lon": -94.12362, "proficiency": 0.745, "schoolCount": 1}, {"name": "East Buchanan Comm School District", "lat": 42.475854, "lon": -91.737321, "proficiency": 0.645, "schoolCount": 1}, {"name": "Easton Valley Comm School District", "lat": 42.047518, "lon": -90.398375, "proficiency": 0.745, "schoolCount": 1}, {"name": "River Valley Comm School District", "lat": 42.480129, "lon": -95.779451, "proficiency": 0.695, "schoolCount": 1}, {"name": "East Union Comm School District", "lat": 41.024802, "lon": -94.179783, "proficiency": 0.645, "schoolCount": 1}, {"name": "Eastern Allamakee Comm School District", "lat": 43.360336, "lon": -91.222044, "proficiency": 0.9, "schoolCount": 1}, {"name": "Edgewood-Colesburg Comm School District", "lat": 42.644887, "lon": -91.4052, "proficiency": 0.545, "schoolCount": 1}, {"name": "Emmetsburg Comm School District", "lat": 43.117707, "lon": -94.693004, "proficiency": 0.745, "schoolCount": 1}, {"name": "English Valleys Comm School District", "lat": 41.515366, "lon": -92.087886, "proficiency": 0.495, "schoolCount": 1}, {"name": "Essex Comm School District", "lat": 40.829721, "lon": -95.309002, "proficiency": 0.245, "schoolCount": 1}, {"name": "Estherville Lincoln Central Com Sch Dist", "lat": 43.400762, "lon": -94.825133, "proficiency": 0.57, "schoolCount": 1}, {"name": "Exira-Elk Horn- Kimballton Comm Sch Dist", "lat": 41.590862, "lon": -95.05701, "proficiency": 0.9, "schoolCount": 1}, {"name": "Fairfield Comm School District", "lat": 40.994211, "lon": -91.969718, "proficiency": 0.72, "schoolCount": 1}, {"name": "Forest City Comm School District", "lat": 43.265915, "lon": -93.6489, "proficiency": 0.87, "schoolCount": 1}, {"name": "Fort Dodge Comm School District", "lat": 42.514311, "lon": -94.153382, "proficiency": 0.42, "schoolCount": 1}, {"name": "Fort Madison Comm School District", "lat": 40.633203, "lon": -91.369241, "proficiency": 0.62, "schoolCount": 1}, {"name": "Fremont-Mills Comm School District", "lat": 40.885092, "lon": -95.669159, "proficiency": 0.745, "schoolCount": 1}, {"name": "Garner-Hayfield-Ventura Comm School District", "lat": 43.094708, "lon": -93.610483, "proficiency": 0.77, "schoolCount": 1}, {"name": "George-Little Rock Comm School District", "lat": 43.341431, "lon": -95.993865, "proficiency": 0.695, "schoolCount": 1}, {"name": "Gilbert Comm School District", "lat": 42.107873, "lon": -93.635899, "proficiency": 0.87, "schoolCount": 1}, {"name": "Gladbrook-Reinbeck Comm School District", "lat": 42.320003, "lon": -92.598739, "proficiency": 0.845, "schoolCount": 1}, {"name": "Glenwood Comm School District", "lat": 41.05194, "lon": -95.735227, "proficiency": 0.77, "schoolCount": 1}, {"name": "Glidden-Ralston Comm School District", "lat": 42.061431, "lon": -94.728074, "proficiency": 0.495, "schoolCount": 1}, {"name": "Graettinger-Terril Comm School District", "lat": 43.236565, "lon": -94.755057, "proficiency": 0.495, "schoolCount": 1}, {"name": "Nodaway Valley Comm School District", "lat": 41.288367, "lon": -94.566836, "proficiency": 0.645, "schoolCount": 1}, {"name": "Grinnell-Newburg Comm School District", "lat": 41.73056, "lon": -92.716435, "proficiency": 0.82, "schoolCount": 1}, {"name": "Griswold Comm School District", "lat": 41.239675, "lon": -95.135215, "proficiency": 0.845, "schoolCount": 1}, {"name": "Grundy Center Comm School District", "lat": 42.35532, "lon": -92.777826, "proficiency": 0.95, "schoolCount": 1}, {"name": "Clayton Ridge Comm School District", "lat": 42.784358499999996, "lon": -91.09697650000001, "proficiency": 0.6575, "schoolCount": 2}, {"name": "H-L-V Comm School District", "lat": 41.729622, "lon": -92.295517, "proficiency": 0.695, "schoolCount": 1}, {"name": "Hamburg Comm School District", "lat": 40.616684, "lon": -95.652462, "proficiency": 0.75, "schoolCount": 1}, {"name": "Hampton-Dumont Comm School District", "lat": 42.751758, "lon": -93.198502, "proficiency": 0.52, "schoolCount": 1}, {"name": "Harlan Comm School District", "lat": 41.65794, "lon": -95.339369, "proficiency": 0.67, "schoolCount": 1}, {"name": "Hartley-Melvin-Sanborn Comm School District", "lat": 43.185156, "lon": -95.656601, "proficiency": 0.845, "schoolCount": 1}, {"name": "Highland  Comm School District", "lat": 41.408316, "lon": -91.541801, "proficiency": 0.845, "schoolCount": 1}, {"name": "Hinton Comm School District", "lat": 42.625326, "lon": -96.296438, "proficiency": 0.77, "schoolCount": 1}, {"name": "Howard-Winneshiek Comm School District", "lat": 43.374743, "lon": -92.103061, "proficiency": 0.82, "schoolCount": 1}, {"name": "Hubbard-Radcliffe Comm School District", "lat": 42.303906, "lon": -93.297725, "proficiency": 0.72, "schoolCount": 1}, {"name": "Hudson Comm School District", "lat": 42.400215, "lon": -92.454606, "proficiency": 0.92, "schoolCount": 1}, {"name": "Humboldt Comm School District", "lat": 42.714939, "lon": -94.228514, "proficiency": 0.77, "schoolCount": 1}, {"name": "Independence Comm School District", "lat": 42.463063, "lon": -91.916775, "proficiency": 0.77, "schoolCount": 1}, {"name": "Indianola Comm School District", "lat": 41.355693, "lon": -93.542058, "proficiency": 0.82, "schoolCount": 1}, {"name": "Interstate 35 Comm School District", "lat": 41.210678, "lon": -93.842807, "proficiency": 0.57, "schoolCount": 1}, {"name": "Iowa City Comm School District", "lat": 41.684009333333336, "lon": -91.55979233333333, "proficiency": 0.6667, "schoolCount": 3}, {"name": "Iowa Falls Comm School District", "lat": 42.524862, "lon": -93.271609, "proficiency": 0.57, "schoolCount": 1}, {"name": "Iowa Valley Comm School District", "lat": 41.799039, "lon": -92.066632, "proficiency": 0.845, "schoolCount": 1}, {"name": "IKM-Manning Comm School District", "lat": 41.903994, "lon": -95.056328, "proficiency": 0.745, "schoolCount": 1}, {"name": "Janesville Consolidated School District", "lat": 42.649899, "lon": -92.458663, "proficiency": 0.845, "schoolCount": 1}, {"name": "Greene County Comm School District", "lat": 42.001906, "lon": -94.37553, "proficiency": 0.67, "schoolCount": 1}, {"name": "Jesup Comm School District", "lat": 42.480383, "lon": -92.064688, "proficiency": 0.72, "schoolCount": 1}, {"name": "Johnston Comm School District", "lat": 41.674119, "lon": -93.705896, "proficiency": 0.83, "schoolCount": 1}, {"name": "Keokuk Comm School District", "lat": 40.412267, "lon": -91.389662, "proficiency": 0.47, "schoolCount": 1}, {"name": "Keota Comm School District", "lat": 41.370192, "lon": -91.953479, "proficiency": 0.695, "schoolCount": 1}, {"name": "Kingsley-Pierson Comm School District", "lat": 42.548155, "lon": -95.868967, "proficiency": 0.745, "schoolCount": 1}, {"name": "Knoxville Comm School District", "lat": 41.314815, "lon": -93.11654, "proficiency": 0.62, "schoolCount": 1}, {"name": "Lake Mills Comm School District", "lat": 43.415161, "lon": -93.531576, "proficiency": 0.745, "schoolCount": 1}, {"name": "Harris-Lake Park Comm School District", "lat": 43.445793, "lon": -95.3227, "proficiency": 0.9, "schoolCount": 1}, {"name": "Lamoni Comm School District", "lat": 40.624946, "lon": -93.936286, "proficiency": 0.495, "schoolCount": 1}, {"name": "Lawton-Bronson Comm School District", "lat": 42.476211, "lon": -96.174898, "proficiency": 0.745, "schoolCount": 1}, {"name": "Le Mars Comm School District", "lat": 42.780789, "lon": -96.172022, "proficiency": 0.62, "schoolCount": 1}, {"name": "Lenox Comm School District", "lat": 40.876441, "lon": -94.556797, "proficiency": 0.845, "schoolCount": 1}, {"name": "Lewis Central Comm School District", "lat": 41.221227, "lon": -95.81961, "proficiency": 0.77, "schoolCount": 1}, {"name": "North Cedar Comm School District", "lat": 41.884385, "lon": -91.059557, "proficiency": 0.745, "schoolCount": 1}, {"name": "Linn-Mar Comm School District", "lat": 42.0644135, "lon": -91.606466, "proficiency": 0.76, "schoolCount": 2}, {"name": "Lisbon Comm School District", "lat": 41.918655, "lon": -91.388729, "proficiency": 0.745, "schoolCount": 1}, {"name": "Logan-Magnolia Comm School District", "lat": 41.655784, "lon": -95.788269, "proficiency": 0.745, "schoolCount": 1}, {"name": "Lone Tree Comm School District", "lat": 41.484506, "lon": -91.426348, "proficiency": 0.645, "schoolCount": 1}, {"name": "Louisa-Muscatine Comm School District", "lat": 41.306292, "lon": -91.203478, "proficiency": 0.77, "schoolCount": 1}, {"name": "Lynnville-Sully Comm School District", "lat": 41.581846, "lon": -92.842229, "proficiency": 0.9, "schoolCount": 1}, {"name": "MFL MarMac Comm School District", "lat": 43.019459, "lon": -91.186358, "proficiency": 0.67, "schoolCount": 1}, {"name": "Madrid Comm School District", "lat": 41.883517, "lon": -93.814082, "proficiency": 0.645, "schoolCount": 1}, {"name": "East Mills Comm School District", "lat": 41.013888, "lon": -95.583588, "proficiency": 0.845, "schoolCount": 1}, {"name": "Manson Northwest Webster Comm School District", "lat": 42.535722, "lon": -94.529016, "proficiency": 0.52, "schoolCount": 1}, {"name": "Maple Valley-Anthon Oto Comm School District", "lat": 42.384696, "lon": -95.869811, "proficiency": 0.545, "schoolCount": 1}, {"name": "Maquoketa Comm School District", "lat": 42.064121, "lon": -90.664034, "proficiency": 0.52, "schoolCount": 1}, {"name": "Maquoketa Valley Comm School District", "lat": 42.426145, "lon": -91.329837, "proficiency": 0.845, "schoolCount": 1}, {"name": "Marion Independent School District", "lat": 42.031001, "lon": -91.595536, "proficiency": 0.72, "schoolCount": 1}, {"name": "Marshalltown Comm School District", "lat": 42.046665, "lon": -92.931435, "proficiency": 0.57, "schoolCount": 1}, {"name": "Martensdale-St Marys Comm School District", "lat": 41.375189, "lon": -93.738831, "proficiency": 0.745, "schoolCount": 1}, {"name": "Mason City Comm School District", "lat": 43.150775, "lon": -93.169535, "proficiency": 0.52, "schoolCount": 1}, {"name": "MOC-Floyd Valley Comm School District", "lat": 42.989799, "lon": -96.012536, "proficiency": 0.82, "schoolCount": 1}, {"name": "Mediapolis Comm School District", "lat": 41.014223, "lon": -91.161036, "proficiency": 0.82, "schoolCount": 1}, {"name": "Melcher-Dallas Comm School District", "lat": 41.221602, "lon": -93.241431, "proficiency": 0.695, "schoolCount": 1}, {"name": "Mid-Prairie Comm School District", "lat": 41.488341, "lon": -91.700929, "proficiency": 0.77, "schoolCount": 1}, {"name": "Midland Comm School District", "lat": 42.060963, "lon": -91.006766, "proficiency": 0.645, "schoolCount": 1}, {"name": "Missouri Valley Comm School District", "lat": 41.562937, "lon": -95.879942, "proficiency": 0.52, "schoolCount": 1}, {"name": "Montezuma Comm School District", "lat": 41.590303, "lon": -92.52503, "proficiency": 0.545, "schoolCount": 1}, {"name": "Monticello Comm School District", "lat": 42.229711, "lon": -91.17641, "proficiency": 0.72, "schoolCount": 1}, {"name": "Moravia Comm School District", "lat": 40.8958, "lon": -92.818482, "proficiency": 0.445, "schoolCount": 1}, {"name": "Mormon Trail Comm School District", "lat": 40.82659, "lon": -93.605099, "proficiency": 0.75, "schoolCount": 1}, {"name": "Moulton-Udell Comm School District", "lat": 40.688925, "lon": -92.674138, "proficiency": 0.75, "schoolCount": 1}, {"name": "Mount Ayr Comm School District", "lat": 40.71689, "lon": -94.227517, "proficiency": 0.845, "schoolCount": 1}, {"name": "Mount Pleasant Comm School District", "lat": 40.969867, "lon": -91.550223, "proficiency": 0.67, "schoolCount": 1}, {"name": "Mount Vernon Comm School District", "lat": 41.920262, "lon": -91.427645, "proficiency": 0.87, "schoolCount": 1}, {"name": "Murray Comm School District", "lat": 41.039155, "lon": -93.954147, "proficiency": 0.695, "schoolCount": 1}, {"name": "Muscatine Comm School District", "lat": 41.427813, "lon": -91.0724, "proficiency": 0.5, "schoolCount": 1}, {"name": "Nashua-Plainfield Comm School District", "lat": 42.949311, "lon": -92.540553, "proficiency": 0.745, "schoolCount": 1}, {"name": "Nevada Comm School District", "lat": 42.021395, "lon": -93.438809, "proficiency": 0.62, "schoolCount": 1}, {"name": "New Hampton Comm School District", "lat": 43.058768, "lon": -92.328953, "proficiency": 0.87, "schoolCount": 1}, {"name": "New London Comm School District", "lat": 40.924285, "lon": -91.401786, "proficiency": 0.845, "schoolCount": 1}, {"name": "Newell-Fonda Comm School District", "lat": 42.605499, "lon": -94.997898, "proficiency": 0.645, "schoolCount": 1}, {"name": "Newton Comm School District", "lat": 41.70503, "lon": -93.026551, "proficiency": 0.62, "schoolCount": 1}, {"name": "Central Springs Comm School District", "lat": 43.147745, "lon": -93.003798, "proficiency": 0.745, "schoolCount": 1}, {"name": "North Linn Comm School District", "lat": 42.291253, "lon": -91.661129, "proficiency": 0.745, "schoolCount": 1}, {"name": "North Kossuth Comm School District", "lat": 43.383952, "lon": -94.312862, "proficiency": 0.745, "schoolCount": 1}, {"name": "North Mahaska Comm School District", "lat": 41.459717, "lon": -92.64778, "proficiency": 0.845, "schoolCount": 1}, {"name": "North Polk Comm School District", "lat": 41.81797, "lon": -93.613954, "proficiency": 0.975, "schoolCount": 1}, {"name": "North Scott Comm School District", "lat": 41.650645, "lon": -90.589138, "proficiency": 0.77, "schoolCount": 1}, {"name": "North Tama County Comm School District", "lat": 42.188461, "lon": -92.466658, "proficiency": 0.445, "schoolCount": 1}, {"name": "Northeast Comm School District", "lat": 41.965931, "lon": -90.374634, "proficiency": 0.72, "schoolCount": 1}, {"name": "Northwood-Kensett Comm School District", "lat": 43.452358, "lon": -93.223839, "proficiency": 0.645, "schoolCount": 1}, {"name": "Norwalk Comm School District", "lat": 41.472003, "lon": -93.670793, "proficiency": 0.77, "schoolCount": 1}, {"name": "Odebolt Arthur Battle Creek Ida Grove Comm School District", "lat": 42.308057, "lon": -95.252658, "proficiency": 0.77, "schoolCount": 1}, {"name": "Oelwein Comm School District", "lat": 42.673721, "lon": -91.898162, "proficiency": 0.52, "schoolCount": 1}, {"name": "Ogden Comm School District", "lat": 42.033026, "lon": -94.036518, "proficiency": 0.745, "schoolCount": 1}, {"name": "Orient-Macksburg Comm School District", "lat": 41.200805, "lon": -94.413687, "proficiency": 0.245, "schoolCount": 1}, {"name": "Osage Comm School District", "lat": 43.277718, "lon": -92.808918, "proficiency": 0.67, "schoolCount": 1}, {"name": "Oskaloosa Comm School District", "lat": 41.308355, "lon": -92.639597, "proficiency": 0.67, "schoolCount": 1}, {"name": "Ottumwa Comm School District", "lat": 41.003289, "lon": -92.435074, "proficiency": 0.49, "schoolCount": 1}, {"name": "Paton-Churdan Comm School District", "lat": 42.159741, "lon": -94.476302, "proficiency": 0.75, "schoolCount": 1}, {"name": "Pekin Comm School District", "lat": 41.15485, "lon": -92.160838, "proficiency": 0.545, "schoolCount": 1}, {"name": "Pella Comm School District", "lat": 41.405423, "lon": -92.899919, "proficiency": 0.975, "schoolCount": 1}, {"name": "Perry Comm School District", "lat": 41.840737, "lon": -94.080785, "proficiency": 0.57, "schoolCount": 1}, {"name": "Pleasant Valley Comm School District", "lat": 41.60021, "lon": -90.392062, "proficiency": 0.85, "schoolCount": 1}, {"name": "Pleasantville Comm School District", "lat": 41.387826, "lon": -93.273057, "proficiency": 0.745, "schoolCount": 1}, {"name": "Pocahontas Area Comm School District", "lat": 42.733974, "lon": -94.67377, "proficiency": 0.745, "schoolCount": 1}, {"name": "Postville Comm School District", "lat": 43.082382, "lon": -91.573414, "proficiency": 0.67, "schoolCount": 1}, {"name": "Red Oak Comm School District", "lat": 41.023271, "lon": -95.225145, "proficiency": 0.57, "schoolCount": 1}, {"name": "Remsen-Union Comm School District", "lat": 42.809104, "lon": -95.965452, "proficiency": 0.745, "schoolCount": 1}, {"name": "Riceville Comm School District", "lat": 43.355091, "lon": -92.552944, "proficiency": 0.745, "schoolCount": 1}, {"name": "Rock Valley Comm School District", "lat": 43.208897, "lon": -96.287175, "proficiency": 0.72, "schoolCount": 1}, {"name": "Roland-Story Comm School District", "lat": 42.164494, "lon": -93.499952, "proficiency": 0.82, "schoolCount": 1}, {"name": "Rudd-Rockford-Marble Rk Comm School District", "lat": 43.051257, "lon": -92.932975, "proficiency": 0.845, "schoolCount": 1}, {"name": "Ruthven-Ayrshire Comm School District", "lat": 43.13172, "lon": -94.902159, "proficiency": 0.75, "schoolCount": 1}, {"name": "St Ansgar Comm School District", "lat": 43.37428, "lon": -92.917017, "proficiency": 0.845, "schoolCount": 1}, {"name": "Saydel Comm School District", "lat": 41.665835, "lon": -93.601764, "proficiency": 0.37, "schoolCount": 1}, {"name": "Schaller-Crestland Comm School District", "lat": 42.463899, "lon": -95.155931, "proficiency": 0.67, "schoolCount": 1}, {"name": "Schleswig Comm School District", "lat": 42.164021, "lon": -95.428394, "proficiency": 0.75, "schoolCount": 1}, {"name": "Sergeant Bluff-Luton Comm School District", "lat": 42.395508, "lon": -96.354173, "proficiency": 0.87, "schoolCount": 1}, {"name": "Seymour Comm School District", "lat": 40.681133, "lon": -93.115887, "proficiency": 0.695, "schoolCount": 1}, {"name": "West Fork Comm School District", "lat": 42.896546, "lon": -93.21816, "proficiency": 0.545, "schoolCount": 1}, {"name": "Sheldon Comm School District", "lat": 43.183713, "lon": -95.828731, "proficiency": 0.77, "schoolCount": 1}, {"name": "Shenandoah Comm School District", "lat": 40.74941, "lon": -95.359336, "proficiency": 0.52, "schoolCount": 1}, {"name": "Sidney Comm School District", "lat": 40.742461, "lon": -95.660456, "proficiency": 0.9, "schoolCount": 1}, {"name": "Sigourney Comm School District", "lat": 41.328842, "lon": -92.194041, "proficiency": 0.845, "schoolCount": 1}, {"name": "Sioux Center Comm School District", "lat": 43.087138, "lon": -96.166977, "proficiency": 0.77, "schoolCount": 1}, {"name": "Sioux City Comm School District", "lat": 42.504507999999994, "lon": -96.390623, "proficiency": 0.5933, "schoolCount": 3}, {"name": "Solon Comm School District", "lat": 41.803452, "lon": -91.504964, "proficiency": 0.87, "schoolCount": 1}, {"name": "South Hamilton Comm School District", "lat": 42.301927, "lon": -93.646038, "proficiency": 0.745, "schoolCount": 1}, {"name": "South Page Comm School District", "lat": 40.62117, "lon": -95.119844, "proficiency": 0.75, "schoolCount": 1}, {"name": "South Tama County", "lat": 41.993995, "lon": -92.575194, "proficiency": 0.47, "schoolCount": 1}, {"name": "South Winneshiek Comm School District", "lat": 43.142952, "lon": -91.76279, "proficiency": 0.645, "schoolCount": 1}, {"name": "Southeast Polk Comm School District", "lat": 41.599179, "lon": -93.438122, "proficiency": 0.77, "schoolCount": 1}, {"name": "Southeast Warren Comm School District", "lat": 41.205546, "lon": -93.496523, "proficiency": 0.745, "schoolCount": 1}, {"name": "Spencer Comm School District", "lat": 43.152357, "lon": -95.129451, "proficiency": 0.87, "schoolCount": 1}, {"name": "Spirit Lake Comm School District", "lat": 43.413716, "lon": -95.099427, "proficiency": 0.72, "schoolCount": 1}, {"name": "Springville Comm School District", "lat": 42.055513, "lon": -91.445102, "proficiency": 0.645, "schoolCount": 1}, {"name": "Stanton Comm School District", "lat": 40.984612, "lon": -95.100782, "proficiency": 0.9, "schoolCount": 1}, {"name": "Starmont Comm School District", "lat": 42.688845, "lon": -91.648188, "proficiency": 0.545, "schoolCount": 1}, {"name": "Storm Lake Comm School District", "lat": 42.648857, "lon": -95.226852, "proficiency": 0.62, "schoolCount": 1}, {"name": "West Central Valley Comm School District", "lat": 41.592803, "lon": -94.193336, "proficiency": 0.77, "schoolCount": 1}, {"name": "Sumner-Fredericksburg Comm School District", "lat": 42.965872, "lon": -92.195452, "proficiency": 0.72, "schoolCount": 1}, {"name": "Tipton Comm School District", "lat": 41.770877, "lon": -91.139436, "proficiency": 0.72, "schoolCount": 1}, {"name": "Treynor Comm School District", "lat": 41.231601, "lon": -95.607947, "proficiency": 0.845, "schoolCount": 1}, {"name": "Tri-Center Comm School District", "lat": 41.504743, "lon": -95.594969, "proficiency": 0.745, "schoolCount": 1}, {"name": "Tri-County Comm School District", "lat": 41.45288, "lon": -92.335024, "proficiency": 0.75, "schoolCount": 1}, {"name": "Tripoli Comm School District", "lat": 42.801009, "lon": -92.260488, "proficiency": 0.495, "schoolCount": 1}, {"name": "Turkey Valley Comm School District", "lat": 43.110262, "lon": -92.035344, "proficiency": 0.645, "schoolCount": 1}, {"name": "Twin Cedars Comm School District", "lat": 41.21788, "lon": -92.926981, "proficiency": 0.495, "schoolCount": 1}, {"name": "Underwood Comm School District", "lat": 41.385139, "lon": -95.682469, "proficiency": 0.77, "schoolCount": 1}, {"name": "Urbandale Comm School District", "lat": 41.638234, "lon": -93.724408, "proficiency": 0.72, "schoolCount": 1}, {"name": "Van Buren County Comm School District", "lat": 40.730627, "lon": -91.967871, "proficiency": 0.645, "schoolCount": 1}, {"name": "Van Meter Comm School District", "lat": 41.528966, "lon": -93.953016, "proficiency": 0.77, "schoolCount": 1}, {"name": "Villisca Comm School District", "lat": 40.929994, "lon": -94.975173, "proficiency": 0.545, "schoolCount": 1}, {"name": "Vinton-Shellsburg Comm School District", "lat": 42.15662, "lon": -92.026894, "proficiency": 0.87, "schoolCount": 1}, {"name": "Waco Comm School District", "lat": 41.153451, "lon": -91.660187, "proficiency": 0.745, "schoolCount": 1}, {"name": "East Sac County Comm School District", "lat": 42.419606, "lon": -94.997737, "proficiency": 0.645, "schoolCount": 1}, {"name": "Wapello Comm School District", "lat": 41.179686, "lon": -91.189038, "proficiency": 0.345, "schoolCount": 1}, {"name": "Wapsie Valley Comm School District", "lat": 42.680782, "lon": -92.139664, "proficiency": 0.845, "schoolCount": 1}, {"name": "Washington Comm School District", "lat": 41.296895, "lon": -91.688732, "proficiency": 0.57, "schoolCount": 1}, {"name": "Waterloo Comm School District", "lat": 42.490033800000006, "lon": -92.3365278, "proficiency": 0.516, "schoolCount": 5}, {"name": "Waukee Comm School District", "lat": 41.5925555, "lon": -93.864046, "proficiency": 0.75, "schoolCount": 2}, {"name": "Waverly-Shell Rock Comm School District", "lat": 42.720697, "lon": -92.492587, "proficiency": 0.77, "schoolCount": 1}, {"name": "Wayne Comm School District", "lat": 40.757921, "lon": -93.32111, "proficiency": 0.645, "schoolCount": 1}, {"name": "Webster City Comm School District", "lat": 42.465617, "lon": -93.822651, "proficiency": 0.67, "schoolCount": 1}, {"name": "West Bend-Mallard Comm School District", "lat": 42.957912, "lon": -94.449642, "proficiency": 0.695, "schoolCount": 1}, {"name": "West Branch Comm School District", "lat": 41.669596, "lon": -91.363784, "proficiency": 0.745, "schoolCount": 1}, {"name": "West Central Comm School District", "lat": 42.770363, "lon": -91.880635, "proficiency": 0.495, "schoolCount": 1}, {"name": "West Delaware County Comm School District", "lat": 42.495144, "lon": -91.45061, "proficiency": 0.82, "schoolCount": 1}, {"name": "West Des Moines Comm School District", "lat": 41.590706499999996, "lon": -93.73646099999999, "proficiency": 0.7, "schoolCount": 2}, {"name": "West Harrison Comm School District", "lat": 41.709141, "lon": -96.018358, "proficiency": 0.695, "schoolCount": 1}, {"name": "West Liberty Comm School District", "lat": 41.574904, "lon": -91.261742, "proficiency": 0.67, "schoolCount": 1}, {"name": "West Lyon Comm School District", "lat": 43.392008, "lon": -96.430094, "proficiency": 0.87, "schoolCount": 1}, {"name": "West Marshall Comm School District", "lat": 42.019749, "lon": -93.171853, "proficiency": 0.77, "schoolCount": 1}, {"name": "West Monona Comm School District", "lat": 42.022319, "lon": -96.104918, "proficiency": 0.545, "schoolCount": 1}, {"name": "West Sioux Comm School District", "lat": 43.001013, "lon": -96.473058, "proficiency": 0.62, "schoolCount": 1}, {"name": "Western Dubuque Comm School District", "lat": 42.372461, "lon": -91.010379, "proficiency": 0.835, "schoolCount": 2}, {"name": "Westwood Comm School District", "lat": 42.2301, "lon": -96.217042, "proficiency": 0.845, "schoolCount": 1}, {"name": "Whiting Comm School District", "lat": 42.12662, "lon": -96.156393, "proficiency": 0.75, "schoolCount": 1}, {"name": "Williamsburg Comm School District", "lat": 41.662939, "lon": -92.019379, "proficiency": 0.82, "schoolCount": 1}, {"name": "Wilton Comm School District", "lat": 41.59548, "lon": -91.010613, "proficiency": 0.77, "schoolCount": 1}, {"name": "Winfield-Mt Union Comm School District", "lat": 41.126591, "lon": -91.439979, "proficiency": 0.495, "schoolCount": 1}, {"name": "Winterset Comm School District", "lat": 41.325499, "lon": -94.021827, "proficiency": 0.82, "schoolCount": 1}, {"name": "Woodbine Comm School District", "lat": 41.737708, "lon": -95.707219, "proficiency": 0.745, "schoolCount": 1}, {"name": "Woodbury Central Comm School District", "lat": 42.48383, "lon": -96.068149, "proficiency": 0.645, "schoolCount": 1}, {"name": "Woodward-Granger Comm School District", "lat": 41.85586, "lon": -93.926097, "proficiency": 0.87, "schoolCount": 1}, {"name": "PCM Comm School District", "lat": 41.594385, "lon": -93.231399, "proficiency": 0.77, "schoolCount": 1}, {"name": "Southeast Webster Grand Comm School District", "lat": 42.342073, "lon": -94.10595, "proficiency": 0.67, "schoolCount": 1}], "cities": [{"name": "Elgin", "lat": 42.97219, "lon": -91.654291, "proficiency": 0.67, "schoolCount": 1}, {"name": "Colfax", "lat": 41.678589, "lon": -93.231292, "proficiency": 0.47, "schoolCount": 1}, {"name": "Sibley", "lat": 43.405352, "lon": -95.735529, "proficiency": 0.845, "schoolCount": 1}, {"name": "Milford", "lat": 43.321954, "lon": -95.161685, "proficiency": 0.975, "schoolCount": 1}, {"name": "Dysart", "lat": 42.169236, "lon": -92.315112, "proficiency": 0.82, "schoolCount": 1}, {"name": "Sioux Rapids", "lat": 42.874172, "lon": -95.149322, "proficiency": 0.745, "schoolCount": 1}, {"name": "Rockwell City", "lat": 42.392608, "lon": -94.645338, "proficiency": 0.745, "schoolCount": 1}, {"name": "Panora", "lat": 41.692589, "lon": -94.375142, "proficiency": 0.845, "schoolCount": 1}, {"name": "Paullina", "lat": 42.977385, "lon": -95.690881, "proficiency": 0.745, "schoolCount": 1}, {"name": "Oakland", "lat": 41.288034, "lon": -95.39905, "proficiency": 0.745, "schoolCount": 1}, {"name": "Gilman", "lat": 41.878032, "lon": -92.784051, "proficiency": 0.57, "schoolCount": 1}, {"name": "Garwin", "lat": 42.095128, "lon": -92.674979, "proficiency": 0.645, "schoolCount": 1}, {"name": "Wellsburg", "lat": 42.432756, "lon": -92.931175, "proficiency": 0.545, "schoolCount": 1}, {"name": "Adair", "lat": 41.520409, "lon": -94.583675, "proficiency": 0.845, "schoolCount": 1}, {"name": "Adel", "lat": 41.609816, "lon": -94.014544, "proficiency": 0.92, "schoolCount": 1}, {"name": "Akron", "lat": 42.83251, "lon": -96.549247, "proficiency": 0.845, "schoolCount": 1}, {"name": "Albia", "lat": 41.029971, "lon": -92.802888, "proficiency": 0.72, "schoolCount": 1}, {"name": "Alburnett", "lat": 42.150256, "lon": -91.619708, "proficiency": 0.72, "schoolCount": 1}, {"name": "Algona", "lat": 43.063584, "lon": -94.223945, "proficiency": 0.77, "schoolCount": 1}, {"name": "Waukon", "lat": 43.27264, "lon": -91.491072, "proficiency": 0.67, "schoolCount": 1}, {"name": "Greene", "lat": 42.899207, "lon": -92.799725, "proficiency": 0.745, "schoolCount": 1}, {"name": "Aurelia", "lat": 42.713978, "lon": -95.428992, "proficiency": 0.845, "schoolCount": 1}, {"name": "Ames", "lat": 42.013376, "lon": -93.6708, "proficiency": 0.72, "schoolCount": 1}, {"name": "Anamosa", "lat": 42.116547, "lon": -91.271825, "proficiency": 0.77, "schoolCount": 1}, {"name": "Ankeny", "lat": 41.7311105, "lon": -93.6057675, "proficiency": 0.795, "schoolCount": 2}, {"name": "Aplington", "lat": 42.579574, "lon": -92.885259, "proficiency": 0.745, "schoolCount": 1}, {"name": "Westside", "lat": 42.075206, "lon": -95.101263, "proficiency": 0.695, "schoolCount": 1}, {"name": "Atlantic", "lat": 41.3993, "lon": -95.006319, "proficiency": 0.72, "schoolCount": 1}, {"name": "Audubon", "lat": 41.71254, "lon": -94.921665, "proficiency": 0.745, "schoolCount": 1}, {"name": "Avoca", "lat": 41.46948, "lon": -95.341794, "proficiency": 0.845, "schoolCount": 1}, {"name": "Huxley", "lat": 41.897731, "lon": -93.607134, "proficiency": 0.92, "schoolCount": 1}, {"name": "Baxter", "lat": 41.826759, "lon": -93.149005, "proficiency": 0.745, "schoolCount": 1}, {"name": "Union", "lat": 42.24394, "lon": -93.068314, "proficiency": 0.645, "schoolCount": 1}, {"name": "Bedford", "lat": 40.671028, "lon": -94.723194, "proficiency": 0.695, "schoolCount": 1}, {"name": "Belle Plaine", "lat": 41.889763, "lon": -92.269443, "proficiency": 0.645, "schoolCount": 1}, {"name": "Bellevue", "lat": 42.2544, "lon": -90.4439, "proficiency": 0.745, "schoolCount": 1}, {"name": "Belmond", "lat": 42.849346, "lon": -93.604231, "proficiency": 0.545, "schoolCount": 1}, {"name": "Van Horne", "lat": 42.01279, "lon": -92.087156, "proficiency": 0.62, "schoolCount": 1}, {"name": "Bettendorf", "lat": 41.547136, "lon": -90.503204, "proficiency": 0.78, "schoolCount": 1}, {"name": "Eddyville", "lat": 41.160581, "lon": -92.615148, "proficiency": 0.545, "schoolCount": 1}, {"name": "Bondurant", "lat": 41.698361, "lon": -93.465345, "proficiency": 0.77, "schoolCount": 1}, {"name": "Boone", "lat": 42.054868, "lon": -93.866617, "proficiency": 0.57, "schoolCount": 1}, {"name": "Hull", "lat": 43.189112, "lon": -96.136697, "proficiency": 0.745, "schoolCount": 1}, {"name": "Kanawha", "lat": 42.937058, "lon": -93.787057, "proficiency": 0.745, "schoolCount": 1}, {"name": "Brooklyn", "lat": 41.738385, "lon": -92.44721, "proficiency": 0.645, "schoolCount": 1}, {"name": "Buffalo Center", "lat": 43.388863, "lon": -93.948149, "proficiency": 0.695, "schoolCount": 1}, {"name": "Burlington", "lat": 40.796454, "lon": -91.13623, "proficiency": 0.32, "schoolCount": 1}, {"name": "Massena", "lat": 41.256504, "lon": -94.767271, "proficiency": 0.545, "schoolCount": 1}, {"name": "Anita", "lat": 41.445338, "lon": -94.767633, "proficiency": 0.77, "schoolCount": 1}, {"name": "Wheatland", "lat": 41.837213, "lon": -90.838936, "proficiency": 0.645, "schoolCount": 1}, {"name": "Camanche", "lat": 41.78716, "lon": -90.261949, "proficiency": 0.77, "schoolCount": 1}, {"name": "Eldon", "lat": 40.96112, "lon": -92.237595, "proficiency": 0.52, "schoolCount": 1}, {"name": "Carlisle", "lat": 41.497542, "lon": -93.501529, "proficiency": 0.67, "schoolCount": 1}, {"name": "Carroll", "lat": 42.095135, "lon": -94.861142, "proficiency": 0.82, "schoolCount": 1}, {"name": "Cedar Falls", "lat": 42.524227499999995, "lon": -92.45532, "proficiency": 0.795, "schoolCount": 2}, {"name": "Cedar Rapids", "lat": 41.973498428571425, "lon": -91.67101428571428, "proficiency": 0.5329, "schoolCount": 7}, {"name": "Center Point", "lat": 42.189029, "lon": -91.785985, "proficiency": 0.87, "schoolCount": 1}, {"name": "Centerville", "lat": 40.725275, "lon": -92.877035, "proficiency": 0.67, "schoolCount": 1}, {"name": "Central City", "lat": 42.208877, "lon": -91.52593, "proficiency": 0.645, "schoolCount": 1}, {"name": "De Witt", "lat": 41.825123, "lon": -90.526901, "proficiency": 0.87, "schoolCount": 1}, {"name": "Elkader", "lat": 42.856701, "lon": -91.407579, "proficiency": 0.345, "schoolCount": 1}, {"name": "Leon", "lat": 40.74797, "lon": -93.74064, "proficiency": 0.745, "schoolCount": 1}, {"name": "Donnellson", "lat": 40.576279, "lon": -91.515129, "proficiency": 0.77, "schoolCount": 1}, {"name": "Chariton", "lat": 41.029984, "lon": -93.316326, "proficiency": 0.67, "schoolCount": 1}, {"name": "Charles City", "lat": 43.062698, "lon": -92.655686, "proficiency": 0.67, "schoolCount": 1}, {"name": "Charter Oak", "lat": 42.065704, "lon": -95.590777, "proficiency": 0.695, "schoolCount": 1}, {"name": "Cherokee", "lat": 42.766114, "lon": -95.54966, "proficiency": 0.82, "schoolCount": 1}, {"name": "Clarinda", "lat": 40.739219, "lon": -95.049557, "proficiency": 0.57, "schoolCount": 1}, {"name": "Clarion", "lat": 42.7353, "lon": -93.729413, "proficiency": 0.82, "schoolCount": 1}, {"name": "Osceola", "lat": 41.044039, "lon": -93.770676, "proficiency": 0.52, "schoolCount": 1}, {"name": "Clarksville", "lat": 42.786918, "lon": -92.665542, "proficiency": 0.695, "schoolCount": 1}, {"name": "Tiffin", "lat": 41.706441, "lon": -91.668697, "proficiency": 0.82, "schoolCount": 1}, {"name": "Clear Lake", "lat": 43.139836, "lon": -93.368171, "proficiency": 0.62, "schoolCount": 1}, {"name": "Clinton", "lat": 41.861827, "lon": -90.220272, "proficiency": 0.52, "schoolCount": 1}, {"name": "Maxwell", "lat": 41.890615, "lon": -93.397327, "proficiency": 0.495, "schoolCount": 1}, {"name": "Colo", "lat": 42.010474, "lon": -93.317354, "proficiency": 0.745, "schoolCount": 1}, {"name": "Columbus Junction", "lat": 41.270016, "lon": -91.367052, "proficiency": 0.645, "schoolCount": 1}, {"name": "Coon Rapids", "lat": 41.878151, "lon": -94.681496, "proficiency": 0.745, "schoolCount": 1}, {"name": "Council Bluffs", "lat": 41.254288333333335, "lon": -95.841942, "proficiency": 0.6133, "schoolCount": 3}, {"name": "Creston", "lat": 41.076823, "lon": -94.37247, "proficiency": 0.62, "schoolCount": 1}, {"name": "Grimes", "lat": 41.677644, "lon": -93.816135, "proficiency": 0.82, "schoolCount": 1}, {"name": "Danville", "lat": 40.860391, "lon": -91.316021, "proficiency": 0.845, "schoolCount": 1}, {"name": "Davenport", "lat": 41.548616, "lon": -90.59049175, "proficiency": 0.3575, "schoolCount": 4}, {"name": "Walcott", "lat": 41.586799, "lon": -90.767345, "proficiency": 0.62, "schoolCount": 1}, {"name": "Bloomfield", "lat": 40.755248, "lon": -92.407761, "proficiency": 0.67, "schoolCount": 1}, {"name": "Decorah", "lat": 43.300864, "lon": -91.787904, "proficiency": 0.82, "schoolCount": 1}, {"name": "Denison", "lat": 42.032059, "lon": -95.351805, "proficiency": 0.77, "schoolCount": 1}, {"name": "Denver", "lat": 42.66499, "lon": -92.324492, "proficiency": 0.975, "schoolCount": 1}, {"name": "Des Moines", "lat": 41.598460583333335, "lon": -93.62653966666666, "proficiency": 0.4808, "schoolCount": 12}, {"name": "Diagonal", "lat": 40.80719, "lon": -94.343733, "proficiency": 0.245, "schoolCount": 1}, {"name": "New Hartford", "lat": 42.570012, "lon": -92.61936, "proficiency": 0.92, "schoolCount": 1}, {"name": "Dubuque", "lat": 42.50649666666667, "lon": -90.70161666666667, "proficiency": 0.63, "schoolCount": 3}, {"name": "Dunkerton", "lat": 42.567256, "lon": -92.159942, "proficiency": 0.645, "schoolCount": 1}, {"name": "Dunlap", "lat": 41.853733, "lon": -95.595561, "proficiency": 0.695, "schoolCount": 1}, {"name": "Durant", "lat": 41.604002, "lon": -90.912985, "proficiency": 0.645, "schoolCount": 1}, {"name": "Eagle Grove", "lat": 42.66712, "lon": -93.914927, "proficiency": 0.62, "schoolCount": 1}, {"name": "Earlham", "lat": 41.495753, "lon": -94.12362, "proficiency": 0.745, "schoolCount": 1}, {"name": "Winthrop", "lat": 42.475854, "lon": -91.737321, "proficiency": 0.645, "schoolCount": 1}, {"name": "Preston", "lat": 42.047518, "lon": -90.398375, "proficiency": 0.745, "schoolCount": 1}, {"name": "Correctionville", "lat": 42.480129, "lon": -95.779451, "proficiency": 0.695, "schoolCount": 1}, {"name": "Afton", "lat": 41.024802, "lon": -94.179783, "proficiency": 0.645, "schoolCount": 1}, {"name": "Lansing", "lat": 43.360336, "lon": -91.222044, "proficiency": 0.9, "schoolCount": 1}, {"name": "Edgewood", "lat": 42.644887, "lon": -91.4052, "proficiency": 0.545, "schoolCount": 1}, {"name": "Emmetsburg", "lat": 43.117707, "lon": -94.693004, "proficiency": 0.745, "schoolCount": 1}, {"name": "North English", "lat": 41.515366, "lon": -92.087886, "proficiency": 0.495, "schoolCount": 1}, {"name": "Essex", "lat": 40.829721, "lon": -95.309002, "proficiency": 0.245, "schoolCount": 1}, {"name": "Estherville", "lat": 43.400762, "lon": -94.825133, "proficiency": 0.57, "schoolCount": 1}, {"name": "Elk Horn", "lat": 41.590862, "lon": -95.05701, "proficiency": 0.9, "schoolCount": 1}, {"name": "Fairfield", "lat": 40.994211, "lon": -91.969718, "proficiency": 0.72, "schoolCount": 1}, {"name": "Forest City", "lat": 43.265915, "lon": -93.6489, "proficiency": 0.87, "schoolCount": 1}, {"name": "Fort Dodge", "lat": 42.514311, "lon": -94.153382, "proficiency": 0.42, "schoolCount": 1}, {"name": "Fort Madison", "lat": 40.633203, "lon": -91.369241, "proficiency": 0.62, "schoolCount": 1}, {"name": "Tabor", "lat": 40.885092, "lon": -95.669159, "proficiency": 0.745, "schoolCount": 1}, {"name": "Garner", "lat": 43.094708, "lon": -93.610483, "proficiency": 0.77, "schoolCount": 1}, {"name": "George", "lat": 43.341431, "lon": -95.993865, "proficiency": 0.695, "schoolCount": 1}, {"name": "Gilbert", "lat": 42.107873, "lon": -93.635899, "proficiency": 0.87, "schoolCount": 1}, {"name": "Reinbeck", "lat": 42.320003, "lon": -92.598739, "proficiency": 0.845, "schoolCount": 1}, {"name": "Glenwood", "lat": 41.05194, "lon": -95.735227, "proficiency": 0.77, "schoolCount": 1}, {"name": "Glidden", "lat": 42.061431, "lon": -94.728074, "proficiency": 0.495, "schoolCount": 1}, {"name": "Graettinger", "lat": 43.236565, "lon": -94.755057, "proficiency": 0.495, "schoolCount": 1}, {"name": "Fontanelle", "lat": 41.288367, "lon": -94.566836, "proficiency": 0.645, "schoolCount": 1}, {"name": "Grinnell", "lat": 41.73056, "lon": -92.716435, "proficiency": 0.82, "schoolCount": 1}, {"name": "Griswold", "lat": 41.239675, "lon": -95.135215, "proficiency": 0.845, "schoolCount": 1}, {"name": "Grundy Center", "lat": 42.35532, "lon": -92.777826, "proficiency": 0.95, "schoolCount": 1}, {"name": "Guttenberg", "lat": 42.784358499999996, "lon": -91.09697650000001, "proficiency": 0.6575, "schoolCount": 2}, {"name": "Victor", "lat": 41.729622, "lon": -92.295517, "proficiency": 0.695, "schoolCount": 1}, {"name": "Hamburg", "lat": 40.616684, "lon": -95.652462, "proficiency": 0.75, "schoolCount": 1}, {"name": "Hampton", "lat": 42.751758, "lon": -93.198502, "proficiency": 0.52, "schoolCount": 1}, {"name": "Harlan", "lat": 41.65794, "lon": -95.339369, "proficiency": 0.67, "schoolCount": 1}, {"name": "Sanborn", "lat": 43.185156, "lon": -95.656601, "proficiency": 0.845, "schoolCount": 1}, {"name": "Riverside", "lat": 41.408316, "lon": -91.541801, "proficiency": 0.845, "schoolCount": 1}, {"name": "Hinton", "lat": 42.625326, "lon": -96.296438, "proficiency": 0.77, "schoolCount": 1}, {"name": "Cresco", "lat": 43.374743, "lon": -92.103061, "proficiency": 0.82, "schoolCount": 1}, {"name": "Hubbard", "lat": 42.303906, "lon": -93.297725, "proficiency": 0.72, "schoolCount": 1}, {"name": "Hudson", "lat": 42.400215, "lon": -92.454606, "proficiency": 0.92, "schoolCount": 1}, {"name": "Humboldt", "lat": 42.714939, "lon": -94.228514, "proficiency": 0.77, "schoolCount": 1}, {"name": "Independence", "lat": 42.463063, "lon": -91.916775, "proficiency": 0.77, "schoolCount": 1}, {"name": "Indianola", "lat": 41.355693, "lon": -93.542058, "proficiency": 0.82, "schoolCount": 1}, {"name": "Truro", "lat": 41.210678, "lon": -93.842807, "proficiency": 0.57, "schoolCount": 1}, {"name": "Coralville", "lat": 41.682792, "lon": -91.583897, "proficiency": 0.65, "schoolCount": 1}, {"name": "Iowa City", "lat": 41.645302, "lon": -91.499699, "proficiency": 0.63, "schoolCount": 1}, {"name": "North Liberty", "lat": 41.723934, "lon": -91.595781, "proficiency": 0.72, "schoolCount": 1}, {"name": "Iowa Falls", "lat": 42.524862, "lon": -93.271609, "proficiency": 0.57, "schoolCount": 1}, {"name": "Marengo", "lat": 41.799039, "lon": -92.066632, "proficiency": 0.845, "schoolCount": 1}, {"name": "Manning", "lat": 41.903994, "lon": -95.056328, "proficiency": 0.745, "schoolCount": 1}, {"name": "Janesville", "lat": 42.649899, "lon": -92.458663, "proficiency": 0.845, "schoolCount": 1}, {"name": "Jefferson", "lat": 42.001906, "lon": -94.37553, "proficiency": 0.67, "schoolCount": 1}, {"name": "Jesup", "lat": 42.480383, "lon": -92.064688, "proficiency": 0.72, "schoolCount": 1}, {"name": "Johnston", "lat": 41.674119, "lon": -93.705896, "proficiency": 0.83, "schoolCount": 1}, {"name": "Keokuk", "lat": 40.412267, "lon": -91.389662, "proficiency": 0.47, "schoolCount": 1}, {"name": "Keota", "lat": 41.370192, "lon": -91.953479, "proficiency": 0.695, "schoolCount": 1}, {"name": "Pierson", "lat": 42.548155, "lon": -95.868967, "proficiency": 0.745, "schoolCount": 1}, {"name": "Knoxville", "lat": 41.314815, "lon": -93.11654, "proficiency": 0.62, "schoolCount": 1}, {"name": "Lake Mills", "lat": 43.415161, "lon": -93.531576, "proficiency": 0.745, "schoolCount": 1}, {"name": "Lake Park", "lat": 43.445793, "lon": -95.3227, "proficiency": 0.9, "schoolCount": 1}, {"name": "Lamoni", "lat": 40.624946, "lon": -93.936286, "proficiency": 0.495, "schoolCount": 1}, {"name": "Lawton", "lat": 42.476211, "lon": -96.174898, "proficiency": 0.745, "schoolCount": 1}, {"name": "Le Mars", "lat": 42.780789, "lon": -96.172022, "proficiency": 0.62, "schoolCount": 1}, {"name": "Lenox", "lat": 40.876441, "lon": -94.556797, "proficiency": 0.845, "schoolCount": 1}, {"name": "Clarence", "lat": 41.884385, "lon": -91.059557, "proficiency": 0.745, "schoolCount": 1}, {"name": "Marion", "lat": 42.053276000000004, "lon": -91.60282266666667, "proficiency": 0.7467, "schoolCount": 3}, {"name": "Lisbon", "lat": 41.918655, "lon": -91.388729, "proficiency": 0.745, "schoolCount": 1}, {"name": "Logan", "lat": 41.655784, "lon": -95.788269, "proficiency": 0.745, "schoolCount": 1}, {"name": "Lone Tree", "lat": 41.484506, "lon": -91.426348, "proficiency": 0.645, "schoolCount": 1}, {"name": "Letts", "lat": 41.306292, "lon": -91.203478, "proficiency": 0.77, "schoolCount": 1}, {"name": "Sully", "lat": 41.581846, "lon": -92.842229, "proficiency": 0.9, "schoolCount": 1}, {"name": "Mcgregor", "lat": 43.019459, "lon": -91.186358, "proficiency": 0.67, "schoolCount": 1}, {"name": "Madrid", "lat": 41.883517, "lon": -93.814082, "proficiency": 0.645, "schoolCount": 1}, {"name": "Hastings", "lat": 41.013888, "lon": -95.583588, "proficiency": 0.845, "schoolCount": 1}, {"name": "Manson", "lat": 42.535722, "lon": -94.529016, "proficiency": 0.52, "schoolCount": 1}, {"name": "Anthon", "lat": 42.384696, "lon": -95.869811, "proficiency": 0.545, "schoolCount": 1}, {"name": "Maquoketa", "lat": 42.064121, "lon": -90.664034, "proficiency": 0.52, "schoolCount": 1}, {"name": "Delhi", "lat": 42.426145, "lon": -91.329837, "proficiency": 0.845, "schoolCount": 1}, {"name": "Marshalltown", "lat": 42.046665, "lon": -92.931435, "proficiency": 0.57, "schoolCount": 1}, {"name": "Martensdale", "lat": 41.375189, "lon": -93.738831, "proficiency": 0.745, "schoolCount": 1}, {"name": "Mason City", "lat": 43.150775, "lon": -93.169535, "proficiency": 0.52, "schoolCount": 1}, {"name": "Alton", "lat": 42.989799, "lon": -96.012536, "proficiency": 0.82, "schoolCount": 1}, {"name": "Mediapolis", "lat": 41.014223, "lon": -91.161036, "proficiency": 0.82, "schoolCount": 1}, {"name": "Melcher", "lat": 41.221602, "lon": -93.241431, "proficiency": 0.695, "schoolCount": 1}, {"name": "Kalona", "lat": 41.488341, "lon": -91.700929, "proficiency": 0.77, "schoolCount": 1}, {"name": "Wyoming", "lat": 42.060963, "lon": -91.006766, "proficiency": 0.645, "schoolCount": 1}, {"name": "Missouri Valley", "lat": 41.562937, "lon": -95.879942, "proficiency": 0.52, "schoolCount": 1}, {"name": "Montezuma", "lat": 41.590303, "lon": -92.52503, "proficiency": 0.545, "schoolCount": 1}, {"name": "Monticello", "lat": 42.229711, "lon": -91.17641, "proficiency": 0.72, "schoolCount": 1}, {"name": "Moravia", "lat": 40.8958, "lon": -92.818482, "proficiency": 0.445, "schoolCount": 1}, {"name": "Garden Grove", "lat": 40.82659, "lon": -93.605099, "proficiency": 0.75, "schoolCount": 1}, {"name": "Moulton", "lat": 40.688925, "lon": -92.674138, "proficiency": 0.75, "schoolCount": 1}, {"name": "Mount Ayr", "lat": 40.71689, "lon": -94.227517, "proficiency": 0.845, "schoolCount": 1}, {"name": "Mount Pleasant", "lat": 40.969867, "lon": -91.550223, "proficiency": 0.67, "schoolCount": 1}, {"name": "Mount Vernon", "lat": 41.920262, "lon": -91.427645, "proficiency": 0.87, "schoolCount": 1}, {"name": "Murray", "lat": 41.039155, "lon": -93.954147, "proficiency": 0.695, "schoolCount": 1}, {"name": "Muscatine", "lat": 41.427813, "lon": -91.0724, "proficiency": 0.5, "schoolCount": 1}, {"name": "Nashua", "lat": 42.949311, "lon": -92.540553, "proficiency": 0.745, "schoolCount": 1}, {"name": "Nevada", "lat": 42.021395, "lon": -93.438809, "proficiency": 0.62, "schoolCount": 1}, {"name": "New Hampton", "lat": 43.058768, "lon": -92.328953, "proficiency": 0.87, "schoolCount": 1}, {"name": "New London", "lat": 40.924285, "lon": -91.401786, "proficiency": 0.845, "schoolCount": 1}, {"name": "Newell", "lat": 42.605499, "lon": -94.997898, "proficiency": 0.645, "schoolCount": 1}, {"name": "Newton", "lat": 41.70503, "lon": -93.026551, "proficiency": 0.62, "schoolCount": 1}, {"name": "Nora Springs", "lat": 43.147745, "lon": -93.003798, "proficiency": 0.745, "schoolCount": 1}, {"name": "Troy Mills", "lat": 42.291253, "lon": -91.661129, "proficiency": 0.745, "schoolCount": 1}, {"name": "Swea City", "lat": 43.383952, "lon": -94.312862, "proficiency": 0.745, "schoolCount": 1}, {"name": "New Sharon", "lat": 41.459717, "lon": -92.64778, "proficiency": 0.845, "schoolCount": 1}, {"name": "Alleman", "lat": 41.81797, "lon": -93.613954, "proficiency": 0.975, "schoolCount": 1}, {"name": "Eldridge", "lat": 41.650645, "lon": -90.589138, "proficiency": 0.77, "schoolCount": 1}, {"name": "Traer", "lat": 42.188461, "lon": -92.466658, "proficiency": 0.445, "schoolCount": 1}, {"name": "Goose Lake", "lat": 41.965931, "lon": -90.374634, "proficiency": 0.72, "schoolCount": 1}, {"name": "Northwood", "lat": 43.452358, "lon": -93.223839, "proficiency": 0.645, "schoolCount": 1}, {"name": "Norwalk", "lat": 41.472003, "lon": -93.670793, "proficiency": 0.77, "schoolCount": 1}, {"name": "Odebolt", "lat": 42.308057, "lon": -95.252658, "proficiency": 0.77, "schoolCount": 1}, {"name": "Oelwein", "lat": 42.673721, "lon": -91.898162, "proficiency": 0.52, "schoolCount": 1}, {"name": "Ogden", "lat": 42.033026, "lon": -94.036518, "proficiency": 0.745, "schoolCount": 1}, {"name": "Orient", "lat": 41.200805, "lon": -94.413687, "proficiency": 0.245, "schoolCount": 1}, {"name": "Osage", "lat": 43.277718, "lon": -92.808918, "proficiency": 0.67, "schoolCount": 1}, {"name": "Oskaloosa", "lat": 41.308355, "lon": -92.639597, "proficiency": 0.67, "schoolCount": 1}, {"name": "Ottumwa", "lat": 41.003289, "lon": -92.435074, "proficiency": 0.49, "schoolCount": 1}, {"name": "Churdan", "lat": 42.159741, "lon": -94.476302, "proficiency": 0.75, "schoolCount": 1}, {"name": "Packwood", "lat": 41.15485, "lon": -92.160838, "proficiency": 0.545, "schoolCount": 1}, {"name": "Pella", "lat": 41.405423, "lon": -92.899919, "proficiency": 0.975, "schoolCount": 1}, {"name": "Perry", "lat": 41.840737, "lon": -94.080785, "proficiency": 0.57, "schoolCount": 1}, {"name": "LeClaire", "lat": 41.60021, "lon": -90.392062, "proficiency": 0.85, "schoolCount": 1}, {"name": "Pleasantville", "lat": 41.387826, "lon": -93.273057, "proficiency": 0.745, "schoolCount": 1}, {"name": "Pocahontas", "lat": 42.733974, "lon": -94.67377, "proficiency": 0.745, "schoolCount": 1}, {"name": "Postville", "lat": 43.082382, "lon": -91.573414, "proficiency": 0.67, "schoolCount": 1}, {"name": "Red Oak", "lat": 41.023271, "lon": -95.225145, "proficiency": 0.57, "schoolCount": 1}, {"name": "Remsen", "lat": 42.809104, "lon": -95.965452, "proficiency": 0.745, "schoolCount": 1}, {"name": "Riceville", "lat": 43.355091, "lon": -92.552944, "proficiency": 0.745, "schoolCount": 1}, {"name": "Rock Valley", "lat": 43.208897, "lon": -96.287175, "proficiency": 0.72, "schoolCount": 1}, {"name": "Roland", "lat": 42.164494, "lon": -93.499952, "proficiency": 0.82, "schoolCount": 1}, {"name": "Rockford", "lat": 43.051257, "lon": -92.932975, "proficiency": 0.845, "schoolCount": 1}, {"name": "Ruthven", "lat": 43.13172, "lon": -94.902159, "proficiency": 0.75, "schoolCount": 1}, {"name": "St Ansgar", "lat": 43.37428, "lon": -92.917017, "proficiency": 0.845, "schoolCount": 1}, {"name": "Early", "lat": 42.463899, "lon": -95.155931, "proficiency": 0.67, "schoolCount": 1}, {"name": "Schleswig", "lat": 42.164021, "lon": -95.428394, "proficiency": 0.75, "schoolCount": 1}, {"name": "Sergeant Bluff", "lat": 42.395508, "lon": -96.354173, "proficiency": 0.87, "schoolCount": 1}, {"name": "Seymour", "lat": 40.681133, "lon": -93.115887, "proficiency": 0.695, "schoolCount": 1}, {"name": "SHEFFIELD", "lat": 42.896546, "lon": -93.21816, "proficiency": 0.545, "schoolCount": 1}, {"name": "Sheldon", "lat": 43.183713, "lon": -95.828731, "proficiency": 0.77, "schoolCount": 1}, {"name": "Shenandoah", "lat": 40.74941, "lon": -95.359336, "proficiency": 0.52, "schoolCount": 1}, {"name": "Sidney", "lat": 40.742461, "lon": -95.660456, "proficiency": 0.9, "schoolCount": 1}, {"name": "Sigourney", "lat": 41.328842, "lon": -92.194041, "proficiency": 0.845, "schoolCount": 1}, {"name": "Sioux Center", "lat": 43.087138, "lon": -96.166977, "proficiency": 0.77, "schoolCount": 1}, {"name": "Sioux City", "lat": 42.504507999999994, "lon": -96.390623, "proficiency": 0.5933, "schoolCount": 3}, {"name": "Solon", "lat": 41.803452, "lon": -91.504964, "proficiency": 0.87, "schoolCount": 1}, {"name": "Jewell", "lat": 42.301927, "lon": -93.646038, "proficiency": 0.745, "schoolCount": 1}, {"name": "College Springs", "lat": 40.62117, "lon": -95.119844, "proficiency": 0.75, "schoolCount": 1}, {"name": "Toledo", "lat": 41.993995, "lon": -92.575194, "proficiency": 0.47, "schoolCount": 1}, {"name": "Ossian", "lat": 43.142952, "lon": -91.76279, "proficiency": 0.645, "schoolCount": 1}, {"name": "Pleasant Hill", "lat": 41.599179, "lon": -93.438122, "proficiency": 0.77, "schoolCount": 1}, {"name": "Liberty Center", "lat": 41.205546, "lon": -93.496523, "proficiency": 0.745, "schoolCount": 1}, {"name": "Spencer", "lat": 43.152357, "lon": -95.129451, "proficiency": 0.87, "schoolCount": 1}, {"name": "Spirit Lake", "lat": 43.413716, "lon": -95.099427, "proficiency": 0.72, "schoolCount": 1}, {"name": "Springville", "lat": 42.055513, "lon": -91.445102, "proficiency": 0.645, "schoolCount": 1}, {"name": "Stanton", "lat": 40.984612, "lon": -95.100782, "proficiency": 0.9, "schoolCount": 1}, {"name": "Arlington", "lat": 42.688845, "lon": -91.648188, "proficiency": 0.545, "schoolCount": 1}, {"name": "Storm Lake", "lat": 42.648857, "lon": -95.226852, "proficiency": 0.62, "schoolCount": 1}, {"name": "Redfield", "lat": 41.592803, "lon": -94.193336, "proficiency": 0.77, "schoolCount": 1}, {"name": "Fredericksburg", "lat": 42.965872, "lon": -92.195452, "proficiency": 0.72, "schoolCount": 1}, {"name": "Tipton", "lat": 41.770877, "lon": -91.139436, "proficiency": 0.72, "schoolCount": 1}, {"name": "Treynor", "lat": 41.231601, "lon": -95.607947, "proficiency": 0.845, "schoolCount": 1}, {"name": "Neola", "lat": 41.504743, "lon": -95.594969, "proficiency": 0.745, "schoolCount": 1}, {"name": "Thornburg", "lat": 41.45288, "lon": -92.335024, "proficiency": 0.75, "schoolCount": 1}, {"name": "Tripoli", "lat": 42.801009, "lon": -92.260488, "proficiency": 0.495, "schoolCount": 1}, {"name": "Jackson Junction", "lat": 43.110262, "lon": -92.035344, "proficiency": 0.645, "schoolCount": 1}, {"name": "Bussey", "lat": 41.21788, "lon": -92.926981, "proficiency": 0.495, "schoolCount": 1}, {"name": "Underwood", "lat": 41.385139, "lon": -95.682469, "proficiency": 0.77, "schoolCount": 1}, {"name": "Urbandale", "lat": 41.638234, "lon": -93.724408, "proficiency": 0.72, "schoolCount": 1}, {"name": "Keosauqua", "lat": 40.730627, "lon": -91.967871, "proficiency": 0.645, "schoolCount": 1}, {"name": "Van Meter", "lat": 41.528966, "lon": -93.953016, "proficiency": 0.77, "schoolCount": 1}, {"name": "Villisca", "lat": 40.929994, "lon": -94.975173, "proficiency": 0.545, "schoolCount": 1}, {"name": "Vinton", "lat": 42.15662, "lon": -92.026894, "proficiency": 0.87, "schoolCount": 1}, {"name": "Wayland", "lat": 41.153451, "lon": -91.660187, "proficiency": 0.745, "schoolCount": 1}, {"name": "Sac City", "lat": 42.419606, "lon": -94.997737, "proficiency": 0.645, "schoolCount": 1}, {"name": "Wapello", "lat": 41.179686, "lon": -91.189038, "proficiency": 0.345, "schoolCount": 1}, {"name": "Fairbank", "lat": 42.680782, "lon": -92.139664, "proficiency": 0.845, "schoolCount": 1}, {"name": "Washington", "lat": 41.296895, "lon": -91.688732, "proficiency": 0.57, "schoolCount": 1}, {"name": "Evansdale", "lat": 42.47166, "lon": -92.274861, "proficiency": 0.62, "schoolCount": 1}, {"name": "Waterloo", "lat": 42.49462725, "lon": -92.3519445, "proficiency": 0.49, "schoolCount": 4}, {"name": "Waukee", "lat": 41.5925555, "lon": -93.864046, "proficiency": 0.75, "schoolCount": 2}, {"name": "Waverly", "lat": 42.720697, "lon": -92.492587, "proficiency": 0.77, "schoolCount": 1}, {"name": "Corydon", "lat": 40.757921, "lon": -93.32111, "proficiency": 0.645, "schoolCount": 1}, {"name": "Webster City", "lat": 42.465617, "lon": -93.822651, "proficiency": 0.67, "schoolCount": 1}, {"name": "West Bend", "lat": 42.957912, "lon": -94.449642, "proficiency": 0.695, "schoolCount": 1}, {"name": "West Branch", "lat": 41.669596, "lon": -91.363784, "proficiency": 0.745, "schoolCount": 1}, {"name": "Maynard", "lat": 42.770363, "lon": -91.880635, "proficiency": 0.495, "schoolCount": 1}, {"name": "Manchester", "lat": 42.495144, "lon": -91.45061, "proficiency": 0.82, "schoolCount": 1}, {"name": "Clive", "lat": 41.603535, "lon": -93.748187, "proficiency": 0.67, "schoolCount": 1}, {"name": "West Des Moines", "lat": 41.577878, "lon": -93.724735, "proficiency": 0.73, "schoolCount": 1}, {"name": "Mondamin", "lat": 41.709141, "lon": -96.018358, "proficiency": 0.695, "schoolCount": 1}, {"name": "West Liberty", "lat": 41.574904, "lon": -91.261742, "proficiency": 0.67, "schoolCount": 1}, {"name": "Inwood", "lat": 43.392008, "lon": -96.430094, "proficiency": 0.87, "schoolCount": 1}, {"name": "State Center", "lat": 42.019749, "lon": -93.171853, "proficiency": 0.77, "schoolCount": 1}, {"name": "Onawa", "lat": 42.022319, "lon": -96.104918, "proficiency": 0.545, "schoolCount": 1}, {"name": "Hawarden", "lat": 43.001013, "lon": -96.473058, "proficiency": 0.62, "schoolCount": 1}, {"name": "Farley", "lat": 42.444326, "lon": -91.001506, "proficiency": 0.72, "schoolCount": 1}, {"name": "Cascade", "lat": 42.300596, "lon": -91.019252, "proficiency": 0.95, "schoolCount": 1}, {"name": "Sloan", "lat": 42.2301, "lon": -96.217042, "proficiency": 0.845, "schoolCount": 1}, {"name": "Whiting", "lat": 42.12662, "lon": -96.156393, "proficiency": 0.75, "schoolCount": 1}, {"name": "Williamsburg", "lat": 41.662939, "lon": -92.019379, "proficiency": 0.82, "schoolCount": 1}, {"name": "Wilton", "lat": 41.59548, "lon": -91.010613, "proficiency": 0.77, "schoolCount": 1}, {"name": "Winfield", "lat": 41.126591, "lon": -91.439979, "proficiency": 0.495, "schoolCount": 1}, {"name": "Winterset", "lat": 41.325499, "lon": -94.021827, "proficiency": 0.82, "schoolCount": 1}, {"name": "WOODBINE", "lat": 41.737708, "lon": -95.707219, "proficiency": 0.745, "schoolCount": 1}, {"name": "Moville", "lat": 42.48383, "lon": -96.068149, "proficiency": 0.645, "schoolCount": 1}, {"name": "Woodward", "lat": 41.85586, "lon": -93.926097, "proficiency": 0.87, "schoolCount": 1}, {"name": "Prairie City", "lat": 41.594385, "lon": -93.231399, "proficiency": 0.77, "schoolCount": 1}, {"name": "Burnside", "lat": 42.342073, "lon": -94.10595, "proficiency": 0.67, "schoolCount": 1}]}