{"state": "ID", "stateName": "Idaho", "year": 2020, "naep": {"text": "7 out of 10", "numerator": 7, "denominator": 10}, "schools": [{"name": "PRIEST RIVER JR HIGH SCHOOL", "lat": 48.181063, "lon": -116.918877, "proficiency": 0.12, "district": "WEST BONNER COUNTY DISTRICT", "city": "PRIEST RIVER", "ncessch": "160000100085"}, {"name": "CLARK FORK JR/SR HIGH SCHOOL", "lat": 48.146845, "lon": -116.175561, "proficiency": 0.3, "district": "LAKE PEND OREILLE SCHOOL DISTRICT", "city": "CLARK FORK", "ncessch": "160000200082"}, {"name": "SANDPOINT MIDDLE SCHOOL", "lat": 48.2701, "lon": -116.56927, "proficiency": 0.47, "district": "LAKE PEND OREILLE SCHOOL DISTRICT", "city": "SANDPOINT", "ncessch": "160000200724"}, {"name": "VICTORY CHARTER SCHOOL", "lat": 43.514386, "lon": -116.55896, "proficiency": 0.695, "district": "VICTORY CHARTER SCHOOL INC.", "city": "NAMPA", "ncessch": "160000300858"}, {"name": "IDAHO VIRTUAL ACADEMY", "lat": 43.587082, "lon": -116.355531, "proficiency": 0.37, "district": "IDAHO VIRTUAL ACADEMY INC.", "city": "MERIDIAN", "ncessch": "160000400859"}, {"name": "INSIGHT SCHOOL OF IDAHO", "lat": 43.587082, "lon": -116.355531, "proficiency": 0.245, "district": "IDAHO VIRTUAL ACADEMY INC.", "city": "MERIDIAN", "ncessch": "160000401035"}, {"name": "RICHARD MCKENNA CHARTER SCHOOL - MONTESSORI", "lat": 43.136866, "lon": -115.683765, "proficiency": 0.1, "district": "IDAHO VIRTUAL HIGH SCHOOL INC.", "city": "MOUNTAIN HOME", "ncessch": "160000501087"}, {"name": "ROLLING HILLS PUBLIC CHARTER", "lat": 43.689434, "lon": -116.312112, "proficiency": 0.495, "district": "ROLLING HILLS PUBLIC CHARTER SCHOOL INC.", "city": "BOISE", "ncessch": "160000600863"}, {"name": "COMPASS PUBLIC CHARTER SCHOOL", "lat": 43.607304, "lon": -116.45182, "proficiency": 0.67, "district": "COMPASS PUBLIC CHARTER SCHOOL INC.", "city": "MERIDIAN", "ncessch": "160000700864"}, {"name": "FALCON RIDGE PUBLIC CHARTER", "lat": 43.487976, "lon": -116.432841, "proficiency": 0.695, "district": "FALCON RIDGE PUBLIC CHARTER SCHOOL INC.", "city": "KUNA", "ncessch": "160000800865"}, {"name": "TROY JR/SR HIGH SCHOOL", "lat": 46.747412, "lon": -116.767502, "proficiency": 0.495, "district": "TROY SCHOOL DISTRICT", "city": "TROY", "ncessch": "160000900582"}, {"name": "DEARY SCHOOL", "lat": 46.797482, "lon": -116.559028, "proficiency": 0.75, "district": "WHITEPINE JOINT SCHOOL DISTRICT", "city": "DEARY", "ncessch": "160001000579"}, {"name": "INSPIRE VIRTUAL CHARTER SCHOOL", "lat": 43.610423, "lon": -116.289349, "proficiency": 0.37, "district": "INSPIRE ACADEMICS INC.", "city": "BOISE", "ncessch": "160001100866"}, {"name": "LIBERTY CHARTER SCHOOL", "lat": 43.51654, "lon": -116.559261, "proficiency": 0.9, "district": "LIBERTY CHARTER SCHOOL INC.", "city": "NAMPA", "ncessch": "160001200867"}, {"name": "CONNOR ACADEMY", "lat": 42.914234, "lon": -112.494661, "proficiency": 0.545, "district": "THE ACADEMY INC.", "city": "CHUBBUCK", "ncessch": "160001400891"}, {"name": "TAYLORS CROSSING CHARTER SCHOOL", "lat": 43.508243, "lon": -111.93848, "proficiency": 0.3, "district": "TAYLOR'S CROSSING PUBLIC CHARTER SCHOOL INC.", "city": "IDAHO FALLS", "ncessch": "160001500892"}, {"name": "ABERDEEN MIDDLE SCHOOL", "lat": 42.942217, "lon": -112.845221, "proficiency": 0.15, "district": "ABERDEEN DISTRICT", "city": "ABERDEEN", "ncessch": "160003000829"}, {"name": "WILLIAM THOMAS MIDDLE SCHOOL", "lat": 42.786292, "lon": -112.846837, "proficiency": 0.22, "district": "AMERICAN FALLS JOINT DISTRICT", "city": "AMERICAN FALLS", "ncessch": "160006000589"}, {"name": "SALMON RIVER JR/SR HIGH SCHOOL", "lat": 45.418587, "lon": -116.319529, "proficiency": 0.75, "district": "SALMON RIVER JOINT SCHOOL DISTRICT", "city": "RIGGINS", "ncessch": "160013800944"}, {"name": "CLEARWATER VALLEY JR/SR", "lat": 46.116112, "lon": -115.977951, "proficiency": 0.3, "district": "MOUNTAIN VIEW SCHOOL DISTRICT", "city": "KOOSKIA", "ncessch": "160013900936"}, {"name": "GRANGEVILLE ELEM/MIDDLE SCHOOL", "lat": 45.923418, "lon": -116.124674, "proficiency": 0.47, "district": "MOUNTAIN VIEW SCHOOL DISTRICT", "city": "GRANGEVILLE", "ncessch": "160013900946"}, {"name": "XAVIER CHARTER SCHOOL", "lat": 42.586689, "lon": -114.508627, "proficiency": 0.42, "district": "XAVIER CHARTER SCHOOL INC.", "city": "TWIN FALLS", "ncessch": "160014000949"}, {"name": "VISION CHARTER SCHOOL", "lat": 43.651985, "lon": -116.62459, "proficiency": 0.345, "district": "VISION CHARTER SCHOOL INC.", "city": "CALDWELL", "ncessch": "160014100942"}, {"name": "WHITE PINE CHARTER SCHOOL", "lat": 43.492181, "lon": -111.975297, "proficiency": 0.345, "district": "WHITE PINE CHARTER SCHOOL INC.", "city": "AMMON", "ncessch": "160014200809"}, {"name": "NORTH VALLEY ACADEMY", "lat": 42.935967, "lon": -114.712443, "proficiency": 0.1, "district": "NORTH VALLEY ACADEMY INC.", "city": "GOODING", "ncessch": "160014300968"}, {"name": "IDAHO SCIENCE AND TECHNOLOGY CHARTER SCHOOL", "lat": 43.199534, "lon": -112.403569, "proficiency": 0.245, "district": "IDAHO SCIENCE AND TECHNOLOGY CHARTER SCHOOL INC.", "city": "BLACKFOOT", "ncessch": "160014500996"}, {"name": "IDAHO CONNECTS ONLINE SCHOOL", "lat": 43.648928, "lon": -116.28248, "proficiency": 0.245, "district": "IDAHO VIRTUAL EDUCATION PARTNERS INC.", "city": "NAMPA", "ncessch": "160014800993"}, {"name": "IDAHO CONNECTS ONLINE ALTERNATIVE SCHOOL", "lat": 43.662366, "lon": -116.339963, "proficiency": 0.245, "district": "IDAHO VIRTUAL EDUCATION PARTNERS INC.", "city": "BOISE", "ncessch": "160014801023"}, {"name": "PALOUSE PRAIRIE CHARTER SCHOOL", "lat": 46.717009, "lon": -116.995307, "proficiency": 0.75, "district": "PALOUSE PRAIRIE EDUCATIONAL ORGANIZATION INC.", "city": "MOSCOW", "ncessch": "160015100994"}, {"name": "COSSA ACADEMY", "lat": 43.681668, "lon": -116.905469, "proficiency": 0.245, "district": "CANYON-OWYHEE SCHOOL SERVICE AGENCY (COSSA)", "city": "WILDER", "ncessch": "160015200304"}, {"name": "BLACKFOOT CHARTER COMMUNITY", "lat": 43.208878, "lon": -112.37971, "proficiency": 0.3, "district": "BLACKFOOT CHARTER COMMUNITY LEARNING CENTER INC.", "city": "Boise", "ncessch": "160015300796"}, {"name": "MONTICELLO MONTESSORI CHARTER SCHOOL", "lat": 43.454865, "lon": -111.958511, "proficiency": 0.245, "district": "MONTICELLO MONTESSORI CHARTER SCHOOL INC.", "city": "AMMON", "ncessch": "160015401014"}, {"name": "ANOTHER CHOICE VIRTUAL CHARTER", "lat": 43.6013, "lon": -116.593601, "proficiency": 0.05, "district": "ANOTHER CHOICE VIRTUAL CHARTER SCHOOL INC.", "city": "NAMPA", "ncessch": "160015501008"}, {"name": "SAGE INTERNATIONAL SCHOOL OF BOISE", "lat": 43.593679, "lon": -116.179333, "proficiency": 0.57, "district": "THE SAGE INTERNATIONAL SCHOOL OF BOISE A PUBLIC CHARTER SCH", "city": "BOISE", "ncessch": "160015601007"}, {"name": "VILLAGE LEADERSHIP ACADEMY", "lat": 43.620284, "lon": -116.287457, "proficiency": 0.3, "district": "THE VILLAGE CHARTER SCHOOL INC.", "city": "BOISE", "ncessch": "160015701018"}, {"name": "LEGACY CHARTER SCHOOL", "lat": 43.53051, "lon": -116.53733, "proficiency": 0.745, "district": "LEGACY PUBLIC CHARTER SCHOOL INC.", "city": "NAMPA", "ncessch": "160015801019"}, {"name": "HERITAGE ACADEMY", "lat": 42.719776, "lon": -114.517986, "proficiency": 0.245, "district": "HERITAGE ACADEMY INC.", "city": "JEROME", "ncessch": "160015901017"}, {"name": "NORTH IDAHO STEM CHARTER ACADEMY", "lat": 47.814412, "lon": -116.876574, "proficiency": 0.845, "district": "NORTH IDAHO STEM CHARTER ACADEMY INC.", "city": "RATHDRUM", "ncessch": "160016001020"}, {"name": "HERITAGE COMMUNITY CHARTER", "lat": 43.634601, "lon": -116.676518, "proficiency": 0.245, "district": "HERITAGE COMMUNITY CHARTER SCHOOL INC.", "city": "CALDWELL", "ncessch": "160016101021"}, {"name": "AMERICAN HERITAGE CHARTER SCHOOL", "lat": 43.482021, "lon": -112.10332, "proficiency": 0.495, "district": "AMERICAN HERITAGE CHARTER SCHOOL INC.", "city": "IDAHO FALLS", "ncessch": "160016201044"}, {"name": "FORREST M BIRD CHARTER SCHOOL", "lat": 48.26418, "lon": -116.571111, "proficiency": 0.245, "district": "SANDPOINT CHARTER SCHOOL INC.", "city": "SANDPOINT", "ncessch": "160016500772"}, {"name": "SYRINGA MOUNTAIN CHARTER SCHOOL", "lat": 43.486569, "lon": -114.275582, "proficiency": 0.75, "district": "SYRINGA MOUNTAIN SCHOOL INC.", "city": "HAILEY", "ncessch": "160016601066"}, {"name": "GEM PREP: ONLINE SCHOOL", "lat": 43.590007, "lon": -116.359915, "proficiency": 0.645, "district": "GEM PREP: ONLINE LLC", "city": "MERIDIAN", "ncessch": "160017200846"}, {"name": "COEUR D'ALENE CHARTER ACADEMY SCHOOL", "lat": 47.715973, "lon": -116.796501, "proficiency": 0.77, "district": "COEUR D'ALENE CHARTER ACADEMY INC.", "city": "COEUR D'ALENE", "ncessch": "160017300765"}, {"name": "NORTH STAR CHARTER SCHOOL", "lat": 43.700044, "lon": -116.414972, "proficiency": 0.62, "district": "NORTH STAR CHARTER SCHOOL INC.", "city": "EAGLE", "ncessch": "160017400803"}, {"name": "ALTURAS INTERNATIONAL ACADEMY", "lat": 43.489331, "lon": -112.036739, "proficiency": 0.445, "district": "ALTURAS INTERNATIONAL ACADEMY INC.", "city": "IDAHO FALLS", "ncessch": "160017501082"}, {"name": "POCATELLO COMMUNITY CHARTER", "lat": 42.854311, "lon": -112.443739, "proficiency": 0.445, "district": "THE POCATELLO COMMUNITY CHARTER SCHOOL INC.", "city": "POCATELLO", "ncessch": "160017600760"}, {"name": "GEM PREP: POCATELLO SCHOOL", "lat": 42.908726, "lon": -112.470713, "proficiency": 0.3, "district": "GEM PREP: POCATELLO LLC", "city": "DEARY", "ncessch": "160017701073"}, {"name": "PEACE VALLEY CHARTER SCHOOL", "lat": 43.586936, "lon": -116.202057, "proficiency": 0.245, "district": "PEACE VALLEY CHARTER SCHOOL INC.", "city": "BOISE", "ncessch": "160017801101"}, {"name": "GEM PREP: MERIDIAN", "lat": 43.590007, "lon": -116.359915, "proficiency": 0.445, "district": "GEM PREP: MERIDIAN LLC", "city": "DEARY", "ncessch": "160017901107"}, {"name": "IDAHO CITY HIGH SCHOOL", "lat": 43.831859, "lon": -115.833654, "proficiency": 0.3, "district": "BASIN SCHOOL DISTRICT", "city": "IDAHO CITY", "ncessch": "160018000350"}, {"name": "PROJECT IMPACT STEM ACADEMY", "lat": 43.592813, "lon": -116.405395, "proficiency": 0.695, "district": "PROJECT IMPACT STEM ACADEMY INC.", "city": "KUNA", "ncessch": "160018201102"}, {"name": "HAYDEN CANYON CHARTER SCHOOL", "lat": 47.796121, "lon": -116.782921, "proficiency": 0.245, "district": "HAYDEN CANYON CHARTER SCHOOL INC.", "city": "HAYDEN LAKE", "ncessch": "160018401096"}, {"name": "FERN-WATERS PUBLIC CHARTER SCHOOL", "lat": 45.175958, "lon": -113.898019, "proficiency": 0.75, "district": "FERN-WATERS PUBLIC CHARTER SCHOOL INC.", "city": "SALMON", "ncessch": "160018601114"}, {"name": "ELEVATE ACADEMY", "lat": 43.6745, "lon": -116.691329, "proficiency": 0.05, "district": "ELEVATE ACADEMY INC.", "city": "CALDWELL", "ncessch": "160018901113"}, {"name": "FORGE INTERNATIONAL SCHOOL", "lat": 43.703911, "lon": -116.64053, "proficiency": 0.3, "district": "FORGE INTERNATIONAL LLC", "city": "MIDDLETON", "ncessch": "160019001109"}, {"name": "THOMAS JEFFERSON CHARTER", "lat": 43.659795, "lon": -116.638606, "proficiency": 0.645, "district": "THOMAS JEFFERSON CHARTER SCHOOL INC.", "city": "CALDWELL", "ncessch": "160019400839"}, {"name": "ANSER CHARTER SCHOOL", "lat": 43.633376, "lon": -116.249765, "proficiency": 0.245, "district": "ANSER OF IDAHO INC.", "city": "GARDEN CITY", "ncessch": "160019500758"}, {"name": "BEAR LAKE MIDDLE SCHOOL", "lat": 42.31715, "lon": -111.303446, "proficiency": 0.57, "district": "BEAR LAKE COUNTY DISTRICT", "city": "MONTPELIER", "ncessch": "160024000017"}, {"name": "BEAR LAKE ON-LINE LEARNING", "lat": 42.226415, "lon": -111.39893, "proficiency": 0.245, "district": "BEAR LAKE COUNTY DISTRICT", "city": "PARIS", "ncessch": "160024001136"}, {"name": "MOUNTAIN VIEW MIDDLE SCHOOL", "lat": 43.190095, "lon": -112.332002, "proficiency": 0.32, "district": "BLACKFOOT DISTRICT", "city": "BLACKFOOT", "ncessch": "160027000023"}, {"name": "INDEPENDENCE ALTERNATIVE HIGH SCHOOL", "lat": 43.190336, "lon": -112.339325, "proficiency": 0.245, "district": "BLACKFOOT DISTRICT", "city": "BLACKFOOT", "ncessch": "160027000689"}, {"name": "CAREY PUBLIC SCHOOL", "lat": 43.312684, "lon": -113.942329, "proficiency": 0.3, "district": "BLAINE COUNTY DISTRICT", "city": "CAREY", "ncessch": "160030000034"}, {"name": "ERNEST HEMINGWAY STEAM SCHOOL", "lat": 43.682477, "lon": -114.371102, "proficiency": 0.545, "district": "BLAINE COUNTY DISTRICT", "city": "KETCHUM", "ncessch": "160030000035"}, {"name": "WOOD RIVER MIDDLE SCHOOL", "lat": 43.528527, "lon": -114.317064, "proficiency": 0.37, "district": "BLAINE COUNTY DISTRICT", "city": "HAILEY", "ncessch": "160030000493"}, {"name": "BLISS SCHOOL", "lat": 42.923226, "lon": -114.94247, "proficiency": 0.245, "district": "BLISS JOINT DISTRICT", "city": "BLISS", "ncessch": "160033000040"}, {"name": "FAIRMONT JUNIOR HIGH SCHOOL", "lat": 43.6248, "lon": -116.276159, "proficiency": 0.27, "district": "BOISE INDEPENDENT DISTRICT", "city": "BOISE", "ncessch": "160036000051"}, {"name": "HILLSIDE JUNIOR HIGH SCHOOL", "lat": 43.656368, "lon": -116.231612, "proficiency": 0.37, "district": "BOISE INDEPENDENT DISTRICT", "city": "BOISE", "ncessch": "160036000057"}, {"name": "NORTH JUNIOR HIGH SCHOOL", "lat": 43.6259, "lon": -116.203956, "proficiency": 0.57, "district": "BOISE INDEPENDENT DISTRICT", "city": "BOISE", "ncessch": "160036000069"}, {"name": "SOUTH JUNIOR HIGH SCHOOL", "lat": 43.596548, "lon": -116.220986, "proficiency": 0.27, "district": "BOISE INDEPENDENT DISTRICT", "city": "BOISE", "ncessch": "160036000073"}, {"name": "LES BOIS JUNIOR HIGH SCHOOL", "lat": 43.547825, "lon": -116.132722, "proficiency": 0.42, "district": "BOISE INDEPENDENT DISTRICT", "city": "BOISE", "ncessch": "160036000183"}, {"name": "RIVERGLEN JR HIGH SCHOOL", "lat": 43.679943, "lon": -116.280864, "proficiency": 0.32, "district": "BOISE INDEPENDENT DISTRICT", "city": "BOISE", "ncessch": "160036000632"}, {"name": "WEST JUNIOR HIGH", "lat": 43.570975, "lon": -116.285506, "proficiency": 0.32, "district": "BOISE INDEPENDENT DISTRICT", "city": "BOISE", "ncessch": "160036000987"}, {"name": "EAST JUNIOR HIGH SCHOOL", "lat": 43.566083, "lon": -116.113318, "proficiency": 0.57, "district": "BOISE INDEPENDENT DISTRICT", "city": "BOISE", "ncessch": "160036001002"}, {"name": "BOUNDARY COUNTY MIDDLE SCHOOL", "lat": 48.679722, "lon": -116.325735, "proficiency": 0.52, "district": "BOUNDARY COUNTY DISTRICT", "city": "BONNERS FERRY", "ncessch": "160042000029"}, {"name": "RIMROCK JR/SR HIGH SCHOOL", "lat": 42.933493, "lon": -115.989412, "proficiency": 0.1, "district": "BRUNEAU-GRAND VIEW JOINT SCHOOL DISTRICT", "city": "BRUNEAU", "ncessch": "160045000100"}, {"name": "BUHL MIDDLE SCHOOL", "lat": 42.606691, "lon": -114.758516, "proficiency": 0.32, "district": "BUHL JOINT DISTRICT", "city": "BUHL", "ncessch": "160048000103"}, {"name": "BUTTE COUNTY MIDDLE/HIGH SCHOOL", "lat": 43.63358, "lon": -113.302383, "proficiency": 0.3, "district": "BUTTE COUNTY JOINT DISTRICT", "city": "ARCO", "ncessch": "160049000008"}, {"name": "JEFFERSON MIDDLE SCHOOL", "lat": 43.640121, "lon": -116.690109, "proficiency": 0.12, "district": "CALDWELL DISTRICT", "city": "CALDWELL", "ncessch": "160051000105"}, {"name": "SYRINGA MIDDLE SCHOOL", "lat": 43.646634, "lon": -116.684224, "proficiency": 0.12, "district": "CALDWELL DISTRICT", "city": "CALDWELL", "ncessch": "160051000109"}, {"name": "CAMAS COUNTY ELEM/JR HIGH SCHOOL", "lat": 43.347126, "lon": -114.791235, "proficiency": 0.3, "district": "CAMAS COUNTY DISTRICT", "city": "FAIRFIELD", "ncessch": "160054000110"}, {"name": "CAMBRIDGE MIDDLE/HIGH SCHOOL", "lat": 44.574751, "lon": -116.680053, "proficiency": 0.245, "district": "CAMBRIDGE JOINT DISTRICT", "city": "CAMBRIDGE", "ncessch": "160057000113"}, {"name": "VALLIVUE MIDDLE SCHOOL", "lat": 43.61003, "lon": -116.690466, "proficiency": 0.38, "district": "VALLIVUE SCHOOL DISTRICT", "city": "CALDWELL", "ncessch": "160060000539"}, {"name": "SAGE VALLEY MIDDLE SCHOOL", "lat": 43.634935, "lon": -116.601119, "proficiency": 0.25, "district": "VALLIVUE SCHOOL DISTRICT", "city": "CALDWELL", "ncessch": "160060000838"}, {"name": "CASCADE JR/SR HIGH SCHOOL", "lat": 44.515763, "lon": -116.045756, "proficiency": 0.245, "district": "CASCADE DISTRICT", "city": "CASCADE", "ncessch": "160063000121"}, {"name": "BURLEY JUNIOR HIGH SCHOOL", "lat": 42.533671, "lon": -113.800784, "proficiency": 0.32, "district": "CASSIA COUNTY JOINT DISTRICT", "city": "BURLEY", "ncessch": "160066000125"}, {"name": "OAKLEY JR/SR HIGH SCHOOL", "lat": 42.243624, "lon": -113.890032, "proficiency": 0.3, "district": "CASSIA COUNTY JOINT DISTRICT", "city": "OAKLEY", "ncessch": "160066000132"}, {"name": "RAFT RIVER JR/SR HIGH SCHOOL", "lat": 42.307704, "lon": -113.372244, "proficiency": 0.3, "district": "CASSIA COUNTY JOINT DISTRICT", "city": "MALTA", "ncessch": "160066000134"}, {"name": "CASSIA JR/SR HIGH SCHOOL", "lat": 42.532182, "lon": -113.803692, "proficiency": 0.245, "district": "CASSIA COUNTY JOINT DISTRICT", "city": "BURLEY", "ncessch": "160066000540"}, {"name": "DECLO JR HIGH SCHOOL", "lat": 42.517778, "lon": -113.62504, "proficiency": 0.32, "district": "CASSIA COUNTY JOINT DISTRICT", "city": "DECLO", "ncessch": "160066000610"}, {"name": "MINI-CASSIA ONLINE LEARNING ACADEMY", "lat": 42.5064, "lon": -113.793782, "proficiency": 0.3, "district": "CASSIA COUNTY JOINT DISTRICT", "city": "BURLEY", "ncessch": "160066001141"}, {"name": "CASTLEFORD SCHOOL", "lat": 42.521564, "lon": -114.875277, "proficiency": 0.695, "district": "CASTLEFORD DISTRICT", "city": "CASTLEFORD", "ncessch": "160069000137"}, {"name": "CHALLIS JR/SR HIGH SCHOOL", "lat": 44.508213, "lon": -114.225813, "proficiency": 0.1, "district": "CHALLIS JOINT DISTRICT", "city": "CHALLIS", "ncessch": "160072000140"}, {"name": "CLARK COUNTY JR/SR HIGH SCHOOL", "lat": 44.172949, "lon": -112.230523, "proficiency": 0.245, "district": "CLARK COUNTY DISTRICT", "city": "DUBOIS", "ncessch": "160075000144"}, {"name": "CANFIELD MIDDLE SCHOOL", "lat": 47.721875, "lon": -116.763265, "proficiency": 0.52, "district": "COEUR D'ALENE DISTRICT", "city": "COEUR D'ALENE", "ncessch": "160078000148"}, {"name": "LAKES MAGNET SCHOOL", "lat": 47.682072, "lon": -116.766433, "proficiency": 0.42, "district": "COEUR D'ALENE DISTRICT", "city": "COEUR D'ALENE", "ncessch": "160078000153"}, {"name": "WOODLAND MIDDLE SCHOOL", "lat": 47.722043, "lon": -116.820391, "proficiency": 0.32, "district": "COEUR D'ALENE DISTRICT", "city": "COEUR D'ALENE", "ncessch": "160078000747"}, {"name": "PRAIRIE JR/SR HIGH SCHOOL", "lat": 46.035053, "lon": -116.391478, "proficiency": 0.345, "district": "COTTONWOOD JOINT DISTRICT", "city": "COTTONWOOD", "ncessch": "160081000161"}, {"name": "LAKESIDE JR HIGH SCHOOL", "lat": 47.333407, "lon": -116.890619, "proficiency": 0.1, "district": "PLUMMER-WORLEY JOINT DISTRICT", "city": "PLUMMER", "ncessch": "160081500647"}, {"name": "COUNCIL JR/SR HIGH SCHOOL", "lat": 44.727619, "lon": -116.439677, "proficiency": 0.3, "district": "COUNCIL DISTRICT", "city": "COUNCIL", "ncessch": "160084000163"}, {"name": "CULDESAC SCHOOL", "lat": 46.375279, "lon": -116.671432, "proficiency": 0.245, "district": "CULDESAC JOINT DISTRICT", "city": "CULDESAC", "ncessch": "160087000164"}, {"name": "DIETRICH SCHOOL", "lat": 42.913017, "lon": -114.262937, "proficiency": 0.495, "district": "DIETRICH DISTRICT", "city": "DIETRICH", "ncessch": "160090000165"}, {"name": "ROCKY MOUNTAIN MIDDLE SCHOOL", "lat": 43.526616, "lon": -111.965291, "proficiency": 0.35, "district": "BONNEVILLE JOINT DISTRICT", "city": "IDAHO FALLS", "ncessch": "160093000168"}, {"name": "SANDCREEK MIDDLE SCHOOL", "lat": 43.473444, "lon": -111.975719, "proficiency": 0.33, "district": "BONNEVILLE JOINT DISTRICT", "city": "IDAHO FALLS", "ncessch": "160093000651"}, {"name": "BONNEVILLE ONLINE ELEMENTARY", "lat": 43.539656, "lon": -111.99366, "proficiency": 0.1, "district": "BONNEVILLE JOINT DISTRICT", "city": "IDAHO FALLS", "ncessch": "160093000999"}, {"name": "BONNEVILLE ONLINE SCHOOL", "lat": 43.526211, "lon": -111.966297, "proficiency": 0.495, "district": "BONNEVILLE JOINT DISTRICT", "city": "IDAHO FALLS", "ncessch": "160093001050"}, {"name": "PRESTON JR HIGH SCHOOL", "lat": 42.082859, "lon": -111.864657, "proficiency": 0.27, "district": "PRESTON JOINT DISTRICT", "city": "PRESTON", "ncessch": "160096000612"}, {"name": "BLACK CANYON JR/SR HIGH SCHOOL", "lat": 43.872692, "lon": -116.484128, "proficiency": 0.1, "district": "EMMETT INDEPENDENT DISTRICT", "city": "EMMETT", "ncessch": "160102000095"}, {"name": "EMMETT MIDDLE SCHOOL", "lat": 43.871482, "lon": -116.496447, "proficiency": 0.32, "district": "EMMETT INDEPENDENT DISTRICT", "city": "EMMETT", "ncessch": "160102000191"}, {"name": "FILER MIDDLE SCHOOL", "lat": 42.563204, "lon": -114.607182, "proficiency": 0.37, "district": "FILER DISTRICT", "city": "FILER", "ncessch": "160105000631"}, {"name": "FIRTH MIDDLE SCHOOL", "lat": 43.307423, "lon": -112.188989, "proficiency": 0.42, "district": "FIRTH DISTRICT", "city": "FIRTH", "ncessch": "160108000326"}, {"name": "NORTH FREMONT JR/SR HIGH SCHOOL", "lat": 44.072548, "lon": -111.439605, "proficiency": 0.245, "district": "FREMONT COUNTY JOINT DISTRICT", "city": "ASHTON", "ncessch": "160111000203"}, {"name": "SOUTH FREMONT JR HIGH", "lat": 43.972239, "lon": -111.684437, "proficiency": 0.27, "district": "FREMONT COUNTY JOINT DISTRICT", "city": "ST ANTHONY", "ncessch": "160111000625"}, {"name": "FRUITLAND MIDDLE SCHOOL", "lat": 44.00273, "lon": -116.912704, "proficiency": 0.32, "district": "FRUITLAND DISTRICT", "city": "FRUITLAND", "ncessch": "160114000213"}, {"name": "GARDEN VALLEY SCHOOL", "lat": 44.091135, "lon": -115.957329, "proficiency": 0.495, "district": "GARDEN VALLEY DISTRICT", "city": "GARDEN VALLEY", "ncessch": "160117000830"}, {"name": "GENESEE SCHOOL", "lat": 46.551966, "lon": -116.929725, "proficiency": 0.695, "district": "GENESEE JOINT DISTRICT", "city": "GENESEE", "ncessch": "160120000845"}, {"name": "GLENNS FERRY MIDDLE SCHOOL", "lat": 42.958226, "lon": -115.309859, "proficiency": 0.05, "district": "GLENNS FERRY JOINT DISTRICT", "city": "GLENNS FERRY", "ncessch": "160123000744"}, {"name": "GOODING MIDDLE SCHOOL", "lat": 42.93786, "lon": -114.726534, "proficiency": 0.37, "district": "GOODING JOINT DISTRICT", "city": "GOODING", "ncessch": "160126000222"}, {"name": "GRACE JR/SR HIGH SCHOOL", "lat": 42.570365, "lon": -111.731205, "proficiency": 0.545, "district": "GRACE JOINT DISTRICT", "city": "GRACE", "ncessch": "160129000742"}, {"name": "HAGERMAN SCHOOL", "lat": 42.817992, "lon": -114.899577, "proficiency": 0.495, "district": "HAGERMAN JOINT DISTRICT", "city": "HAGERMAN", "ncessch": "160138000840"}, {"name": "HAGERMAN VIRTUAL SCHOOL", "lat": 42.818896, "lon": -114.900743, "proficiency": 0.245, "district": "HAGERMAN JOINT DISTRICT", "city": "HAGERMAN", "ncessch": "160138001143"}, {"name": "HANSEN JR/SR HIGH SCHOOL", "lat": 42.528301, "lon": -114.301916, "proficiency": 0.445, "district": "HANSEN DISTRICT", "city": "HANSEN", "ncessch": "160141000757"}, {"name": "HIGHLAND SCHOOL", "lat": 46.244102, "lon": -116.471933, "proficiency": 0.245, "district": "HIGHLAND JOINT DISTRICT", "city": "CRAIGMONT", "ncessch": "160144000849"}, {"name": "HOMEDALE MIDDLE SCHOOL", "lat": 43.611793, "lon": -116.952055, "proficiency": 0.27, "district": "HOMEDALE JOINT DISTRICT", "city": "HOMEDALE", "ncessch": "160147000767"}, {"name": "HORSESHOE BEND MIDDLE/SR HIGH", "lat": 43.908751, "lon": -116.201759, "proficiency": 0.1, "district": "HORSESHOE BEND SCHOOL DISTRICT", "city": "HORSESHOE BEND", "ncessch": "160150000831"}, {"name": "EAGLE ROCK MIDDLE SCHOOL", "lat": 43.490281, "lon": -112.071411, "proficiency": 0.33, "district": "IDAHO FALLS DISTRICT", "city": "IDAHO FALLS", "ncessch": "160153000257"}, {"name": "TAYLORVIEW MIDDLE SCHOOL", "lat": 43.459543, "lon": -112.027447, "proficiency": 0.38, "district": "IDAHO FALLS DISTRICT", "city": "IDAHO FALLS", "ncessch": "160153000727"}, {"name": "D91 ONLINE ACADEMY - SECONDARY", "lat": 43.493202, "lon": -112.019154, "proficiency": 0.3, "district": "IDAHO FALLS DISTRICT", "city": "IDAHO FALLS", "ncessch": "160153001156"}, {"name": "RIGBY MIDDLE SCHOOL", "lat": 43.668498, "lon": -111.941927, "proficiency": 0.52, "district": "JEFFERSON COUNTY JOINT DISTRICT", "city": "RIGBY", "ncessch": "160157001061"}, {"name": "FARNSWORTH MIDDLE SCHOOL", "lat": 43.671, "lon": -111.965385, "proficiency": 0.42, "district": "JEFFERSON COUNTY JOINT DISTRICT", "city": "RIGBY", "ncessch": "160157001131"}, {"name": "RIGBY VIRTUAL ACADEMY", "lat": 43.66948, "lon": -111.934209, "proficiency": 0.3, "district": "JEFFERSON COUNTY JOINT DISTRICT", "city": "RIGBY", "ncessch": "160157001132"}, {"name": "JEROME MIDDLE SCHOOL", "lat": 42.7338, "lon": -114.52612, "proficiency": 0.25, "district": "JEROME JOINT DISTRICT", "city": "JEROME", "ncessch": "160159000285"}, {"name": "KAMIAH MIDDLE SCHOOL", "lat": 46.221452, "lon": -116.031358, "proficiency": 0.345, "district": "KAMIAH JOINT DISTRICT", "city": "KAMIAH", "ncessch": "160162000458"}, {"name": "KELLOGG MIDDLE SCHOOL", "lat": 47.544123, "lon": -116.134572, "proficiency": 0.22, "district": "KELLOGG JOINT DISTRICT", "city": "KELLOGG", "ncessch": "160165000292"}, {"name": "KENDRICK JR/SR HIGH SCHOOL", "lat": 46.619312, "lon": -116.644797, "proficiency": 0.1, "district": "KENDRICK JOINT DISTRICT", "city": "KENDRICK", "ncessch": "160168000299"}, {"name": "KIMBERLY MIDDLE SCHOOL", "lat": 42.532168, "lon": -114.370508, "proficiency": 0.32, "district": "KIMBERLY DISTRICT", "city": "KIMBERLY", "ncessch": "160171000179"}, {"name": "KOOTENAI JR/SR HIGH SCHOOL", "lat": 47.399425, "lon": -116.670258, "proficiency": 0.3, "district": "KOOTENAI DISTRICT", "city": "HARRISON", "ncessch": "160174000303"}, {"name": "KUNA MIDDLE SCHOOL", "lat": 43.496438, "lon": -116.430743, "proficiency": 0.22, "district": "KUNA JOINT DISTRICT", "city": "KUNA", "ncessch": "160177000306"}, {"name": "FREMONT H TEED MIDDLE SCHOOL", "lat": 43.496874, "lon": -116.408367, "proficiency": 0.27, "district": "KUNA JOINT DISTRICT", "city": "KUNA", "ncessch": "160177000805"}, {"name": "LAKELAND MIDDLE SCHOOL", "lat": 47.815141, "lon": -116.885552, "proficiency": 0.27, "district": "LAKELAND DISTRICT", "city": "RATHDRUM", "ncessch": "160180000312"}, {"name": "TIMBERLAKE MIDDLE SCHOOL", "lat": 47.956641, "lon": -116.863406, "proficiency": 0.47, "district": "LAKELAND DISTRICT", "city": "SPIRIT LAKE", "ncessch": "160180000842"}, {"name": "LAPWAI MIDDLE/HIGH SCHOOL", "lat": 46.401717, "lon": -116.80658, "proficiency": 0.15, "district": "LAPWAI DISTRICT", "city": "LAPWAI", "ncessch": "160183000854"}, {"name": "JENIFER MIDDLE SCHOOL", "lat": 46.408033, "lon": -117.008782, "proficiency": 0.37, "district": "LEWISTON INDEPENDENT DISTRICT", "city": "LEWISTON", "ncessch": "160186000322"}, {"name": "SACAJAWEA MIDDLE SCHOOL", "lat": 46.372203, "lon": -116.971498, "proficiency": 0.32, "district": "LEWISTON INDEPENDENT DISTRICT", "city": "LEWISTON", "ncessch": "160186000328"}, {"name": "MACKAY JR/SR HIGH SCHOOL", "lat": 43.908792, "lon": -113.609178, "proficiency": 0.3, "district": "MACKAY JOINT DISTRICT", "city": "MACKAY", "ncessch": "160190000332"}, {"name": "CENTRAL HIGH SCHOOL", "lat": 43.817853, "lon": -111.777564, "proficiency": 0.245, "district": "MADISON DISTRICT", "city": "REXBURG", "ncessch": "160192000296"}, {"name": "MADISON JUNIOR HIGH SCHOOL", "lat": 43.829136, "lon": -111.769407, "proficiency": 0.22, "district": "MADISON DISTRICT", "city": "REXBURG", "ncessch": "160192000340"}, {"name": "MARSH VALLEY MIDDLE SCHOOL", "lat": 42.578347, "lon": -112.180449, "proficiency": 0.52, "district": "MARSH VALLEY JOINT DISTRICT", "city": "ARIMO", "ncessch": "160195000348"}, {"name": "MARSING MIDDLE SCHOOL", "lat": 43.541528, "lon": -116.813237, "proficiency": 0.22, "district": "MARSING JOINT DISTRICT", "city": "MARSING", "ncessch": "160198000636"}, {"name": "PAYETTE LAKES MIDDLE SCHOOL", "lat": 44.898773, "lon": -116.083246, "proficiency": 0.52, "district": "MCCALL-DONNELLY JOINT SCHOOL DISTRICT", "city": "MCCALL", "ncessch": "160203000584"}, {"name": "MEADOWS VALLEY SCHOOL", "lat": 44.975299, "lon": -116.287051, "proficiency": 0.245, "district": "MEADOWS VALLEY DISTRICT", "city": "NEW MEADOWS", "ncessch": "160206000826"}, {"name": "MELBA HIGH SCHOOL", "lat": 43.37937, "lon": -116.530623, "proficiency": 0.42, "district": "MELBA JOINT DISTRICT", "city": "MELBA", "ncessch": "160207000836"}, {"name": "EAGLE MIDDLE SCHOOL", "lat": 43.707569, "lon": -116.365787, "proficiency": 0.57, "district": "JOINT SCHOOL DISTRICT NO. 2", "city": "EAGLE", "ncessch": "160210000319"}, {"name": "LOWELL SCOTT MIDDLE SCHOOL", "lat": 43.649482, "lon": -116.35169, "proficiency": 0.42, "district": "JOINT SCHOOL DISTRICT NO. 2", "city": "BOISE", "ncessch": "160210000367"}, {"name": "MERIDIAN MIDDLE SCHOOL", "lat": 43.617686, "lon": -116.404544, "proficiency": 0.3, "district": "JOINT SCHOOL DISTRICT NO. 2", "city": "MERIDIAN", "ncessch": "160210000370"}, {"name": "CROSSROADS MIDDLE SCHOOL", "lat": 43.610563, "lon": -116.370723, "proficiency": 0.15, "district": "JOINT SCHOOL DISTRICT NO. 2", "city": "MERIDIAN", "ncessch": "160210000602"}, {"name": "LAKE HAZEL MIDDLE SCHOOL", "lat": 43.552657, "lon": -116.326417, "proficiency": 0.49, "district": "JOINT SCHOOL DISTRICT NO. 2", "city": "BOISE", "ncessch": "160210000638"}, {"name": "LEWIS & CLARK MIDDLE SCHOOL", "lat": 43.611097, "lon": -116.342331, "proficiency": 0.42, "district": "JOINT SCHOOL DISTRICT NO. 2", "city": "MERIDIAN", "ncessch": "160210000795"}, {"name": "SAWTOOTH MIDDLE SCHOOL", "lat": 43.638505, "lon": -116.412232, "proficiency": 0.54, "district": "JOINT SCHOOL DISTRICT NO. 2", "city": "MERIDIAN", "ncessch": "160210000819"}, {"name": "PATHWAYS MIDDLE SCHOOL", "lat": 43.639987, "lon": -116.371303, "proficiency": 0.15, "district": "JOINT SCHOOL DISTRICT NO. 2", "city": "MERIDIAN", "ncessch": "160210000931"}, {"name": "GALILEO MAGNET SCHOOL", "lat": 43.699617, "lon": -116.412101, "proficiency": 0.645, "district": "JOINT SCHOOL DISTRICT NO. 2", "city": "EAGLE", "ncessch": "160210000945"}, {"name": "HERITAGE MIDDLE SCHOOL", "lat": 43.649475, "lon": -116.391571, "proficiency": 0.6, "district": "JOINT SCHOOL DISTRICT NO. 2", "city": "MERIDIAN", "ncessch": "160210000958"}, {"name": "VIRTUAL SCHOOL HOUSE", "lat": 43.595795, "lon": -116.378603, "proficiency": 0.52, "district": "JOINT SCHOOL DISTRICT NO. 2", "city": "MERIDIAN", "ncessch": "160210001070"}, {"name": "IDAHO FINE ARTS ACADEMY", "lat": 43.596122, "lon": -116.381632, "proficiency": 0.695, "district": "JOINT SCHOOL DISTRICT NO. 2", "city": "MERIDIAN", "ncessch": "160210001071"}, {"name": "VICTORY MIDDLE SCHOOL", "lat": 43.583488, "lon": -116.405175, "proficiency": 0.52, "district": "JOINT SCHOOL DISTRICT NO. 2", "city": "MERIDIAN", "ncessch": "160210001084"}, {"name": "STAR MIDDLE SCHOOL", "lat": 43.711794, "lon": -116.473552, "proficiency": 0.42, "district": "JOINT SCHOOL DISTRICT NO. 2", "city": "STAR", "ncessch": "160210001104"}, {"name": "MIDDLETON MIDDLE SCHOOL", "lat": 43.705274, "lon": -116.629755, "proficiency": 0.35, "district": "MIDDLETON DISTRICT", "city": "MIDDLETON", "ncessch": "160213000378"}, {"name": "MIDVALE SCHOOL", "lat": 44.471086, "lon": -116.72914, "proficiency": 0.245, "district": "MIDVALE DISTRICT", "city": "MIDVALE", "ncessch": "160216000857"}, {"name": "MT HARRISON HIGH SCHOOL", "lat": 42.557011, "lon": -113.763468, "proficiency": 0.245, "district": "MINIDOKA COUNTY JOINT DISTRICT", "city": "HEYBURN", "ncessch": "160219000158"}, {"name": "EAST MINICO MIDDLE SCHOOL", "lat": 42.630913, "lon": -113.679113, "proficiency": 0.22, "district": "MINIDOKA COUNTY JOINT DISTRICT", "city": "RUPERT", "ncessch": "160219000381"}, {"name": "WEST MINICO MIDDLE SCHOOL", "lat": 42.596489, "lon": -113.785367, "proficiency": 0.22, "district": "MINIDOKA COUNTY JOINT DISTRICT", "city": "PAUL", "ncessch": "160219000389"}, {"name": "MOSCOW MIDDLE SCHOOL", "lat": 46.738347, "lon": -116.982624, "proficiency": 0.37, "district": "MOSCOW DISTRICT", "city": "MOSCOW", "ncessch": "160222000393"}, {"name": "MOSCOW CHARTER SCHOOL", "lat": 46.739282, "lon": -116.978056, "proficiency": 0.495, "district": "MOSCOW DISTRICT", "city": "MOSCOW", "ncessch": "160222000749"}, {"name": "MOUNTAIN HOME JUNIOR HIGH SCHOOL", "lat": 43.127927, "lon": -115.680688, "proficiency": 0.27, "district": "MOUNTAIN HOME DISTRICT", "city": "MOUNTAIN HOME", "ncessch": "160225000401"}, {"name": "BENNETT MOUNTAIN HIGH SCHOOL", "lat": 43.133517, "lon": -115.688581, "proficiency": 0.245, "district": "MOUNTAIN HOME DISTRICT", "city": "MOUNTAIN HOME", "ncessch": "160225001041"}, {"name": "MULLAN SCHOOLS", "lat": 47.469222, "lon": -115.797922, "proficiency": 0.245, "district": "MULLAN DISTRICT", "city": "MULLAN", "ncessch": "160228000405"}, {"name": "MURTAUGH SCHOOLS", "lat": 42.492541, "lon": -114.166781, "proficiency": 0.445, "district": "MURTAUGH JOINT DISTRICT", "city": "MURTAUGH", "ncessch": "160231001034"}, {"name": "SOUTH MIDDLE SCHOOL", "lat": 43.5461, "lon": -116.575138, "proficiency": 0.22, "district": "NAMPA SCHOOL DISTRICT", "city": "NAMPA", "ncessch": "160234000419"}, {"name": "WEST MIDDLE SCHOOL", "lat": 43.573761, "lon": -116.59164, "proficiency": 0.12, "district": "NAMPA SCHOOL DISTRICT", "city": "NAMPA", "ncessch": "160234000422"}, {"name": "UNION HIGH SCHOOL", "lat": 43.528078, "lon": -116.567474, "proficiency": 0.245, "district": "NAMPA SCHOOL DISTRICT", "city": "NAMPA", "ncessch": "160234000762"}, {"name": "EAST VALLEY MIDDLE SCHOOL", "lat": 43.545101, "lon": -116.521536, "proficiency": 0.17, "district": "NAMPA SCHOOL DISTRICT", "city": "NAMPA", "ncessch": "160234000811"}, {"name": "LONE STAR MIDDLE SCHOOL", "lat": 43.574093, "lon": -116.614494, "proficiency": 0.22, "district": "NAMPA SCHOOL DISTRICT", "city": "NAMPA", "ncessch": "160234000969"}, {"name": "NAMPA ONLINE VIRTUAL ACADEMY", "lat": 43.570012, "lon": -116.530062, "proficiency": 0.27, "district": "NAMPA SCHOOL DISTRICT", "city": "NAMPA", "ncessch": "160234001130"}, {"name": "NEW PLYMOUTH MIDDLE SCHOOL", "lat": 43.960766, "lon": -116.816066, "proficiency": 0.47, "district": "NEW PLYMOUTH DISTRICT", "city": "NEW PLYMOUTH", "ncessch": "160237000580"}, {"name": "NEZPERCE SCHOOL", "lat": 46.238069, "lon": -116.240477, "proficiency": 0.75, "district": "NEZPERCE JOINT DISTRICT", "city": "NEZPERCE", "ncessch": "160240000848"}, {"name": "NORTH GEM MIDDLE SCHOOL", "lat": 42.717536, "lon": -111.888049, "proficiency": 0.75, "district": "NORTH GEM DISTRICT", "city": "BANCROFT", "ncessch": "160243001099"}, {"name": "NOTUS JR/SR HIGH SCHOOL", "lat": 43.73584, "lon": -116.797055, "proficiency": 0.1, "district": "NOTUS DISTRICT", "city": "CALDWELL", "ncessch": "160246000431"}, {"name": "MALAD MIDDLE SCHOOL", "lat": 42.179691, "lon": -112.241992, "proficiency": 0.52, "district": "ONEIDA COUNTY DISTRICT", "city": "MALAD CITY", "ncessch": "160249000629"}, {"name": "IDAHO HOME LEARNING ACADEMY", "lat": 42.181644, "lon": -112.237491, "proficiency": 0.35, "district": "ONEIDA COUNTY DISTRICT", "city": "MALAD CITY", "ncessch": "160249001094"}, {"name": "OROFINO HIGH SCHOOL", "lat": 46.493562, "lon": -116.263802, "proficiency": 0.32, "district": "OROFINO JOINT DISTRICT", "city": "OROFINO", "ncessch": "160252000440"}, {"name": "TIMBERLINE HIGH SCHOOL", "lat": 46.435203, "lon": -115.887572, "proficiency": 0.245, "district": "OROFINO JOINT DISTRICT", "city": "WEIPPE", "ncessch": "160252000445"}, {"name": "PARMA MIDDLE SCHOOL", "lat": 43.789351, "lon": -116.935074, "proficiency": 0.42, "district": "PARMA DISTRICT", "city": "PARMA", "ncessch": "160255000080"}, {"name": "MCCAIN MIDDLE SCHOOL", "lat": 44.079494, "lon": -116.910101, "proficiency": 0.32, "district": "PAYETTE JOINT DISTRICT", "city": "PAYETTE", "ncessch": "160258000455"}, {"name": "FRANKLIN MIDDLE SCHOOL", "lat": 42.865303, "lon": -112.41795, "proficiency": 0.47, "district": "POCATELLO DISTRICT", "city": "POCATELLO", "ncessch": "160264000469"}, {"name": "HAWTHORNE MIDDLE SCHOOL", "lat": 42.894256, "lon": -112.471777, "proficiency": 0.27, "district": "POCATELLO DISTRICT", "city": "POCATELLO", "ncessch": "160264000471"}, {"name": "IRVING MIDDLE SCHOOL", "lat": 42.865252, "lon": -112.462297, "proficiency": 0.37, "district": "POCATELLO DISTRICT", "city": "POCATELLO", "ncessch": "160264000474"}, {"name": "ALAMEDA MIDDLE SCHOOL", "lat": 42.89049, "lon": -112.456933, "proficiency": 0.47, "district": "POCATELLO DISTRICT", "city": "POCATELLO", "ncessch": "160264001047"}, {"name": "POST FALLS MIDDLE SCHOOL", "lat": 47.724329, "lon": -116.944421, "proficiency": 0.47, "district": "POST FALLS DISTRICT", "city": "POST FALLS", "ncessch": "160267000489"}, {"name": "RIVER CITY MIDDLE SCHOOL", "lat": 47.724341, "lon": -116.954849, "proficiency": 0.32, "district": "POST FALLS DISTRICT", "city": "POST FALLS", "ncessch": "160267000844"}, {"name": "POTLATCH JR/SR HIGH SCHOOL", "lat": 46.928161, "lon": -116.9041, "proficiency": 0.15, "district": "POTLATCH DISTRICT", "city": "POTLATCH", "ncessch": "160270000495"}, {"name": "RICHFIELD SCHOOL", "lat": 43.052963, "lon": -114.157159, "proficiency": 0.245, "district": "RICHFIELD DISTRICT", "city": "RICHFIELD", "ncessch": "160276000497"}, {"name": "RIRIE JR/SR HIGH SCHOOL", "lat": 43.620522, "lon": -111.776297, "proficiency": 0.345, "district": "RIRIE JOINT DISTRICT", "city": "RIRIE", "ncessch": "160279000429"}, {"name": "ROCKLAND PUBLIC SCHOOL", "lat": 42.574706, "lon": -112.872479, "proficiency": 0.695, "district": "ROCKLAND DISTRICT", "city": "ROCKLAND", "ncessch": "160282000501"}, {"name": "SALMON JR/SR HIGH SCHOOL", "lat": 45.170369, "lon": -113.886249, "proficiency": 0.15, "district": "SALMON DISTRICT", "city": "SALMON", "ncessch": "160285000504"}, {"name": "DONALD J HOBBS MIDDLE SCHOOL", "lat": 43.380006, "lon": -112.116684, "proficiency": 0.37, "district": "SHELLEY JOINT DISTRICT", "city": "SHELLEY", "ncessch": "160291000723"}, {"name": "SHOSHONE MIDDLE SCHOOL", "lat": 42.928602, "lon": -114.402201, "proficiency": 0.245, "district": "SHOSHONE JOINT DISTRICT", "city": "SHOSHONE", "ncessch": "160294000850"}, {"name": "SNAKE RIVER JR HIGH SCHOOL", "lat": 43.198493, "lon": -112.47857, "proficiency": 0.47, "district": "SNAKE RIVER DISTRICT", "city": "BLACKFOOT", "ncessch": "160297000520"}, {"name": "SNAKE RIVER ONLINE", "lat": 43.181964, "lon": -112.474432, "proficiency": 0.345, "district": "SNAKE RIVER DISTRICT", "city": "BLACKFOOT", "ncessch": "160297001137"}, {"name": "TIGERT MIDDLE SCHOOL", "lat": 42.653287, "lon": -111.596771, "proficiency": 0.57, "district": "SODA SPRINGS JOINT DISTRICT", "city": "SODA SPRINGS", "ncessch": "160300000527"}, {"name": "LEADORE SCHOOL", "lat": 44.677803, "lon": -113.360883, "proficiency": 0.245, "district": "SOUTH LEMHI DISTRICT", "city": "LEADORE", "ncessch": "160303000528"}, {"name": "ST MARIES MIDDLE SCHOOL", "lat": 47.313963, "lon": -116.573509, "proficiency": 0.42, "district": "ST MARIES JOINT DISTRICT", "city": "ST MARIES", "ncessch": "160306000534"}, {"name": "SUGAR-SALEM JUNIOR HIGH SCHOOL", "lat": 43.877458, "lon": -111.745205, "proficiency": 0.52, "district": "SUGAR-SALEM JOINT DISTRICT", "city": "Boise", "ncessch": "160309000702"}, {"name": "SWAN VALLEY ELEMENTARY SCHOOL", "lat": 43.405797, "lon": -111.2932, "proficiency": 0.75, "district": "SWAN VALLEY ELEMENTARY DISTRICT", "city": "IRWIN", "ncessch": "160312000541"}, {"name": "TETON MIDDLE SCHOOL", "lat": 43.736806, "lon": -111.099979, "proficiency": 0.37, "district": "TETON COUNTY DISTRICT", "city": "DRIGGS", "ncessch": "160318000544"}, {"name": "VERA C O'LEARY MIDDLE SCHOOL", "lat": 42.555022, "lon": -114.437316, "proficiency": 0.37, "district": "TWIN FALLS DISTRICT", "city": "TWIN FALLS", "ncessch": "160324000552"}, {"name": "ROBERT STUART MIDDLE SCHOOL", "lat": 42.575277, "lon": -114.492428, "proficiency": 0.27, "district": "TWIN FALLS DISTRICT", "city": "TWIN FALLS", "ncessch": "160324000553"}, {"name": "BRIDGE ACADEMY", "lat": 42.556132, "lon": -114.440103, "proficiency": 0.1, "district": "TWIN FALLS DISTRICT", "city": "TWIN FALLS", "ncessch": "160324000755"}, {"name": "SOUTH HILLS MIDDLE SCHOOL", "lat": 42.522523, "lon": -114.47119, "proficiency": 0.12, "district": "TWIN FALLS DISTRICT", "city": "TWIN FALLS", "ncessch": "160324001093"}, {"name": "TWIN FALLS VIRTUAL SCHOOLHOUSE", "lat": 42.55674, "lon": -114.471851, "proficiency": 0.75, "district": "TWIN FALLS DISTRICT", "city": "TWIN FALLS", "ncessch": "160324001105"}, {"name": "VALLEY SCHOOL", "lat": 42.593959, "lon": -114.170156, "proficiency": 0.345, "district": "VALLEY DISTRICT", "city": "HAZELTON", "ncessch": "160327000558"}, {"name": "WALLACE JR/SR HIGH SCHOOL", "lat": 47.473988, "lon": -115.927839, "proficiency": 0.15, "district": "WALLACE DISTRICT", "city": "WALLACE", "ncessch": "160330000565"}, {"name": "WEISER MIDDLE SCHOOL", "lat": 44.251233, "lon": -116.964832, "proficiency": 0.32, "district": "WEISER DISTRICT", "city": "WEISER", "ncessch": "160333000569"}, {"name": "WENDELL MIDDLE SCHOOL", "lat": 42.777973, "lon": -114.690161, "proficiency": 0.17, "district": "WENDELL DISTRICT", "city": "WENDELL", "ncessch": "160336000571"}, {"name": "WEST JEFFERSON MIDDLE SCHOOL", "lat": 43.84087, "lon": -112.445461, "proficiency": 0.345, "district": "WEST JEFFERSON DISTRICT", "city": "TERRETON", "ncessch": "160340001053"}, {"name": "BEUTLER MIDDLE SCHOOL", "lat": 42.110543, "lon": -111.992249, "proficiency": 0.645, "district": "WEST SIDE JOINT DISTRICT", "city": "DAYTON", "ncessch": "160342000412"}, {"name": "WILDER MIDDLE SCHOOL", "lat": 43.679184, "lon": -116.902862, "proficiency": 0.1, "district": "WILDER DISTRICT", "city": "WILDER", "ncessch": "160348001091"}], "districts": [{"name": "WEST BONNER COUNTY DISTRICT", "lat": 48.181063, "lon": -116.918877, "proficiency": 0.12, "schoolCount": 1}, {"name": "LAKE PEND OREILLE SCHOOL DISTRICT", "lat": 48.2084725, "lon": -116.3724155, "proficiency": 0.385, "schoolCount": 2}, {"name": "VICTORY CHARTER SCHOOL INC.", "lat": 43.514386, "lon": -116.55896, "proficiency": 0.695, "schoolCount": 1}, {"name": "IDAHO VIRTUAL ACADEMY INC.", "lat": 43.587082, "lon": -116.355531, "proficiency": 0.3075, "schoolCount": 2}, {"name": "IDAHO VIRTUAL HIGH SCHOOL INC.", "lat": 43.136866, "lon": -115.683765, "proficiency": 0.1, "schoolCount": 1}, {"name": "ROLLING HILLS PUBLIC CHARTER SCHOOL INC.", "lat": 43.689434, "lon": -116.312112, "proficiency": 0.495, "schoolCount": 1}, {"name": "COMPASS PUBLIC CHARTER SCHOOL INC.", "lat": 43.607304, "lon": -116.45182, "proficiency": 0.67, "schoolCount": 1}, {"name": "FALCON RIDGE PUBLIC CHARTER SCHOOL INC.", "lat": 43.487976, "lon": -116.432841, "proficiency": 0.695, "schoolCount": 1}, {"name": "TROY SCHOOL DISTRICT", "lat": 46.747412, "lon": -116.767502, "proficiency": 0.495, "schoolCount": 1}, {"name": "WHITEPINE JOINT SCHOOL DISTRICT", "lat": 46.797482, "lon": -116.559028, "proficiency": 0.75, "schoolCount": 1}, {"name": "INSPIRE ACADEMICS INC.", "lat": 43.610423, "lon": -116.289349, "proficiency": 0.37, "schoolCount": 1}, {"name": "LIBERTY CHARTER SCHOOL INC.", "lat": 43.51654, "lon": -116.559261, "proficiency": 0.9, "schoolCount": 1}, {"name": "THE ACADEMY INC.", "lat": 42.914234, "lon": -112.494661, "proficiency": 0.545, "schoolCount": 1}, {"name": "TAYLOR'S CROSSING PUBLIC CHARTER SCHOOL INC.", "lat": 43.508243, "lon": -111.93848, "proficiency": 0.3, "schoolCount": 1}, {"name": "ABERDEEN DISTRICT", "lat": 42.942217, "lon": -112.845221, "proficiency": 0.15, "schoolCount": 1}, {"name": "AMERICAN FALLS JOINT DISTRICT", "lat": 42.786292, "lon": -112.846837, "proficiency": 0.22, "schoolCount": 1}, {"name": "SALMON RIVER JOINT SCHOOL DISTRICT", "lat": 45.418587, "lon": -116.319529, "proficiency": 0.75, "schoolCount": 1}, {"name": "MOUNTAIN VIEW SCHOOL DISTRICT", "lat": 46.019765, "lon": -116.0513125, "proficiency": 0.385, "schoolCount": 2}, {"name": "XAVIER CHARTER SCHOOL INC.", "lat": 42.586689, "lon": -114.508627, "proficiency": 0.42, "schoolCount": 1}, {"name": "VISION CHARTER SCHOOL INC.", "lat": 43.651985, "lon": -116.62459, "proficiency": 0.345, "schoolCount": 1}, {"name": "WHITE PINE CHARTER SCHOOL INC.", "lat": 43.492181, "lon": -111.975297, "proficiency": 0.345, "schoolCount": 1}, {"name": "NORTH VALLEY ACADEMY INC.", "lat": 42.935967, "lon": -114.712443, "proficiency": 0.1, "schoolCount": 1}, {"name": "IDAHO SCIENCE AND TECHNOLOGY CHARTER SCHOOL INC.", "lat": 43.199534, "lon": -112.403569, "proficiency": 0.245, "schoolCount": 1}, {"name": "IDAHO VIRTUAL EDUCATION PARTNERS INC.", "lat": 43.655647, "lon": -116.3112215, "proficiency": 0.245, "schoolCount": 2}, {"name": "PALOUSE PRAIRIE EDUCATIONAL ORGANIZATION INC.", "lat": 46.717009, "lon": -116.995307, "proficiency": 0.75, "schoolCount": 1}, {"name": "CANYON-OWYHEE SCHOOL SERVICE AGENCY (COSSA)", "lat": 43.681668, "lon": -116.905469, "proficiency": 0.245, "schoolCount": 1}, {"name": "BLACKFOOT CHARTER COMMUNITY LEARNING CENTER INC.", "lat": 43.208878, "lon": -112.37971, "proficiency": 0.3, "schoolCount": 1}, {"name": "MONTICELLO MONTESSORI CHARTER SCHOOL INC.", "lat": 43.454865, "lon": -111.958511, "proficiency": 0.245, "schoolCount": 1}, {"name": "ANOTHER CHOICE VIRTUAL CHARTER SCHOOL INC.", "lat": 43.6013, "lon": -116.593601, "proficiency": 0.05, "schoolCount": 1}, {"name": "THE SAGE INTERNATIONAL SCHOOL OF BOISE A PUBLIC CHARTER SCH", "lat": 43.593679, "lon": -116.179333, "proficiency": 0.57, "schoolCount": 1}, {"name": "THE VILLAGE CHARTER SCHOOL INC.", "lat": 43.620284, "lon": -116.287457, "proficiency": 0.3, "schoolCount": 1}, {"name": "LEGACY PUBLIC CHARTER SCHOOL INC.", "lat": 43.53051, "lon": -116.53733, "proficiency": 0.745, "schoolCount": 1}, {"name": "HERITAGE ACADEMY INC.", "lat": 42.719776, "lon": -114.517986, "proficiency": 0.245, "schoolCount": 1}, {"name": "NORTH IDAHO STEM CHARTER ACADEMY INC.", "lat": 47.814412, "lon": -116.876574, "proficiency": 0.845, "schoolCount": 1}, {"name": "HERITAGE COMMUNITY CHARTER SCHOOL INC.", "lat": 43.634601, "lon": -116.676518, "proficiency": 0.245, "schoolCount": 1}, {"name": "AMERICAN HERITAGE CHARTER SCHOOL INC.", "lat": 43.482021, "lon": -112.10332, "proficiency": 0.495, "schoolCount": 1}, {"name": "SANDPOINT CHARTER SCHOOL INC.", "lat": 48.26418, "lon": -116.571111, "proficiency": 0.245, "schoolCount": 1}, {"name": "SYRINGA MOUNTAIN SCHOOL INC.", "lat": 43.486569, "lon": -114.275582, "proficiency": 0.75, "schoolCount": 1}, {"name": "GEM PREP: ONLINE LLC", "lat": 43.590007, "lon": -116.359915, "proficiency": 0.645, "schoolCount": 1}, {"name": "COEUR D'ALENE CHARTER ACADEMY INC.", "lat": 47.715973, "lon": -116.796501, "proficiency": 0.77, "schoolCount": 1}, {"name": "NORTH STAR CHARTER SCHOOL INC.", "lat": 43.700044, "lon": -116.414972, "proficiency": 0.62, "schoolCount": 1}, {"name": "ALTURAS INTERNATIONAL ACADEMY INC.", "lat": 43.489331, "lon": -112.036739, "proficiency": 0.445, "schoolCount": 1}, {"name": "THE POCATELLO COMMUNITY CHARTER SCHOOL INC.", "lat": 42.854311, "lon": -112.443739, "proficiency": 0.445, "schoolCount": 1}, {"name": "GEM PREP: POCATELLO LLC", "lat": 42.908726, "lon": -112.470713, "proficiency": 0.3, "schoolCount": 1}, {"name": "PEACE VALLEY CHARTER SCHOOL INC.", "lat": 43.586936, "lon": -116.202057, "proficiency": 0.245, "schoolCount": 1}, {"name": "GEM PREP: MERIDIAN LLC", "lat": 43.590007, "lon": -116.359915, "proficiency": 0.445, "schoolCount": 1}, {"name": "BASIN SCHOOL DISTRICT", "lat": 43.831859, "lon": -115.833654, "proficiency": 0.3, "schoolCount": 1}, {"name": "PROJECT IMPACT STEM ACADEMY INC.", "lat": 43.592813, "lon": -116.405395, "proficiency": 0.695, "schoolCount": 1}, {"name": "HAYDEN CANYON CHARTER SCHOOL INC.", "lat": 47.796121, "lon": -116.782921, "proficiency": 0.245, "schoolCount": 1}, {"name": "FERN-WATERS PUBLIC CHARTER SCHOOL INC.", "lat": 45.175958, "lon": -113.898019, "proficiency": 0.75, "schoolCount": 1}, {"name": "ELEVATE ACADEMY INC.", "lat": 43.6745, "lon": -116.691329, "proficiency": 0.05, "schoolCount": 1}, {"name": "FORGE INTERNATIONAL LLC", "lat": 43.703911, "lon": -116.64053, "proficiency": 0.3, "schoolCount": 1}, {"name": "THOMAS JEFFERSON CHARTER SCHOOL INC.", "lat": 43.659795, "lon": -116.638606, "proficiency": 0.645, "schoolCount": 1}, {"name": "ANSER OF IDAHO INC.", "lat": 43.633376, "lon": -116.249765, "proficiency": 0.245, "schoolCount": 1}, {"name": "BEAR LAKE COUNTY DISTRICT", "lat": 42.2717825, "lon": -111.351188, "proficiency": 0.4075, "schoolCount": 2}, {"name": "BLACKFOOT DISTRICT", "lat": 43.1902155, "lon": -112.33566350000001, "proficiency": 0.2825, "schoolCount": 2}, {"name": "BLAINE COUNTY DISTRICT", "lat": 43.507895999999995, "lon": -114.210165, "proficiency": 0.405, "schoolCount": 3}, {"name": "BLISS JOINT DISTRICT", "lat": 42.923226, "lon": -114.94247, "proficiency": 0.245, "schoolCount": 1}, {"name": "BOISE INDEPENDENT DISTRICT", "lat": 43.60855525, "lon": -116.218140375, "proficiency": 0.3887, "schoolCount": 8}, {"name": "BOUNDARY COUNTY DISTRICT", "lat": 48.679722, "lon": -116.325735, "proficiency": 0.52, "schoolCount": 1}, {"name": "BRUNEAU-GRAND VIEW JOINT SCHOOL DISTRICT", "lat": 42.933493, "lon": -115.989412, "proficiency": 0.1, "schoolCount": 1}, {"name": "BUHL JOINT DISTRICT", "lat": 42.606691, "lon": -114.758516, "proficiency": 0.32, "schoolCount": 1}, {"name": "BUTTE COUNTY JOINT DISTRICT", "lat": 43.63358, "lon": -113.302383, "proficiency": 0.3, "schoolCount": 1}, {"name": "CALDWELL DISTRICT", "lat": 43.6433775, "lon": -116.6871665, "proficiency": 0.12, "schoolCount": 2}, {"name": "CAMAS COUNTY DISTRICT", "lat": 43.347126, "lon": -114.791235, "proficiency": 0.3, "schoolCount": 1}, {"name": "CAMBRIDGE JOINT DISTRICT", "lat": 44.574751, "lon": -116.680053, "proficiency": 0.245, "schoolCount": 1}, {"name": "VALLIVUE SCHOOL DISTRICT", "lat": 43.622482500000004, "lon": -116.6457925, "proficiency": 0.315, "schoolCount": 2}, {"name": "CASCADE DISTRICT", "lat": 44.515763, "lon": -116.045756, "proficiency": 0.245, "schoolCount": 1}, {"name": "CASSIA COUNTY JOINT DISTRICT", "lat": 42.4402265, "lon": -113.71426233333334, "proficiency": 0.2975, "schoolCount": 6}, {"name": "CASTLEFORD DISTRICT", "lat": 42.521564, "lon": -114.875277, "proficiency": 0.695, "schoolCount": 1}, {"name": "CHALLIS JOINT DISTRICT", "lat": 44.508213, "lon": -114.225813, "proficiency": 0.1, "schoolCount": 1}, {"name": "CLARK COUNTY DISTRICT", "lat": 44.172949, "lon": -112.230523, "proficiency": 0.245, "schoolCount": 1}, {"name": "COEUR D'ALENE DISTRICT", "lat": 47.708663333333334, "lon": -116.78336300000001, "proficiency": 0.42, "schoolCount": 3}, {"name": "COTTONWOOD JOINT DISTRICT", "lat": 46.035053, "lon": -116.391478, "proficiency": 0.345, "schoolCount": 1}, {"name": "PLUMMER-WORLEY JOINT DISTRICT", "lat": 47.333407, "lon": -116.890619, "proficiency": 0.1, "schoolCount": 1}, {"name": "COUNCIL DISTRICT", "lat": 44.727619, "lon": -116.439677, "proficiency": 0.3, "schoolCount": 1}, {"name": "CULDESAC JOINT DISTRICT", "lat": 46.375279, "lon": -116.671432, "proficiency": 0.245, "schoolCount": 1}, {"name": "DIETRICH DISTRICT", "lat": 42.913017, "lon": -114.262937, "proficiency": 0.495, "schoolCount": 1}, {"name": "BONNEVILLE JOINT DISTRICT", "lat": 43.51648175, "lon": -111.97524175, "proficiency": 0.3187, "schoolCount": 4}, {"name": "PRESTON JOINT DISTRICT", "lat": 42.082859, "lon": -111.864657, "proficiency": 0.27, "schoolCount": 1}, {"name": "EMMETT INDEPENDENT DISTRICT", "lat": 43.872087, "lon": -116.4902875, "proficiency": 0.21, "schoolCount": 2}, {"name": "FILER DISTRICT", "lat": 42.563204, "lon": -114.607182, "proficiency": 0.37, "schoolCount": 1}, {"name": "FIRTH DISTRICT", "lat": 43.307423, "lon": -112.188989, "proficiency": 0.42, "schoolCount": 1}, {"name": "FREMONT COUNTY JOINT DISTRICT", "lat": 44.0223935, "lon": -111.562021, "proficiency": 0.2575, "schoolCount": 2}, {"name": "FRUITLAND DISTRICT", "lat": 44.00273, "lon": -116.912704, "proficiency": 0.32, "schoolCount": 1}, {"name": "GARDEN VALLEY DISTRICT", "lat": 44.091135, "lon": -115.957329, "proficiency": 0.495, "schoolCount": 1}, {"name": "GENESEE JOINT DISTRICT", "lat": 46.551966, "lon": -116.929725, "proficiency": 0.695, "schoolCount": 1}, {"name": "GLENNS FERRY JOINT DISTRICT", "lat": 42.958226, "lon": -115.309859, "proficiency": 0.05, "schoolCount": 1}, {"name": "GOODING JOINT DISTRICT", "lat": 42.93786, "lon": -114.726534, "proficiency": 0.37, "schoolCount": 1}, {"name": "GRACE JOINT DISTRICT", "lat": 42.570365, "lon": -111.731205, "proficiency": 0.545, "schoolCount": 1}, {"name": "HAGERMAN JOINT DISTRICT", "lat": 42.818444, "lon": -114.90016, "proficiency": 0.37, "schoolCount": 2}, {"name": "HANSEN DISTRICT", "lat": 42.528301, "lon": -114.301916, "proficiency": 0.445, "schoolCount": 1}, {"name": "HIGHLAND JOINT DISTRICT", "lat": 46.244102, "lon": -116.471933, "proficiency": 0.245, "schoolCount": 1}, {"name": "HOMEDALE JOINT DISTRICT", "lat": 43.611793, "lon": -116.952055, "proficiency": 0.27, "schoolCount": 1}, {"name": "HORSESHOE BEND SCHOOL DISTRICT", "lat": 43.908751, "lon": -116.201759, "proficiency": 0.1, "schoolCount": 1}, {"name": "IDAHO FALLS DISTRICT", "lat": 43.48100866666667, "lon": -112.03933733333334, "proficiency": 0.3367, "schoolCount": 3}, {"name": "JEFFERSON COUNTY JOINT DISTRICT", "lat": 43.669659333333335, "lon": -111.94717366666667, "proficiency": 0.4133, "schoolCount": 3}, {"name": "JEROME JOINT DISTRICT", "lat": 42.7338, "lon": -114.52612, "proficiency": 0.25, "schoolCount": 1}, {"name": "KAMIAH JOINT DISTRICT", "lat": 46.221452, "lon": -116.031358, "proficiency": 0.345, "schoolCount": 1}, {"name": "KELLOGG JOINT DISTRICT", "lat": 47.544123, "lon": -116.134572, "proficiency": 0.22, "schoolCount": 1}, {"name": "KENDRICK JOINT DISTRICT", "lat": 46.619312, "lon": -116.644797, "proficiency": 0.1, "schoolCount": 1}, {"name": "KIMBERLY DISTRICT", "lat": 42.532168, "lon": -114.370508, "proficiency": 0.32, "schoolCount": 1}, {"name": "KOOTENAI DISTRICT", "lat": 47.399425, "lon": -116.670258, "proficiency": 0.3, "schoolCount": 1}, {"name": "KUNA JOINT DISTRICT", "lat": 43.496656, "lon": -116.419555, "proficiency": 0.245, "schoolCount": 2}, {"name": "LAKELAND DISTRICT", "lat": 47.885891, "lon": -116.87447900000001, "proficiency": 0.37, "schoolCount": 2}, {"name": "LAPWAI DISTRICT", "lat": 46.401717, "lon": -116.80658, "proficiency": 0.15, "schoolCount": 1}, {"name": "LEWISTON INDEPENDENT DISTRICT", "lat": 46.390118, "lon": -116.99014, "proficiency": 0.345, "schoolCount": 2}, {"name": "MACKAY JOINT DISTRICT", "lat": 43.908792, "lon": -113.609178, "proficiency": 0.3, "schoolCount": 1}, {"name": "MADISON DISTRICT", "lat": 43.823494499999995, "lon": -111.77348549999999, "proficiency": 0.2325, "schoolCount": 2}, {"name": "MARSH VALLEY JOINT DISTRICT", "lat": 42.578347, "lon": -112.180449, "proficiency": 0.52, "schoolCount": 1}, {"name": "MARSING JOINT DISTRICT", "lat": 43.541528, "lon": -116.813237, "proficiency": 0.22, "schoolCount": 1}, {"name": "MCCALL-DONNELLY JOINT SCHOOL DISTRICT", "lat": 44.898773, "lon": -116.083246, "proficiency": 0.52, "schoolCount": 1}, {"name": "MEADOWS VALLEY DISTRICT", "lat": 44.975299, "lon": -116.287051, "proficiency": 0.245, "schoolCount": 1}, {"name": "MELBA JOINT DISTRICT", "lat": 43.37937, "lon": -116.530623, "proficiency": 0.42, "schoolCount": 1}, {"name": "JOINT SCHOOL DISTRICT NO. 2", "lat": 43.63313121428571, "lon": -116.38483292857143, "proficiency": 0.46, "schoolCount": 14}, {"name": "MIDDLETON DISTRICT", "lat": 43.705274, "lon": -116.629755, "proficiency": 0.35, "schoolCount": 1}, {"name": "MIDVALE DISTRICT", "lat": 44.471086, "lon": -116.72914, "proficiency": 0.245, "schoolCount": 1}, {"name": "MINIDOKA COUNTY JOINT DISTRICT", "lat": 42.594804333333336, "lon": -113.74264933333332, "proficiency": 0.2283, "schoolCount": 3}, {"name": "MOSCOW DISTRICT", "lat": 46.738814500000004, "lon": -116.98034, "proficiency": 0.4325, "schoolCount": 2}, {"name": "MOUNTAIN HOME DISTRICT", "lat": 43.130722, "lon": -115.6846345, "proficiency": 0.2575, "schoolCount": 2}, {"name": "MULLAN DISTRICT", "lat": 47.469222, "lon": -115.797922, "proficiency": 0.245, "schoolCount": 1}, {"name": "MURTAUGH JOINT DISTRICT", "lat": 42.492541, "lon": -114.166781, "proficiency": 0.445, "schoolCount": 1}, {"name": "NAMPA SCHOOL DISTRICT", "lat": 43.55619083333334, "lon": -116.56672400000001, "proficiency": 0.2075, "schoolCount": 6}, {"name": "NEW PLYMOUTH DISTRICT", "lat": 43.960766, "lon": -116.816066, "proficiency": 0.47, "schoolCount": 1}, {"name": "NEZPERCE JOINT DISTRICT", "lat": 46.238069, "lon": -116.240477, "proficiency": 0.75, "schoolCount": 1}, {"name": "NORTH GEM DISTRICT", "lat": 42.717536, "lon": -111.888049, "proficiency": 0.75, "schoolCount": 1}, {"name": "NOTUS DISTRICT", "lat": 43.73584, "lon": -116.797055, "proficiency": 0.1, "schoolCount": 1}, {"name": "ONEIDA COUNTY DISTRICT", "lat": 42.1806675, "lon": -112.23974150000001, "proficiency": 0.435, "schoolCount": 2}, {"name": "OROFINO JOINT DISTRICT", "lat": 46.4643825, "lon": -116.075687, "proficiency": 0.2825, "schoolCount": 2}, {"name": "PARMA DISTRICT", "lat": 43.789351, "lon": -116.935074, "proficiency": 0.42, "schoolCount": 1}, {"name": "PAYETTE JOINT DISTRICT", "lat": 44.079494, "lon": -116.910101, "proficiency": 0.32, "schoolCount": 1}, {"name": "POCATELLO DISTRICT", "lat": 42.87882525, "lon": -112.45223925, "proficiency": 0.395, "schoolCount": 4}, {"name": "POST FALLS DISTRICT", "lat": 47.724334999999996, "lon": -116.949635, "proficiency": 0.395, "schoolCount": 2}, {"name": "POTLATCH DISTRICT", "lat": 46.928161, "lon": -116.9041, "proficiency": 0.15, "schoolCount": 1}, {"name": "RICHFIELD DISTRICT", "lat": 43.052963, "lon": -114.157159, "proficiency": 0.245, "schoolCount": 1}, {"name": "RIRIE JOINT DISTRICT", "lat": 43.620522, "lon": -111.776297, "proficiency": 0.345, "schoolCount": 1}, {"name": "ROCKLAND DISTRICT", "lat": 42.574706, "lon": -112.872479, "proficiency": 0.695, "schoolCount": 1}, {"name": "SALMON DISTRICT", "lat": 45.170369, "lon": -113.886249, "proficiency": 0.15, "schoolCount": 1}, {"name": "SHELLEY JOINT DISTRICT", "lat": 43.380006, "lon": -112.116684, "proficiency": 0.37, "schoolCount": 1}, {"name": "SHOSHONE JOINT DISTRICT", "lat": 42.928602, "lon": -114.402201, "proficiency": 0.245, "schoolCount": 1}, {"name": "SNAKE RIVER DISTRICT", "lat": 43.1902285, "lon": -112.476501, "proficiency": 0.4075, "schoolCount": 2}, {"name": "SODA SPRINGS JOINT DISTRICT", "lat": 42.653287, "lon": -111.596771, "proficiency": 0.57, "schoolCount": 1}, {"name": "SOUTH LEMHI DISTRICT", "lat": 44.677803, "lon": -113.360883, "proficiency": 0.245, "schoolCount": 1}, {"name": "ST MARIES JOINT DISTRICT", "lat": 47.313963, "lon": -116.573509, "proficiency": 0.42, "schoolCount": 1}, {"name": "SUGAR-SALEM JOINT DISTRICT", "lat": 43.877458, "lon": -111.745205, "proficiency": 0.52, "schoolCount": 1}, {"name": "SWAN VALLEY ELEMENTARY DISTRICT", "lat": 43.405797, "lon": -111.2932, "proficiency": 0.75, "schoolCount": 1}, {"name": "TETON COUNTY DISTRICT", "lat": 43.736806, "lon": -111.099979, "proficiency": 0.37, "schoolCount": 1}, {"name": "TWIN FALLS DISTRICT", "lat": 42.5531388, "lon": -114.4625776, "proficiency": 0.322, "schoolCount": 5}, {"name": "VALLEY DISTRICT", "lat": 42.593959, "lon": -114.170156, "proficiency": 0.345, "schoolCount": 1}, {"name": "WALLACE DISTRICT", "lat": 47.473988, "lon": -115.927839, "proficiency": 0.15, "schoolCount": 1}, {"name": "WEISER DISTRICT", "lat": 44.251233, "lon": -116.964832, "proficiency": 0.32, "schoolCount": 1}, {"name": "WENDELL DISTRICT", "lat": 42.777973, "lon": -114.690161, "proficiency": 0.17, "schoolCount": 1}, {"name": "WEST JEFFERSON DISTRICT", "lat": 43.84087, "lon": -112.445461, "proficiency": 0.345, "schoolCount": 1}, {"name": "WEST SIDE JOINT DISTRICT", "lat": 42.110543, "lon": -111.992249, "proficiency": 0.645, "schoolCount": 1}, {"name": "WILDER DISTRICT", "lat": 43.679184, "lon": -116.902862, "proficiency": 0.1, "schoolCount": 1}], "cities": [{"name": "PRIEST RIVER", "lat": 48.181063, "lon": -116.918877, "proficiency": 0.12, "schoolCount": 1}, {"name": "CLARK FORK", "lat": 48.146845, "lon": -116.175561, "proficiency": 0.3, "schoolCount": 1}, {"name": "SANDPOINT", "lat": 48.26714, "lon": -116.5701905, "proficiency": 0.3575, "schoolCount": 2}, {"name": "NAMPA", "lat": 43.55898263636364, "lon": -116.53927054545456, "proficiency": 0.3527, "schoolCount": 11}, {"name": "MERIDIAN", "lat": 43.60878407692308, "lon": -116.38314700000001, "proficiency": 0.4481, "schoolCount": 13}, {"name": "MOUNTAIN HOME", "lat": 43.132769999999994, "lon": -115.68434466666668, "proficiency": 0.205, "schoolCount": 3}, {"name": "BOISE", "lat": 43.6146064375, "lon": -116.25209381250001, "proficiency": 0.3903, "schoolCount": 16}, {"name": "KUNA", "lat": 43.518525249999996, "lon": -116.4193365, "proficiency": 0.47, "schoolCount": 4}, {"name": "TROY", "lat": 46.747412, "lon": -116.767502, "proficiency": 0.495, "schoolCount": 1}, {"name": "DEARY", "lat": 44.43207166666667, "lon": -115.12988533333333, "proficiency": 0.4983, "schoolCount": 3}, {"name": "CHUBBUCK", "lat": 42.914234, "lon": -112.494661, "proficiency": 0.545, "schoolCount": 1}, {"name": "IDAHO FALLS", "lat": 43.4988548, "lon": -112.0097518, "proficiency": 0.3525, "schoolCount": 10}, {"name": "ABERDEEN", "lat": 42.942217, "lon": -112.845221, "proficiency": 0.15, "schoolCount": 1}, {"name": "AMERICAN FALLS", "lat": 42.786292, "lon": -112.846837, "proficiency": 0.22, "schoolCount": 1}, {"name": "RIGGINS", "lat": 45.418587, "lon": -116.319529, "proficiency": 0.75, "schoolCount": 1}, {"name": "KOOSKIA", "lat": 46.116112, "lon": -115.977951, "proficiency": 0.3, "schoolCount": 1}, {"name": "GRANGEVILLE", "lat": 45.923418, "lon": -116.124674, "proficiency": 0.47, "schoolCount": 1}, {"name": "TWIN FALLS", "lat": 42.5587305, "lon": -114.4702525, "proficiency": 0.3383, "schoolCount": 6}, {"name": "CALDWELL", "lat": 43.65427122222222, "lon": -116.67711288888889, "proficiency": 0.2506, "schoolCount": 9}, {"name": "AMMON", "lat": 43.473523, "lon": -111.966904, "proficiency": 0.295, "schoolCount": 2}, {"name": "GOODING", "lat": 42.9369135, "lon": -114.7194885, "proficiency": 0.235, "schoolCount": 2}, {"name": "BLACKFOOT", "lat": 43.1920844, "lon": -112.40557960000001, "proficiency": 0.325, "schoolCount": 5}, {"name": "MOSCOW", "lat": 46.731546, "lon": -116.985329, "proficiency": 0.5383, "schoolCount": 3}, {"name": "WILDER", "lat": 43.680426, "lon": -116.9041655, "proficiency": 0.1725, "schoolCount": 2}, {"name": "Boise", "lat": 43.543167999999994, "lon": -112.0624575, "proficiency": 0.41, "schoolCount": 2}, {"name": "JEROME", "lat": 42.726788, "lon": -114.522053, "proficiency": 0.2475, "schoolCount": 2}, {"name": "RATHDRUM", "lat": 47.814776499999994, "lon": -116.88106300000001, "proficiency": 0.5575, "schoolCount": 2}, {"name": "HAILEY", "lat": 43.507548, "lon": -114.296323, "proficiency": 0.56, "schoolCount": 2}, {"name": "COEUR D'ALENE", "lat": 47.71049075, "lon": -116.7866475, "proficiency": 0.5075, "schoolCount": 4}, {"name": "EAGLE", "lat": 43.70241000000001, "lon": -116.39762, "proficiency": 0.6117, "schoolCount": 3}, {"name": "POCATELLO", "lat": 42.8739224, "lon": -112.45053920000001, "proficiency": 0.405, "schoolCount": 5}, {"name": "IDAHO CITY", "lat": 43.831859, "lon": -115.833654, "proficiency": 0.3, "schoolCount": 1}, {"name": "HAYDEN LAKE", "lat": 47.796121, "lon": -116.782921, "proficiency": 0.245, "schoolCount": 1}, {"name": "SALMON", "lat": 45.1731635, "lon": -113.892134, "proficiency": 0.45, "schoolCount": 2}, {"name": "MIDDLETON", "lat": 43.704592500000004, "lon": -116.6351425, "proficiency": 0.325, "schoolCount": 2}, {"name": "GARDEN CITY", "lat": 43.633376, "lon": -116.249765, "proficiency": 0.245, "schoolCount": 1}, {"name": "MONTPELIER", "lat": 42.31715, "lon": -111.303446, "proficiency": 0.57, "schoolCount": 1}, {"name": "PARIS", "lat": 42.226415, "lon": -111.39893, "proficiency": 0.245, "schoolCount": 1}, {"name": "CAREY", "lat": 43.312684, "lon": -113.942329, "proficiency": 0.3, "schoolCount": 1}, {"name": "KETCHUM", "lat": 43.682477, "lon": -114.371102, "proficiency": 0.545, "schoolCount": 1}, {"name": "BLISS", "lat": 42.923226, "lon": -114.94247, "proficiency": 0.245, "schoolCount": 1}, {"name": "BONNERS FERRY", "lat": 48.679722, "lon": -116.325735, "proficiency": 0.52, "schoolCount": 1}, {"name": "BRUNEAU", "lat": 42.933493, "lon": -115.989412, "proficiency": 0.1, "schoolCount": 1}, {"name": "BUHL", "lat": 42.606691, "lon": -114.758516, "proficiency": 0.32, "schoolCount": 1}, {"name": "ARCO", "lat": 43.63358, "lon": -113.302383, "proficiency": 0.3, "schoolCount": 1}, {"name": "FAIRFIELD", "lat": 43.347126, "lon": -114.791235, "proficiency": 0.3, "schoolCount": 1}, {"name": "CAMBRIDGE", "lat": 44.574751, "lon": -116.680053, "proficiency": 0.245, "schoolCount": 1}, {"name": "CASCADE", "lat": 44.515763, "lon": -116.045756, "proficiency": 0.245, "schoolCount": 1}, {"name": "BURLEY", "lat": 42.52408433333333, "lon": -113.79941933333333, "proficiency": 0.2883, "schoolCount": 3}, {"name": "OAKLEY", "lat": 42.243624, "lon": -113.890032, "proficiency": 0.3, "schoolCount": 1}, {"name": "MALTA", "lat": 42.307704, "lon": -113.372244, "proficiency": 0.3, "schoolCount": 1}, {"name": "DECLO", "lat": 42.517778, "lon": -113.62504, "proficiency": 0.32, "schoolCount": 1}, {"name": "CASTLEFORD", "lat": 42.521564, "lon": -114.875277, "proficiency": 0.695, "schoolCount": 1}, {"name": "CHALLIS", "lat": 44.508213, "lon": -114.225813, "proficiency": 0.1, "schoolCount": 1}, {"name": "DUBOIS", "lat": 44.172949, "lon": -112.230523, "proficiency": 0.245, "schoolCount": 1}, {"name": "COTTONWOOD", "lat": 46.035053, "lon": -116.391478, "proficiency": 0.345, "schoolCount": 1}, {"name": "PLUMMER", "lat": 47.333407, "lon": -116.890619, "proficiency": 0.1, "schoolCount": 1}, {"name": "COUNCIL", "lat": 44.727619, "lon": -116.439677, "proficiency": 0.3, "schoolCount": 1}, {"name": "CULDESAC", "lat": 46.375279, "lon": -116.671432, "proficiency": 0.245, "schoolCount": 1}, {"name": "DIETRICH", "lat": 42.913017, "lon": -114.262937, "proficiency": 0.495, "schoolCount": 1}, {"name": "PRESTON", "lat": 42.082859, "lon": -111.864657, "proficiency": 0.27, "schoolCount": 1}, {"name": "EMMETT", "lat": 43.872087, "lon": -116.4902875, "proficiency": 0.21, "schoolCount": 2}, {"name": "FILER", "lat": 42.563204, "lon": -114.607182, "proficiency": 0.37, "schoolCount": 1}, {"name": "FIRTH", "lat": 43.307423, "lon": -112.188989, "proficiency": 0.42, "schoolCount": 1}, {"name": "ASHTON", "lat": 44.072548, "lon": -111.439605, "proficiency": 0.245, "schoolCount": 1}, {"name": "ST ANTHONY", "lat": 43.972239, "lon": -111.684437, "proficiency": 0.27, "schoolCount": 1}, {"name": "FRUITLAND", "lat": 44.00273, "lon": -116.912704, "proficiency": 0.32, "schoolCount": 1}, {"name": "GARDEN VALLEY", "lat": 44.091135, "lon": -115.957329, "proficiency": 0.495, "schoolCount": 1}, {"name": "GENESEE", "lat": 46.551966, "lon": -116.929725, "proficiency": 0.695, "schoolCount": 1}, {"name": "GLENNS FERRY", "lat": 42.958226, "lon": -115.309859, "proficiency": 0.05, "schoolCount": 1}, {"name": "GRACE", "lat": 42.570365, "lon": -111.731205, "proficiency": 0.545, "schoolCount": 1}, {"name": "HAGERMAN", "lat": 42.818444, "lon": -114.90016, "proficiency": 0.37, "schoolCount": 2}, {"name": "HANSEN", "lat": 42.528301, "lon": -114.301916, "proficiency": 0.445, "schoolCount": 1}, {"name": "CRAIGMONT", "lat": 46.244102, "lon": -116.471933, "proficiency": 0.245, "schoolCount": 1}, {"name": "HOMEDALE", "lat": 43.611793, "lon": -116.952055, "proficiency": 0.27, "schoolCount": 1}, {"name": "HORSESHOE BEND", "lat": 43.908751, "lon": -116.201759, "proficiency": 0.1, "schoolCount": 1}, {"name": "RIGBY", "lat": 43.669659333333335, "lon": -111.94717366666667, "proficiency": 0.4133, "schoolCount": 3}, {"name": "KAMIAH", "lat": 46.221452, "lon": -116.031358, "proficiency": 0.345, "schoolCount": 1}, {"name": "KELLOGG", "lat": 47.544123, "lon": -116.134572, "proficiency": 0.22, "schoolCount": 1}, {"name": "KENDRICK", "lat": 46.619312, "lon": -116.644797, "proficiency": 0.1, "schoolCount": 1}, {"name": "KIMBERLY", "lat": 42.532168, "lon": -114.370508, "proficiency": 0.32, "schoolCount": 1}, {"name": "HARRISON", "lat": 47.399425, "lon": -116.670258, "proficiency": 0.3, "schoolCount": 1}, {"name": "SPIRIT LAKE", "lat": 47.956641, "lon": -116.863406, "proficiency": 0.47, "schoolCount": 1}, {"name": "LAPWAI", "lat": 46.401717, "lon": -116.80658, "proficiency": 0.15, "schoolCount": 1}, {"name": "LEWISTON", "lat": 46.390118, "lon": -116.99014, "proficiency": 0.345, "schoolCount": 2}, {"name": "MACKAY", "lat": 43.908792, "lon": -113.609178, "proficiency": 0.3, "schoolCount": 1}, {"name": "REXBURG", "lat": 43.823494499999995, "lon": -111.77348549999999, "proficiency": 0.2325, "schoolCount": 2}, {"name": "ARIMO", "lat": 42.578347, "lon": -112.180449, "proficiency": 0.52, "schoolCount": 1}, {"name": "MARSING", "lat": 43.541528, "lon": -116.813237, "proficiency": 0.22, "schoolCount": 1}, {"name": "MCCALL", "lat": 44.898773, "lon": -116.083246, "proficiency": 0.52, "schoolCount": 1}, {"name": "NEW MEADOWS", "lat": 44.975299, "lon": -116.287051, "proficiency": 0.245, "schoolCount": 1}, {"name": "MELBA", "lat": 43.37937, "lon": -116.530623, "proficiency": 0.42, "schoolCount": 1}, {"name": "STAR", "lat": 43.711794, "lon": -116.473552, "proficiency": 0.42, "schoolCount": 1}, {"name": "MIDVALE", "lat": 44.471086, "lon": -116.72914, "proficiency": 0.245, "schoolCount": 1}, {"name": "HEYBURN", "lat": 42.557011, "lon": -113.763468, "proficiency": 0.245, "schoolCount": 1}, {"name": "RUPERT", "lat": 42.630913, "lon": -113.679113, "proficiency": 0.22, "schoolCount": 1}, {"name": "PAUL", "lat": 42.596489, "lon": -113.785367, "proficiency": 0.22, "schoolCount": 1}, {"name": "MULLAN", "lat": 47.469222, "lon": -115.797922, "proficiency": 0.245, "schoolCount": 1}, {"name": "MURTAUGH", "lat": 42.492541, "lon": -114.166781, "proficiency": 0.445, "schoolCount": 1}, {"name": "NEW PLYMOUTH", "lat": 43.960766, "lon": -116.816066, "proficiency": 0.47, "schoolCount": 1}, {"name": "NEZPERCE", "lat": 46.238069, "lon": -116.240477, "proficiency": 0.75, "schoolCount": 1}, {"name": "BANCROFT", "lat": 42.717536, "lon": -111.888049, "proficiency": 0.75, "schoolCount": 1}, {"name": "MALAD CITY", "lat": 42.1806675, "lon": -112.23974150000001, "proficiency": 0.435, "schoolCount": 2}, {"name": "OROFINO", "lat": 46.493562, "lon": -116.263802, "proficiency": 0.32, "schoolCount": 1}, {"name": "WEIPPE", "lat": 46.435203, "lon": -115.887572, "proficiency": 0.245, "schoolCount": 1}, {"name": "PARMA", "lat": 43.789351, "lon": -116.935074, "proficiency": 0.42, "schoolCount": 1}, {"name": "PAYETTE", "lat": 44.079494, "lon": -116.910101, "proficiency": 0.32, "schoolCount": 1}, {"name": "POST FALLS", "lat": 47.724334999999996, "lon": -116.949635, "proficiency": 0.395, "schoolCount": 2}, {"name": "POTLATCH", "lat": 46.928161, "lon": -116.9041, "proficiency": 0.15, "schoolCount": 1}, {"name": "RICHFIELD", "lat": 43.052963, "lon": -114.157159, "proficiency": 0.245, "schoolCount": 1}, {"name": "RIRIE", "lat": 43.620522, "lon": -111.776297, "proficiency": 0.345, "schoolCount": 1}, {"name": "ROCKLAND", "lat": 42.574706, "lon": -112.872479, "proficiency": 0.695, "schoolCount": 1}, {"name": "SHELLEY", "lat": 43.380006, "lon": -112.116684, "proficiency": 0.37, "schoolCount": 1}, {"name": "SHOSHONE", "lat": 42.928602, "lon": -114.402201, "proficiency": 0.245, "schoolCount": 1}, {"name": "SODA SPRINGS", "lat": 42.653287, "lon": -111.596771, "proficiency": 0.57, "schoolCount": 1}, {"name": "LEADORE", "lat": 44.677803, "lon": -113.360883, "proficiency": 0.245, "schoolCount": 1}, {"name": "ST MARIES", "lat": 47.313963, "lon": -116.573509, "proficiency": 0.42, "schoolCount": 1}, {"name": "IRWIN", "lat": 43.405797, "lon": -111.2932, "proficiency": 0.75, "schoolCount": 1}, {"name": "DRIGGS", "lat": 43.736806, "lon": -111.099979, "proficiency": 0.37, "schoolCount": 1}, {"name": "HAZELTON", "lat": 42.593959, "lon": -114.170156, "proficiency": 0.345, "schoolCount": 1}, {"name": "WALLACE", "lat": 47.473988, "lon": -115.927839, "proficiency": 0.15, "schoolCount": 1}, {"name": "WEISER", "lat": 44.251233, "lon": -116.964832, "proficiency": 0.32, "schoolCount": 1}, {"name": "WENDELL", "lat": 42.777973, "lon": -114.690161, "proficiency": 0.17, "schoolCount": 1}, {"name": "TERRETON", "lat": 43.84087, "lon": -112.445461, "proficiency": 0.345, "schoolCount": 1}, {"name": "DAYTON", "lat": 42.110543, "lon": -111.992249, "proficiency": 0.645, "schoolCount": 1}]}