{"state": "IN", "stateName": "Indiana", "year": 2020, "naep": {"text": "7 out of 10", "numerator": 7, "denominator": 10}, "schools": [{"name": "Pendleton Juvenile Correctional", "lat": 39.9691, "lon": -85.7759, "proficiency": -0.03, "district": "Indiana Department of Correction", "city": "Pendleton", "ncessch": "180000601935"}, {"name": "LaPorte Juvenile Correctional", "lat": 41.640985, "lon": -86.796064, "proficiency": -0.03, "district": "Indiana Department of Correction", "city": "LaPorte", "ncessch": "180000601943"}, {"name": "Logansport Juvenile Correctional", "lat": 40.741727, "lon": -86.400605, "proficiency": -0.03, "district": "Indiana Department of Correction", "city": "Logansport", "ncessch": "180000601946"}, {"name": "White River Valley Middle School", "lat": 38.978051, "lon": -87.100439, "proficiency": 0.32, "district": "White River Valley School District", "city": "Lyons", "ncessch": "180000802304"}, {"name": "Community Montessori", "lat": 38.3531, "lon": -85.8098, "proficiency": 0.1, "district": "Community Montessori Inc", "city": "New Albany", "ncessch": "180001101737"}, {"name": "Irvington Community School", "lat": 39.7693, "lon": -86.052, "proficiency": 0.12, "district": "Irvington Community School", "city": "Indianapolis", "ncessch": "180001401756"}, {"name": "Options Westfield", "lat": 40.044488, "lon": -86.106243, "proficiency": 0.245, "district": "Options Charter Schools", "city": "Carmel", "ncessch": "180001601738"}, {"name": "Options Noblesville", "lat": 40.01499, "lon": -85.992031, "proficiency": 0.245, "district": "Options Charter Schools", "city": "Noblesville", "ncessch": "180001602313"}, {"name": "Options Indiana", "lat": 40.05037, "lon": -86.029081, "proficiency": 0.245, "district": "Options Charter Schools", "city": "Noblesville", "ncessch": "180001602700"}, {"name": "Christel House Academy South", "lat": 39.727941, "lon": -86.148329, "proficiency": 0.245, "district": "Christel House Academy South", "city": "Indianapolis", "ncessch": "180001801789"}, {"name": "IN Sch for the Blind & Vis Imprd", "lat": 39.895061, "lon": -86.143336, "proficiency": -0.03, "district": "IN Sch for the Blind & Vis Imprd", "city": "Indianapolis", "ncessch": "180002302257"}, {"name": "Indiana School For The Deaf", "lat": 39.8343, "lon": -86.1366, "proficiency": 0.245, "district": "Indiana School For The Deaf", "city": "Indianapolis", "ncessch": "180002402258"}, {"name": "Thea Bowman Leadership Academy", "lat": 41.601115, "lon": -87.383887, "proficiency": 0.025, "district": "Thea Bowman Leadership Academy", "city": "Gary", "ncessch": "180002501807"}, {"name": "Charter School of the Dunes", "lat": 41.596404, "lon": -87.248952, "proficiency": 0.025, "district": "Charter School of the Dunes", "city": "Gary", "ncessch": "180002701815"}, {"name": "KIPP Indy College Prep Middle", "lat": 39.81148, "lon": -86.129141, "proficiency": 0.025, "district": "KIPP Indy College Prep Middle", "city": "Indianapolis", "ncessch": "180002802136"}, {"name": "Woodside Middle School", "lat": 41.064235, "lon": -85.3116, "proficiency": 0.36, "district": "MSD Southwest Allen County Schls", "city": "Fort Wayne", "ncessch": "180003000005"}, {"name": "Summit Middle School", "lat": 41.0433, "lon": -85.2832, "proficiency": 0.32, "district": "MSD Southwest Allen County Schls", "city": "Fort Wayne", "ncessch": "180003000116"}, {"name": "SE Neighborhood Sch of Excellence", "lat": 39.746088, "lon": -86.140769, "proficiency": 0.025, "district": "SE Neighborhood Sch of Excellence", "city": "Indianapolis", "ncessch": "180003302144"}, {"name": "Burris Laboratory School", "lat": 40.196838, "lon": -85.412325, "proficiency": 0.545, "district": "Burris Laboratory School", "city": "Muncie", "ncessch": "180003800185"}, {"name": "Andrew J Brown Academy", "lat": 39.822417, "lon": -85.973939, "proficiency": 0.05, "district": "Andrew J Brown Academy", "city": "Indianapolis", "ncessch": "180004201816"}, {"name": "Rural Community Academy", "lat": 39.1198, "lon": -87.5558, "proficiency": -0.03, "district": "Rural Community Schools Inc", "city": "Sullivan", "ncessch": "180004302138"}, {"name": "Charles A Tindley Accelerated Sch", "lat": 39.829805, "lon": -86.114481, "proficiency": 0.025, "district": "Charles A Tindley Accelerated Sch", "city": "Indianapolis", "ncessch": "180004502137"}, {"name": "21st Century Charter Sch of Gary", "lat": 41.600759, "lon": -87.338843, "proficiency": 0.025, "district": "21st Century Charter Sch of Gary", "city": "Gary", "ncessch": "180004602162"}, {"name": "East Chicago Urban Enterprise Academy", "lat": 41.629629, "lon": -87.453264, "proficiency": 0.05, "district": "East Chicago Urban Enterprise Academy", "city": "East Chicago", "ncessch": "180004802163"}, {"name": "Victory College Prep Academy", "lat": 39.743394, "lon": -86.088571, "proficiency": 0.12, "district": "Victory College Prep Academy", "city": "Indianapolis", "ncessch": "180005102165"}, {"name": "Gary Lighthouse Charter School", "lat": 41.598007, "lon": -87.392458, "proficiency": 0.025, "district": "Gary Lighthouse Charter School", "city": "Gary", "ncessch": "180005202155"}, {"name": "East Chicago Lighthouse", "lat": 41.642, "lon": -87.444125, "proficiency": 0.05, "district": "East Chicago Lighthouse Charter", "city": "East Chicago", "ncessch": "180005402235"}, {"name": "Adams Central Middle School", "lat": 40.746147, "lon": -84.942832, "proficiency": 0.42, "district": "Adams Central Community Schools", "city": "Monroe", "ncessch": "180006000008"}, {"name": "Geist Montessori Academy", "lat": 39.913763, "lon": -85.920828, "proficiency": 0.245, "district": "Geist Montessori Academy", "city": "McCordsville", "ncessch": "180006102387"}, {"name": "Renaissance Academy Charter School", "lat": 41.69, "lon": -86.7795, "proficiency": 0.495, "district": "Renaissance Academy Charter School", "city": "LaPorte", "ncessch": "180006502415"}, {"name": "IN Math & Science Academy", "lat": 39.8225, "lon": -86.237, "proficiency": 0.345, "district": "IN Math & Science Academy", "city": "Indianapolis", "ncessch": "180006702416"}, {"name": "Aspire Charter Academy", "lat": 41.58916, "lon": -87.396927, "proficiency": 0.05, "district": "Aspire Charter Academy", "city": "Gary", "ncessch": "180007102443"}, {"name": "Anderson Preparatory Academy", "lat": 40.086738, "lon": -85.680354, "proficiency": 0.025, "district": "Anderson Preparatory Academy", "city": "Anderson", "ncessch": "180007702425"}, {"name": "Hammond Academy of Science & Tech", "lat": 41.618095, "lon": -87.523552, "proficiency": 0.12, "district": "Hammond Academy of Science & Tech", "city": "Hammond", "ncessch": "180008202466"}, {"name": "The Bloomington Project School", "lat": 39.163037, "lon": -86.533295, "proficiency": 0.545, "district": "The Bloomington Project School", "city": "Bloomington", "ncessch": "180008302446"}, {"name": "Paramount Brookside", "lat": 39.787, "lon": -86.1128, "proficiency": 0.47, "district": "Paramount Brookside", "city": "Indianapolis", "ncessch": "180008602478"}, {"name": "Discovery Charter School", "lat": 41.638615, "lon": -87.052374, "proficiency": 0.1, "district": "Discovery Charter School", "city": "Porter", "ncessch": "180008802495"}, {"name": "IN Math & Science Academy - North", "lat": 39.88988, "lon": -86.12095, "proficiency": 0.27, "district": "IN Math & Science Academy - North", "city": "Indianapolis", "ncessch": "180009402487"}, {"name": "Indiana Connections Academy", "lat": 39.875879, "lon": -86.275272, "proficiency": 0.21, "district": "Indiana Connections Academy", "city": "Indianapolis", "ncessch": "180009802474"}, {"name": "Rock Creek Community Academy", "lat": 38.405494, "lon": -85.739502, "proficiency": 0.245, "district": "Rock Creek Community Academy", "city": "Sellersburg", "ncessch": "180009902497"}, {"name": "RISE Learning Center", "lat": 39.6888, "lon": -86.137971, "proficiency": 0.245, "district": "Southside Sp Srvs Of Marion Co", "city": "Indianapolis", "ncessch": "180010502502"}, {"name": "Tri-Township Elementary School", "lat": 41.4267, "lon": -86.8938, "proficiency": 0.1, "district": "Tri-Township Cons School Corp", "city": "Wanatah", "ncessch": "180010702520"}, {"name": "Damar Charter Academy", "lat": 39.68811, "lon": -86.286721, "proficiency": 0.3, "district": "Damar Charter Academy", "city": "Indianapolis", "ncessch": "180010802503"}, {"name": "Parke Heritage Middle School", "lat": 39.876652, "lon": -87.211875, "proficiency": 0.17, "district": "North Central Parke Comm Schl Corp", "city": "Marshall", "ncessch": "180011802667"}, {"name": "Alexandria Monroe Academy and Central Office", "lat": 40.26961, "lon": -85.681766, "proficiency": -0.03, "district": "Alexandria Community School Corp", "city": "Alexandria", "ncessch": "180012000009"}, {"name": "Alexandria-Monroe High School", "lat": 40.2521, "lon": -85.6784, "proficiency": 0.22, "district": "Alexandria Community School Corp", "city": "Alexandria", "ncessch": "180012000011"}, {"name": "Inspire Academy - A Sch of Inquiry", "lat": 40.174217, "lon": -85.35449, "proficiency": -0.03, "district": "Inspire Academy - A Sch of Inquiry", "city": "Muncie", "ncessch": "180012302560"}, {"name": "Phalen Leadership Academy - IN Inc", "lat": 39.828498, "lon": -86.001704, "proficiency": 0.245, "district": "Phalen Leadership Academy - IN Inc", "city": "Indianapolis", "ncessch": "180012402550"}, {"name": "Smith Academy for Excellence", "lat": 41.0755, "lon": -85.1487, "proficiency": 0.245, "district": "Smith Academy for Excellence", "city": "Fort Wayne", "ncessch": "180013102539"}, {"name": "Enlace Academy", "lat": 39.82275, "lon": -86.262214, "proficiency": 0.05, "district": "Enlace Academy", "city": "Indianapolis", "ncessch": "180013702551"}, {"name": "Vision Academy", "lat": 39.790731, "lon": -86.190549, "proficiency": 0.05, "district": "Vision Academy", "city": "Indianapolis", "ncessch": "180014602566"}, {"name": "Christel House Academy West", "lat": 39.766453, "lon": -86.212096, "proficiency": 0.05, "district": "Christel House Academy West", "city": "Indianapolis", "ncessch": "180014902568"}, {"name": "Highland Middle School", "lat": 40.136716, "lon": -85.630374, "proficiency": 0.09, "district": "Anderson Community School Corp", "city": "Anderson", "ncessch": "180015002483"}, {"name": "COMPASS Alternative School", "lat": 40.096061, "lon": -85.715677, "proficiency": 0.1, "district": "Anderson Community School Corp", "city": "Anderson", "ncessch": "180015002623"}, {"name": "Career Academy Middle School", "lat": 41.72774, "lon": -86.331751, "proficiency": 0.025, "district": "Career Academy Middle School", "city": "South Bend", "ncessch": "180016402593"}, {"name": "Dugger Union Community School Corp", "lat": 39.074371, "lon": -87.270515, "proficiency": 0.05, "district": "Dugger Union Community School Corp", "city": "Dugger", "ncessch": "180016502590"}, {"name": "Mays Community Academy", "lat": 39.742015, "lon": -85.429294, "proficiency": 0.245, "district": "Mays Community Academy", "city": "Mays", "ncessch": "180016802582"}, {"name": "Steel City Academy", "lat": 41.55698, "lon": -87.369451, "proficiency": 0.1, "district": "Steel City Academy", "city": "Gary", "ncessch": "180017102614"}, {"name": "Seven Oaks Classical School", "lat": 39.229805, "lon": -86.6213, "proficiency": 0.3, "district": "Seven Oaks Classical School", "city": "Ellettsville", "ncessch": "180017602603"}, {"name": "Higher Institute of Arts & Tech", "lat": 41.511898, "lon": -87.34511, "proficiency": 0.1, "district": "Higher Institute of Arts & Tech", "city": "Merrillville", "ncessch": "180017802602"}, {"name": "Hoosier College and Career Academy", "lat": 39.856955, "lon": -86.043148, "proficiency": 0.05, "district": "Hoosier College and Career Academy", "city": "Indianapolis", "ncessch": "180017902601"}, {"name": "Argos Comm Jr-Sr High School", "lat": 41.241437, "lon": -86.250678, "proficiency": 0.345, "district": "Argos Community Schools", "city": "Argos", "ncessch": "180018000048"}, {"name": "Avondale Meadows Middle School", "lat": 39.829777, "lon": -86.112431, "proficiency": 0.05, "district": "Avondale Meadows Middle School", "city": "Indianapolis", "ncessch": "180018402620"}, {"name": "James & Rosemary Phalen Leadership Academy Middle School", "lat": 39.83625, "lon": -85.992503, "proficiency": 0.025, "district": "James & Rosemary Phalen Leadership Academy Middle School", "city": "Indianapolis", "ncessch": "180018802618"}, {"name": "Urban ACT Academy", "lat": 39.768765, "lon": -86.136934, "proficiency": 0.1, "district": "Urban ACT Academy", "city": "Indianapolis", "ncessch": "180019202640"}, {"name": "Vanguard Collegiate of Indy", "lat": 39.768797, "lon": -86.202164, "proficiency": 0.1, "district": "Vanguard Collegiate of Indy", "city": "Indianapolis", "ncessch": "180019302639"}, {"name": "Matchbook Learning", "lat": 39.784077, "lon": -86.195861, "proficiency": 0.025, "district": "Matchbook Learning", "city": "Indianapolis", "ncessch": "180019402642"}, {"name": "Indiana Agriculture and Technology", "lat": 39.962466, "lon": -86.115301, "proficiency": 0.05, "district": "Indiana Agriculture and Technology", "city": "Carmel", "ncessch": "180019802665"}, {"name": "Timothy L. Johnson Academy Middle", "lat": 41.039295, "lon": -85.105113, "proficiency": 0.1, "district": "Timothy L. Johnson Academy Middle", "city": "Fort Wayne", "ncessch": "180020302668"}, {"name": "Dynamic Minds Academy", "lat": 39.908391, "lon": -86.054051, "proficiency": -0.03, "district": "Dynamic Minds Academy", "city": "Indianapolis", "ncessch": "180020502673"}, {"name": "Paramount Englewood", "lat": 39.768087, "lon": -86.111924, "proficiency": 0.245, "district": "Paramount Englewood", "city": "Indianapolis", "ncessch": "180020802655"}, {"name": "Attica High School", "lat": 40.276745, "lon": -87.251774, "proficiency": 0.245, "district": "Attica Consolidated School Corp", "city": "Attica", "ncessch": "180021000050"}, {"name": "Henryville Jr & Sr High School", "lat": 38.543462, "lon": -85.769731, "proficiency": 0.27, "district": "Borden-Henryville School Corporation", "city": "Henryville", "ncessch": "180021201531"}, {"name": "William W Borden High School", "lat": 38.469367, "lon": -85.947039, "proficiency": 0.445, "district": "Borden-Henryville School Corporation", "city": "Borden", "ncessch": "180021201540"}, {"name": "Silver Creek Middle School", "lat": 38.405508, "lon": -85.755506, "proficiency": 0.22, "district": "Silver Creek School Corporation", "city": "Sellersburg", "ncessch": "180021301537"}, {"name": "Emma Donnan Elementary and Middle", "lat": 39.72386, "lon": -86.135761, "proficiency": 0.025, "district": "Adelante Schools", "city": "Indianapolis", "ncessch": "180021602702"}, {"name": "The PATH School", "lat": 39.776271, "lon": -86.221265, "proficiency": 0.05, "district": "The PATH School", "city": "Indianapolis", "ncessch": "180022002705"}, {"name": "Phalen Virtual Leadership Academy", "lat": 39.83625, "lon": -85.992503, "proficiency": -0.03, "district": "Phalen Virtual Leadership Academy", "city": "Indianapolis", "ncessch": "180022202707"}, {"name": "South Dearborn Middle School", "lat": 39.0629, "lon": -84.9309, "proficiency": 0.22, "district": "South Dearborn Community Sch Corp", "city": "Aurora", "ncessch": "180024000958"}, {"name": "Avon Middle School South", "lat": 39.761725, "lon": -86.396153, "proficiency": 0.52, "district": "Avon Community School Corp", "city": "Avon", "ncessch": "180027002095"}, {"name": "Avon Middle School North", "lat": 39.780426, "lon": -86.378889, "proficiency": 0.46, "district": "Avon Community School Corp", "city": "Avon", "ncessch": "180027002450"}, {"name": "Barr Reeve Middle/High School", "lat": 38.6686, "lon": -87.0489, "proficiency": 0.72, "district": "Barr-Reeve Community Schools Inc", "city": "Montgomery", "ncessch": "180033000061"}, {"name": "Central Middle School", "lat": 39.205309, "lon": -85.915221, "proficiency": 0.29, "district": "Bartholomew Con School Corp", "city": "Columbus", "ncessch": "180036000063"}, {"name": "Northside Middle School", "lat": 39.2279, "lon": -85.9094, "proficiency": 0.3, "district": "Bartholomew Con School Corp", "city": "Columbus", "ncessch": "180036000076"}, {"name": "Batesville Middle School", "lat": 39.3025, "lon": -85.2271, "proficiency": 0.47, "district": "Batesville Community School Corp", "city": "Batesville", "ncessch": "180039000085"}, {"name": "Jimtown Junior High School", "lat": 41.6394, "lon": -86.0247, "proficiency": 0.37, "district": "Baugo Community Schools", "city": "Elkhart", "ncessch": "180042000091"}, {"name": "Beech Grove Middle School", "lat": 39.7262, "lon": -86.096, "proficiency": 0.12, "district": "Beech Grove City Schools", "city": "Beech Grove", "ncessch": "180045000092"}, {"name": "Benton Central Jr-Sr High School", "lat": 40.5645, "lon": -87.2425, "proficiency": 0.27, "district": "Benton Community School Corp", "city": "Oxford", "ncessch": "180048000097"}, {"name": "Blackford Jr-Sr High School", "lat": 40.485, "lon": -85.3716, "proficiency": 0.22, "district": "Blackford County Schools", "city": "Hartford City", "ncessch": "180057000102"}, {"name": "Bloomfield High School", "lat": 39.025486, "lon": -86.945946, "proficiency": 0.32, "district": "Bloomfield School District", "city": "Bloomfield", "ncessch": "180060000113"}, {"name": "Lora L Batchelor Middle School", "lat": 39.1242, "lon": -86.5436, "proficiency": 0.27, "district": "Monroe County Community Sch Corp", "city": "Bloomington", "ncessch": "180063000130"}, {"name": "Jackson Creek Middle School", "lat": 39.1239, "lon": -86.5107, "proficiency": 0.52, "district": "Monroe County Community Sch Corp", "city": "Bloomington", "ncessch": "180063001123"}, {"name": "Tri-North Middle School", "lat": 39.177, "lon": -86.5442, "proficiency": 0.37, "district": "Monroe County Community Sch Corp", "city": "Bloomington", "ncessch": "180063002232"}, {"name": "Blue River Valley Jr-Sr High Sch", "lat": 40.00184, "lon": -85.328871, "proficiency": 0.05, "district": "Blue River Valley Schools", "city": "New Castle", "ncessch": "180066000141"}, {"name": "North Harrison Middle School", "lat": 38.323093, "lon": -86.146429, "proficiency": 0.17, "district": "North Harrison Com School Corp", "city": "Ramsey", "ncessch": "180069000145"}, {"name": "Bluffton-Harrison Middle School", "lat": 40.7221, "lon": -85.1564, "proficiency": 0.42, "district": "MSD Bluffton-Harrison", "city": "Bluffton", "ncessch": "180072000147"}, {"name": "Hebron Middle School", "lat": 41.3162, "lon": -87.1985, "proficiency": 0.27, "district": "MSD Boone Township", "city": "Hebron", "ncessch": "180075002216"}, {"name": "Clay City Jr-Sr High School", "lat": 39.2794, "lon": -87.1097, "proficiency": 0.17, "district": "Clay Community Schools", "city": "Clay City", "ncessch": "180084000157"}, {"name": "North Clay Middle School", "lat": 39.515888, "lon": -87.170104, "proficiency": 0.37, "district": "Clay Community Schools", "city": "Brazil", "ncessch": "180084000165"}, {"name": "Bremen Elementary/Middle School", "lat": 41.4447, "lon": -86.1539, "proficiency": 0.42, "district": "Bremen Public Schools", "city": "Bremen", "ncessch": "180090000166"}, {"name": "Brown County Middle School", "lat": 39.205472, "lon": -86.24343, "proficiency": 0.42, "district": "Brown County School Corporation", "city": "Nashville", "ncessch": "180096002190"}, {"name": "Brownsburg West Middle School", "lat": 39.820017, "lon": -86.385511, "proficiency": 0.67, "district": "Brownsburg Community School Corp", "city": "Brownsburg", "ncessch": "180102000178"}, {"name": "Brownsburg East Middle School", "lat": 39.823348, "lon": -86.374867, "proficiency": 0.69, "district": "Brownsburg Community School Corp", "city": "Brownsburg", "ncessch": "180102002086"}, {"name": "Brownstown Central Middle School", "lat": 38.8809, "lon": -86.0481, "proficiency": 0.27, "district": "Brownstown Cnt Com Sch Corp", "city": "Brownstown", "ncessch": "180105000181"}, {"name": "Knightstown Intermediate School", "lat": 39.805, "lon": -85.5205, "proficiency": 0.17, "district": "C A Beard Memorial School Corp", "city": "Knightstown", "ncessch": "180106002012"}, {"name": "Cannelton Elementary & High School", "lat": 37.910295, "lon": -86.743796, "proficiency": 0.1, "district": "Cannelton City Schools", "city": "Cannelton", "ncessch": "180117000191"}, {"name": "Carmel Middle School", "lat": 39.9747, "lon": -86.1425, "proficiency": 0.4, "district": "Carmel Clay Schools", "city": "Carmel", "ncessch": "180120000194"}, {"name": "Clay Middle School", "lat": 39.9727, "lon": -86.0824, "proficiency": 0.53, "district": "Carmel Clay Schools", "city": "Carmel", "ncessch": "180120000195"}, {"name": "Creekside Middle School", "lat": 39.9685, "lon": -86.22, "proficiency": 0.7, "district": "Carmel Clay Schools", "city": "Carmel", "ncessch": "180120002083"}, {"name": "Medora Jr & Sr High School", "lat": 38.82468, "lon": -86.172398, "proficiency": 0.245, "district": "Medora Community School Corp", "city": "Medora", "ncessch": "180123000201"}, {"name": "Carroll Junior High School", "lat": 40.545927, "lon": -86.480621, "proficiency": 0.27, "district": "Carroll Consolidated School Corp", "city": "Flora", "ncessch": "180129002573"}, {"name": "Caston Jr-Sr High School", "lat": 40.911779, "lon": -86.282801, "proficiency": 0.245, "district": "Caston School Corporation", "city": "Rochester", "ncessch": "180141000207"}, {"name": "Center Grove Middle School Central", "lat": 39.5779, "lon": -86.1954, "proficiency": 0.53, "district": "Center Grove Community School Corp", "city": "Greenwood", "ncessch": "180144000210"}, {"name": "Center Grove Middle School North", "lat": 39.6153, "lon": -86.1991, "proficiency": 0.46, "district": "Center Grove Community School Corp", "city": "Greenwood", "ncessch": "180144001912"}, {"name": "Centerville-Abington Jr High Sch", "lat": 39.811831, "lon": -85.000937, "proficiency": 0.27, "district": "Centerville-Abington Com Schs", "city": "Centerville", "ncessch": "180156000216"}, {"name": "DeKalb Middle School", "lat": 41.4093, "lon": -85.0387, "proficiency": 0.37, "district": "DeKalb Co Ctl United Sch Dist", "city": "Waterloo", "ncessch": "180159000221"}, {"name": "Central Noble Junior Senior HS", "lat": 41.3982, "lon": -85.4181, "proficiency": 0.22, "district": "Central Noble Com School Corp", "city": "Albion", "ncessch": "180171000230"}, {"name": "Perry Central Jr-Sr High School", "lat": 38.111402, "lon": -86.603943, "proficiency": 0.37, "district": "Perry Central Com Schools Corp", "city": "Leopold", "ncessch": "180174000234"}, {"name": "Lee L Driver Middle School", "lat": 40.180913, "lon": -84.974842, "proficiency": 0.27, "district": "Randolph Central School Corp", "city": "Winchester", "ncessch": "180177000235"}, {"name": "Clark Pleasant Middle School", "lat": 39.5544, "lon": -86.086, "proficiency": 0.39, "district": "Clark-Pleasant Community Sch Corp", "city": "Greenwood", "ncessch": "180189000245"}, {"name": "Clarksville Middle School", "lat": 38.3014, "lon": -85.7687, "proficiency": 0.22, "district": "Clarksville Community School Corp", "city": "Clarksville", "ncessch": "180192000248"}, {"name": "Indiana Gateway Digital Academy", "lat": 38.301101, "lon": -85.766383, "proficiency": 0.025, "district": "Clarksville Community School Corp", "city": "Clarksville", "ncessch": "180192002690"}, {"name": "Northwestern Middle School", "lat": 40.5251, "lon": -86.2049, "proficiency": 0.47, "district": "Northwestern School Corp", "city": "Kokomo", "ncessch": "180204002334"}, {"name": "Clinton Central Junior-Senior HS", "lat": 40.2984, "lon": -86.3913, "proficiency": 0.17, "district": "Clinton Central School Corporation", "city": "Michigantown", "ncessch": "180213000257"}, {"name": "Clinton Prairie Jr-Sr High School", "lat": 40.25069, "lon": -86.591784, "proficiency": 0.12, "district": "Clinton Prairie School Corporation", "city": "Frankfort", "ncessch": "180216000258"}, {"name": "South Central Jr-Sr High School", "lat": 41.464926, "lon": -86.81635, "proficiency": 0.12, "district": "South Central Com School Corp", "city": "Union Mills", "ncessch": "180219000263"}, {"name": "Cloverdale Middle School", "lat": 39.5127, "lon": -86.7866, "proficiency": 0.22, "district": "Cloverdale Community Schools", "city": "Cloverdale", "ncessch": "180222001283"}, {"name": "Indian Springs Middle School", "lat": 41.135, "lon": -85.4883, "proficiency": 0.27, "district": "Whitley County Con Schools", "city": "Columbia City", "ncessch": "180228000824"}, {"name": "Concord Junior High School", "lat": 41.6315, "lon": -85.9472, "proficiency": 0.17, "district": "Concord Community Schools", "city": "Elkhart", "ncessch": "180240000271"}, {"name": "Concord Intermediate School", "lat": 41.636793, "lon": -85.924727, "proficiency": -0.03, "district": "Concord Community Schools", "city": "Elkhart", "ncessch": "180240002484"}, {"name": "Covington Middle School", "lat": 40.1439, "lon": -87.3959, "proficiency": 0.42, "district": "Covington Community School Corp", "city": "Covington", "ncessch": "180243000277"}, {"name": "Crawford County Middle School", "lat": 38.372, "lon": -86.3413, "proficiency": 0.22, "district": "Crawford County Community Sch Corp", "city": "Marengo", "ncessch": "180244000282"}, {"name": "Crawfordsville Middle School", "lat": 40.034872, "lon": -86.896337, "proficiency": 0.17, "district": "Crawfordsville Community Schools", "city": "Crawfordsville", "ncessch": "180246000289"}, {"name": "Robert Taft Middle School", "lat": 41.3999, "lon": -87.3622, "proficiency": 0.33, "district": "Crown Point Community School Corp", "city": "Crown Point", "ncessch": "180249000297"}, {"name": "Colonel John Wheeler Middle School", "lat": 41.4166, "lon": -87.3693, "proficiency": 0.39, "district": "Crown Point Community School Corp", "city": "Crown Point", "ncessch": "180249002417"}, {"name": "Culver Community Middle/High Sch", "lat": 41.2239, "lon": -86.4253, "proficiency": 0.12, "district": "Culver Community Schools Corp", "city": "Culver", "ncessch": "180252000301"}, {"name": "Danville Middle School", "lat": 39.751874, "lon": -86.545499, "proficiency": 0.52, "district": "Danville Community School Corp", "city": "Danville", "ncessch": "180255000305"}, {"name": "North Decatur Jr-Sr High School", "lat": 39.383205, "lon": -85.477747, "proficiency": 0.32, "district": "Decatur County Community Schools", "city": "Greensburg", "ncessch": "180261000309"}, {"name": "South Decatur Jr-Sr High School", "lat": 39.207345, "lon": -85.576873, "proficiency": 0.15, "district": "Decatur County Community Schools", "city": "Greensburg", "ncessch": "180261000311"}, {"name": "Decatur Middle School", "lat": 39.6891, "lon": -86.2712, "proficiency": 0.07, "district": "MSD Decatur Township", "city": "Indianapolis", "ncessch": "180264000313"}, {"name": "Decatur Twp School for Excellence", "lat": 39.689424, "lon": -86.270164, "proficiency": -0.03, "district": "MSD Decatur Township", "city": "Indianapolis", "ncessch": "180264002463"}, {"name": "Delta Middle School", "lat": 40.280707, "lon": -85.348286, "proficiency": 0.27, "district": "Delaware Community School Corp", "city": "Muncie", "ncessch": "180266000323"}, {"name": "Delphi Community Middle School", "lat": 40.5752, "lon": -86.6673, "proficiency": 0.27, "district": "Delphi Community School Corp", "city": "Delphi", "ncessch": "180270000327"}, {"name": "Chesterton Middle School", "lat": 41.6088, "lon": -87.0606, "proficiency": 0.47, "district": "Duneland School Corporation", "city": "Chesterton", "ncessch": "180280001624"}, {"name": "Zionsville Middle School", "lat": 39.9611, "lon": -86.2845, "proficiency": 0.62, "district": "Zionsville Community Schools", "city": "Zionsville", "ncessch": "180283000342"}, {"name": "Zionsville West Middle School", "lat": 39.9596, "lon": -86.3349, "proficiency": 0.47, "district": "Zionsville Community Schools", "city": "Whitestown", "ncessch": "180283002046"}, {"name": "Heritage Jr/Sr High School", "lat": 40.976692, "lon": -84.962024, "proficiency": 0.075, "district": "East Allen County Schools", "city": "Monroeville", "ncessch": "180285000344"}, {"name": "Leo Junior/Senior High School", "lat": 41.219929, "lon": -85.017996, "proficiency": 0.47, "district": "East Allen County Schools", "city": "Leo", "ncessch": "180285000349"}, {"name": "New Haven Jr/Sr High School", "lat": 41.065225, "lon": -85.012198, "proficiency": 0.22, "district": "East Allen County Schools", "city": "New Haven", "ncessch": "180285000353"}, {"name": "Woodlan Jr/Sr High School", "lat": 41.125422, "lon": -84.919279, "proficiency": 0.27, "district": "East Allen County Schools", "city": "Woodburn", "ncessch": "180285000361"}, {"name": "Paul Harding Jr High School", "lat": 41.026748, "lon": -85.075657, "proficiency": 0.12, "district": "East Allen County Schools", "city": "Ft Wayne", "ncessch": "180285002509"}, {"name": "Joseph Block Middle School", "lat": 41.6346, "lon": -87.4395, "proficiency": 0.025, "district": "School City of East Chicago", "city": "East Chicago", "ncessch": "180288000370"}, {"name": "Thomas A Edison Jr-Sr HS", "lat": 41.5771, "lon": -87.245, "proficiency": 0.025, "district": "Lake Station Community Schools", "city": "Lake Station", "ncessch": "180291000380"}, {"name": "Waldo J Wood Memorial JHS", "lat": 38.331, "lon": -87.3511, "proficiency": 0.245, "district": "East Gibson School Corporation", "city": "Oakland City", "ncessch": "180294000622"}, {"name": "East Noble Middle School", "lat": 41.436529, "lon": -85.272377, "proficiency": 0.17, "district": "East Noble School Corporation", "city": "Kendallville", "ncessch": "180297002335"}, {"name": "East Washington Middle School", "lat": 38.5147, "lon": -86.0001, "proficiency": 0.17, "district": "East Washington School Corp", "city": "Pekin", "ncessch": "180300000073"}, {"name": "Eastbrook Middle School", "lat": 40.5454, "lon": -85.5051, "proficiency": 0.32, "district": "Eastbrook Community Sch Corp", "city": "Marion", "ncessch": "180303002273"}, {"name": "Eastside Junior-Senior High School", "lat": 41.431599, "lon": -84.863175, "proficiency": 0.27, "district": "DeKalb Co Eastern Com Sch Dist", "city": "Butler", "ncessch": "180306000405"}, {"name": "Eastern Greene Middle School", "lat": 39.043596, "lon": -86.744521, "proficiency": 0.22, "district": "Eastern Greene Schools", "city": "Bloomfield", "ncessch": "180309002419"}, {"name": "Eastern Hancock Middle School", "lat": 39.8242, "lon": -85.6099, "proficiency": 0.42, "district": "Eastern Hancock Co Com Sch Corp", "city": "Charlottesville", "ncessch": "180312000658"}, {"name": "Eastern Middle School", "lat": 40.473309, "lon": -85.971711, "proficiency": 0.32, "district": "Eastern Howard School Corporation", "city": "Greentown", "ncessch": "180315002589"}, {"name": "Union City Community Jr/Sr High", "lat": 40.2051, "lon": -84.8153, "proficiency": 0.025, "district": "Randolph Eastern School Corp", "city": "Union City", "ncessch": "180318000415"}, {"name": "Morristown Jr-Sr High School", "lat": 39.672828, "lon": -85.701597, "proficiency": 0.245, "district": "Shelby Eastern Schools", "city": "Morristown", "ncessch": "180321000418"}, {"name": "Waldron Jr-Sr High School", "lat": 39.453283, "lon": -85.6613, "proficiency": 0.245, "district": "Shelby Eastern Schools", "city": "Waldron", "ncessch": "180321000420"}, {"name": "Edinburgh Comm Middle School", "lat": 39.3516, "lon": -85.9701, "proficiency": 0.15, "district": "Edinburgh Community School Corp", "city": "Edinburgh", "ncessch": "180324000213"}, {"name": "North Side Middle School", "lat": 41.7015, "lon": -85.974, "proficiency": 0.15, "district": "Elkhart Community Schools", "city": "Elkhart", "ncessch": "180327000438"}, {"name": "Pierre Moran Middle School", "lat": 41.6677, "lon": -85.9684, "proficiency": 0.075, "district": "Elkhart Community Schools", "city": "Elkhart", "ncessch": "180327000440"}, {"name": "West Side Middle School", "lat": 41.6856, "lon": -86.0054, "proficiency": 0.12, "district": "Elkhart Community Schools", "city": "Elkhart", "ncessch": "180327000445"}, {"name": "Elkhart Alternative Education", "lat": 41.677954, "lon": -85.958604, "proficiency": -0.03, "district": "Elkhart Community Schools", "city": "Elkhart", "ncessch": "180327002585"}, {"name": "Elwood Jr-Sr High School", "lat": 40.289076, "lon": -85.835438, "proficiency": 0.075, "district": "Elwood Community School Corp", "city": "Elwood", "ncessch": "180330000449"}, {"name": "Eminence Jr-Sr High School", "lat": 39.52436, "lon": -86.642464, "proficiency": 0.1, "district": "Eminence Community School Corp", "city": "Eminence", "ncessch": "180333000454"}, {"name": "Cedar Hall Community School", "lat": 37.9984, "lon": -87.5815, "proficiency": 0.05, "district": "Evansville Vanderburgh School Corp", "city": "Evansville", "ncessch": "180345000458"}, {"name": "Glenwood Leadership Academy", "lat": 37.9501, "lon": -87.5499, "proficiency": 0.05, "district": "Evansville Vanderburgh School Corp", "city": "Evansville", "ncessch": "180345000467"}, {"name": "Helfrich Park STEM Academy", "lat": 37.987, "lon": -87.6043, "proficiency": 0.37, "district": "Evansville Vanderburgh School Corp", "city": "Evansville", "ncessch": "180345000471"}, {"name": "Lincoln School", "lat": 37.9696, "lon": -87.5559, "proficiency": 0.1, "district": "Evansville Vanderburgh School Corp", "city": "Evansville", "ncessch": "180345000475"}, {"name": "Lodge Community School", "lat": 37.948898, "lon": -87.537324, "proficiency": 0.15, "district": "Evansville Vanderburgh School Corp", "city": "Evansville", "ncessch": "180345000476"}, {"name": "McGary Middle School", "lat": 37.9559, "lon": -87.5082, "proficiency": 0.025, "district": "Evansville Vanderburgh School Corp", "city": "Evansville", "ncessch": "180345000477"}, {"name": "Perry Heights Middle School", "lat": 37.9812, "lon": -87.6464, "proficiency": 0.47, "district": "Evansville Vanderburgh School Corp", "city": "Evansville", "ncessch": "180345000480"}, {"name": "Plaza Park International Prep Acad", "lat": 37.9686, "lon": -87.4647, "proficiency": 0.27, "district": "Evansville Vanderburgh School Corp", "city": "Evansville", "ncessch": "180345000481"}, {"name": "Thompkins Middle School", "lat": 38.0214, "lon": -87.5822, "proficiency": 0.32, "district": "Evansville Vanderburgh School Corp", "city": "Evansville", "ncessch": "180345000486"}, {"name": "Washington Middle School", "lat": 37.962, "lon": -87.533, "proficiency": 0.12, "district": "Evansville Vanderburgh School Corp", "city": "Evansville", "ncessch": "180345000488"}, {"name": "Academy for Innovative Studies", "lat": 37.998665, "lon": -87.553165, "proficiency": 0.05, "district": "Evansville Vanderburgh School Corp", "city": "Evansville", "ncessch": "180345002462"}, {"name": "North Junior High School", "lat": 38.1159, "lon": -87.5517, "proficiency": 0.48, "district": "Evansville Vanderburgh School Corp", "city": "Evansville", "ncessch": "180345002504"}, {"name": "Harwood Career Prep High School", "lat": 38.006901, "lon": -87.573518, "proficiency": 0.12, "district": "Evansville Vanderburgh School Corp", "city": "Evansville", "ncessch": "180345002649"}, {"name": "Fairfield Jr-Sr High School", "lat": 41.517829, "lon": -85.767779, "proficiency": 0.27, "district": "Fairfield Community Schools", "city": "Goshen", "ncessch": "180348000491"}, {"name": "Millersburg Elementary- Middle Sch", "lat": 41.525833, "lon": -85.697273, "proficiency": 0.245, "district": "Fairfield Community Schools", "city": "Millersburg", "ncessch": "180348000492"}, {"name": "Connersville Middle School", "lat": 39.6562, "lon": -85.1341, "proficiency": 0.22, "district": "Fayette County School Corporation", "city": "Connersville", "ncessch": "180351000496"}, {"name": "Hauser Jr-Sr High School", "lat": 39.2927, "lon": -85.77, "proficiency": 0.22, "district": "Flat Rock-Hawcreek School Corp", "city": "Hope", "ncessch": "180357000509"}, {"name": "Blackhawk Middle School", "lat": 41.1053, "lon": -85.0497, "proficiency": 0.32, "district": "Fort Wayne Community Schools", "city": "Fort Wayne", "ncessch": "180363000516"}, {"name": "Jefferson Middle School", "lat": 41.1313, "lon": -85.0253, "proficiency": 0.22, "district": "Fort Wayne Community Schools", "city": "Fort Wayne", "ncessch": "180363000534"}, {"name": "Kekionga Middle School", "lat": 41.045, "lon": -85.1767, "proficiency": 0.12, "district": "Fort Wayne Community Schools", "city": "Fort Wayne", "ncessch": "180363000537"}, {"name": "Lakeside Middle School", "lat": 41.0891, "lon": -85.111, "proficiency": 0.075, "district": "Fort Wayne Community Schools", "city": "Fort Wayne", "ncessch": "180363000538"}, {"name": "Lane Middle School", "lat": 41.1062, "lon": -85.0785, "proficiency": 0.075, "district": "Fort Wayne Community Schools", "city": "Fort Wayne", "ncessch": "180363000539"}, {"name": "Memorial Park Middle School", "lat": 41.0749, "lon": -85.1089, "proficiency": 0.37, "district": "Fort Wayne Community Schools", "city": "Fort Wayne", "ncessch": "180363000546"}, {"name": "Miami Middle School", "lat": 41.0102, "lon": -85.163, "proficiency": 0.075, "district": "Fort Wayne Community Schools", "city": "Fort Wayne", "ncessch": "180363000548"}, {"name": "Northwood Middle School", "lat": 41.1337, "lon": -85.1255, "proficiency": 0.17, "district": "Fort Wayne Community Schools", "city": "Fort Wayne", "ncessch": "180363000553"}, {"name": "Portage Middle School", "lat": 41.0666, "lon": -85.1871, "proficiency": 0.12, "district": "Fort Wayne Community Schools", "city": "Fort Wayne", "ncessch": "180363000555"}, {"name": "Shawnee Middle School", "lat": 41.1467, "lon": -85.1284, "proficiency": 0.075, "district": "Fort Wayne Community Schools", "city": "Fort Wayne", "ncessch": "180363000560"}, {"name": "Allen Co Juvenile Center", "lat": 41.1037, "lon": -85.1485, "proficiency": -0.03, "district": "Fort Wayne Community Schools", "city": "Fort Wayne", "ncessch": "180363002174"}, {"name": "Jeff H Towles Intermediate School", "lat": 41.0307, "lon": -85.1307, "proficiency": 0.17, "district": "Fort Wayne Community Schools", "city": "Fort Wayne", "ncessch": "180363002175"}, {"name": "Frankfort Middle School", "lat": 40.2847, "lon": -86.4823, "proficiency": 0.17, "district": "Community Schools of Frankfort", "city": "Frankfort", "ncessch": "180366000573"}, {"name": "Franklin Community Middle School", "lat": 39.486555, "lon": -86.062969, "proficiency": 0.23, "district": "Franklin Community School Corp", "city": "Franklin", "ncessch": "180369000580"}, {"name": "Franklin County Middle School", "lat": 39.428, "lon": -85.0005, "proficiency": 0.32, "district": "Franklin County Community Sch Corp", "city": "Brookville", "ncessch": "180370000589"}, {"name": "Lanesville Jr-Sr HS", "lat": 38.239163, "lon": -85.989548, "proficiency": 0.57, "district": "Lanesville Community School Corp", "city": "Lanesville", "ncessch": "180372000593"}, {"name": "Franklin Central Junior High", "lat": 39.67653, "lon": -85.980721, "proficiency": 0.32, "district": "Franklin Township Com Sch Corp", "city": "Indianapolis", "ncessch": "180375002436"}, {"name": "Fremont Middle School", "lat": 41.7285, "lon": -84.9442, "proficiency": 0.37, "district": "Fremont Community Schools", "city": "Fremont", "ncessch": "180378000177"}, {"name": "Frontier Jr-Sr High School", "lat": 40.6644, "lon": -86.8624, "proficiency": 0.345, "district": "Frontier School Corporation", "city": "Chalmers", "ncessch": "180381000603"}, {"name": "Garrett Middle School", "lat": 41.347283, "lon": -85.127034, "proficiency": 0.22, "district": "Garrett-Keyser-Butler Com Sch Corp", "city": "Garrett", "ncessch": "180384001389"}, {"name": "Bailly Middle School", "lat": 41.535594, "lon": -87.324145, "proficiency": 0.025, "district": "Gary Community School Corp", "city": "Gary", "ncessch": "180387002460"}, {"name": "Gary Middle School", "lat": 41.609048, "lon": -87.24567, "proficiency": 0.025, "district": "Gary Community School Corp", "city": "Gary", "ncessch": "180387002664"}, {"name": "Goshen Junior High School", "lat": 41.5715, "lon": -85.8461, "proficiency": 0.23, "district": "Goshen Community Schools", "city": "Goshen", "ncessch": "180393000659"}, {"name": "New Washington Middle/High School", "lat": 38.5657, "lon": -85.5413, "proficiency": 0.05, "district": "Greater Clark County Schools", "city": "New Washington", "ncessch": "180394000672"}, {"name": "Parkview Middle School", "lat": 38.2871, "lon": -85.7212, "proficiency": 0.17, "district": "Greater Clark County Schools", "city": "Jeffersonville", "ncessch": "180394000674"}, {"name": "Old Corden Porter School", "lat": 38.278508, "lon": -85.736567, "proficiency": 0.245, "district": "Greater Clark County Schools", "city": "Jeffersonville", "ncessch": "180394000832"}, {"name": "Charlestown Middle School", "lat": 38.4354, "lon": -85.6688, "proficiency": 0.22, "district": "Greater Clark County Schools", "city": "Charlestown", "ncessch": "180394002128"}, {"name": "River Valley Middle School", "lat": 38.3287, "lon": -85.7334, "proficiency": 0.17, "district": "Greater Clark County Schools", "city": "Jeffersonville", "ncessch": "180394002131"}, {"name": "Jasper Middle School", "lat": 38.425175, "lon": -86.948255, "proficiency": 0.42, "district": "Greater Jasper Consolidated Schs", "city": "Jasper", "ncessch": "180396000686"}, {"name": "Greencastle Middle School", "lat": 39.64015, "lon": -86.842335, "proficiency": 0.27, "district": "Greencastle Community School Corp", "city": "Greencastle", "ncessch": "180399000689"}, {"name": "Greenfield Central Junior High Sch", "lat": 39.8056, "lon": -85.7876, "proficiency": 0.35, "district": "Greenfield-Central Com Schools", "city": "Greenfield", "ncessch": "180405002476"}, {"name": "Greensburg Community Jr High", "lat": 39.3392, "lon": -85.4772, "proficiency": 0.17, "district": "Greensburg Community Schools", "city": "Greensburg", "ncessch": "180408000705"}, {"name": "Greenwood Middle School", "lat": 39.595243, "lon": -86.122214, "proficiency": 0.36, "district": "Greenwood Community Sch Corp", "city": "Greenwood", "ncessch": "180411000710"}, {"name": "Monrovia Middle School", "lat": 39.5757, "lon": -86.4788, "proficiency": 0.22, "district": "Monroe-Gregg School District", "city": "Monrovia", "ncessch": "180414002129"}, {"name": "Hamilton Community High School", "lat": 41.522164, "lon": -84.919978, "proficiency": 0.1, "district": "Hamilton Community Schools", "city": "Hamilton", "ncessch": "180423000724"}, {"name": "Hamilton Heights Middle School", "lat": 40.155317, "lon": -86.014813, "proficiency": 0.22, "district": "Hamilton Heights School Corp", "city": "Arcadia", "ncessch": "180426000727"}, {"name": "Charles N Scott Middle School", "lat": 41.5817, "lon": -87.4407, "proficiency": 0.025, "district": "School City of Hammond", "city": "Hammond", "ncessch": "180432000732"}, {"name": "Henry W Eggers Middle School", "lat": 41.6071, "lon": -87.5173, "proficiency": 0.025, "district": "School City of Hammond", "city": "Hammond", "ncessch": "180432000738"}, {"name": "Hanover Central Middle School", "lat": 41.356487, "lon": -87.463382, "proficiency": 0.37, "district": "Hanover Community School Corp", "city": "Cedar Lake", "ncessch": "180435001908"}, {"name": "Western High School", "lat": 40.437795, "lon": -86.241334, "proficiency": -0.03, "district": "Western School Corporation", "city": "Russiaville", "ncessch": "180447000756"}, {"name": "Western Intermediate School", "lat": 40.437729, "lon": -86.243249, "proficiency": -0.03, "district": "Western School Corporation", "city": "Russiaville", "ncessch": "180447002224"}, {"name": "Western Middle School", "lat": 40.437779, "lon": -86.239559, "proficiency": 0.42, "district": "Western School Corporation", "city": "Russiaville", "ncessch": "180447002225"}, {"name": "Wes-Del Middle/Senior High School", "lat": 40.2807, "lon": -85.4995, "proficiency": 0.22, "district": "Wes-Del Community Schools", "city": "Gaston", "ncessch": "180450000761"}, {"name": "Highland Middle School", "lat": 41.5453, "lon": -87.4587, "proficiency": 0.22, "district": "School Town of Highland", "city": "Highland", "ncessch": "180456000764"}, {"name": "Hobart Middle School", "lat": 41.5261, "lon": -87.2587, "proficiency": 0.22, "district": "School City of Hobart", "city": "Hobart", "ncessch": "180459000773"}, {"name": "River Forest Middle School", "lat": 41.5575, "lon": -87.2795, "proficiency": 0.025, "district": "River Forest Community Sch Corp", "city": "Hobart", "ncessch": "180462000780"}, {"name": "Crestview Middle School", "lat": 40.9017, "lon": -85.4882, "proficiency": 0.37, "district": "Huntington Co Com Sch Corp", "city": "Huntington", "ncessch": "180471000784"}, {"name": "Riverview School", "lat": 40.8584, "lon": -85.5024, "proficiency": 0.32, "district": "Huntington Co Com Sch Corp", "city": "Huntington", "ncessch": "180471000790"}, {"name": "Daniel Webster School 46", "lat": 39.746707, "lon": -86.190016, "proficiency": 0.05, "district": "Indianapolis Public Schools", "city": "Indianapolis", "ncessch": "180477000817"}, {"name": "IPS/Butler Lab at Eliza Blaker 55", "lat": 39.850881, "lon": -86.135472, "proficiency": 0.1, "district": "Indianapolis Public Schools", "city": "Indianapolis", "ncessch": "180477000822"}, {"name": "Francis W Parker School 56", "lat": 39.801001, "lon": -86.136403, "proficiency": 0.05, "district": "Indianapolis Public Schools", "city": "Indianapolis", "ncessch": "180477000831"}, {"name": "George W Julian School 57", "lat": 39.769906, "lon": -86.074522, "proficiency": 0.245, "district": "Indianapolis Public Schools", "city": "Indianapolis", "ncessch": "180477000841"}, {"name": "H L Harshman Middle School", "lat": 39.78054, "lon": -86.132359, "proficiency": 0.025, "district": "Indianapolis Public Schools", "city": "Indianapolis", "ncessch": "180477000844"}, {"name": "James Whitcomb Riley School 43", "lat": 39.82905, "lon": -86.16109, "proficiency": 0.05, "district": "Indianapolis Public Schools", "city": "Indianapolis", "ncessch": "180477000854"}, {"name": "James A Garfield School 31", "lat": 39.74508, "lon": -86.152515, "proficiency": 0.05, "district": "Indianapolis Public Schools", "city": "Indianapolis", "ncessch": "180477000866"}, {"name": "Edison School of the Arts 47", "lat": 39.757056, "lon": -86.175399, "proficiency": 0.025, "district": "Indianapolis Public Schools", "city": "Indianapolis", "ncessch": "180477000872"}, {"name": "IPS/Butler Lab at William Bell 60", "lat": 39.816814, "lon": -86.154905, "proficiency": 0.05, "district": "Indianapolis Public Schools", "city": "Indianapolis", "ncessch": "180477000901"}, {"name": "William Penn School 49", "lat": 39.754462, "lon": -86.190966, "proficiency": 0.05, "district": "Indianapolis Public Schools", "city": "Indianapolis", "ncessch": "180477000904"}, {"name": "Center For Inquiry School 2", "lat": 39.777166, "lon": -86.15009, "proficiency": 0.345, "district": "Indianapolis Public Schools", "city": "Indianapolis", "ncessch": "180477001440"}, {"name": "Rousseau McClellan School 91", "lat": 39.845785, "lon": -86.126255, "proficiency": 0.15, "district": "Indianapolis Public Schools", "city": "Indianapolis", "ncessch": "180477002277"}, {"name": "Center for Inquiry School 84", "lat": 39.857379, "lon": -86.151344, "proficiency": 0.445, "district": "Indianapolis Public Schools", "city": "Indianapolis", "ncessch": "180477002391"}, {"name": "Frederick Douglass School 19", "lat": 39.739671, "lon": -86.129162, "proficiency": 0.025, "district": "Indianapolis Public Schools", "city": "Indianapolis", "ncessch": "180477002395"}, {"name": "Merle Sidener Gifted Academy", "lat": 39.862893, "lon": -86.1216, "proficiency": 0.645, "district": "Indianapolis Public Schools", "city": "Indianapolis", "ncessch": "180477002439"}, {"name": "Center for Inquiry School 27", "lat": 39.791531, "lon": -86.147739, "proficiency": 0.05, "district": "Indianapolis Public Schools", "city": "Indianapolis", "ncessch": "180477002510"}, {"name": "Northwest Community Middle School", "lat": 39.814751, "lon": -86.258425, "proficiency": 0.025, "district": "Indianapolis Public Schools", "city": "Indianapolis", "ncessch": "180477002528"}, {"name": "George Washington Carver School 87", "lat": 39.801277, "lon": -86.167571, "proficiency": 0.495, "district": "Indianapolis Public Schools", "city": "Indianapolis", "ncessch": "180477002555"}, {"name": "Arlington Community Middle School", "lat": 39.844081, "lon": -86.064121, "proficiency": 0.075, "district": "Indianapolis Public Schools", "city": "Indianapolis", "ncessch": "180477002597"}, {"name": "Center for Inquiry School 70", "lat": 39.839843, "lon": -86.149148, "proficiency": 0.245, "district": "Indianapolis Public Schools", "city": "Indianapolis", "ncessch": "180477002605"}, {"name": "HW Longfellow Med/STEM Magnet Midl", "lat": 39.75916, "lon": -86.136821, "proficiency": 0.025, "district": "Indianapolis Public Schools", "city": "Indianapolis", "ncessch": "180477002630"}, {"name": "Impact Academy 1", "lat": 39.771876, "lon": -86.217115, "proficiency": 0.1, "district": "Indianapolis Public Schools", "city": "Indianapolis", "ncessch": "180477002651"}, {"name": "Jac-Cen-Del MS/HS", "lat": 39.142, "lon": -85.2951, "proficiency": 0.27, "district": "Jac-Cen-Del Community Sch Corp", "city": "Osgood", "ncessch": "180480000907"}, {"name": "Jay County Jr/Sr High School", "lat": 40.4296, "lon": -85.0234, "proficiency": 0.32, "district": "Jay School Corporation", "city": "Portland", "ncessch": "180498000914"}, {"name": "Jennings County Middle School", "lat": 38.993564, "lon": -85.642488, "proficiency": 0.24, "district": "Jennings County School Corporation", "city": "North Vernon", "ncessch": "180519000925"}, {"name": "Kankakee Valley Middle School", "lat": 41.189246, "lon": -87.144347, "proficiency": 0.47, "district": "Kankakee Valley School Corp", "city": "Wheatfield", "ncessch": "180528000934"}, {"name": "Knox Community Middle School", "lat": 41.2885, "lon": -86.6238, "proficiency": 0.22, "district": "Knox Community School Corp", "city": "Knox", "ncessch": "180534000939"}, {"name": "Bon Air Middle School", "lat": 40.513724, "lon": -86.124621, "proficiency": 0.12, "district": "Kokomo School Corporation", "city": "Kokomo", "ncessch": "180537000995"}, {"name": "Central Middle School", "lat": 40.485, "lon": -86.1279, "proficiency": 0.22, "district": "Kokomo School Corporation", "city": "Kokomo", "ncessch": "180537000998"}, {"name": "Maple Crest Middle School", "lat": 40.4563, "lon": -86.1332, "proficiency": 0.075, "district": "Kokomo School Corporation", "city": "Kokomo", "ncessch": "180537001018"}, {"name": "Lafayette Tecumseh Jr High School", "lat": 40.3967, "lon": -86.8742, "proficiency": 0.23, "district": "Lafayette School Corporation", "city": "Lafayette", "ncessch": "180540000975"}, {"name": "Kahler Middle School", "lat": 41.4919, "lon": -87.515, "proficiency": 0.22, "district": "Lake Central School Corporation", "city": "Dyer", "ncessch": "180545000982"}, {"name": "Michael Grimmer Middle School", "lat": 41.4774, "lon": -87.4586, "proficiency": 0.22, "district": "Lake Central School Corporation", "city": "Schererville", "ncessch": "180545000985"}, {"name": "Hal E Clark Middle School", "lat": 41.448732, "lon": -87.443192, "proficiency": 0.37, "district": "Lake Central School Corporation", "city": "Saint John", "ncessch": "180545002420"}, {"name": "Lake Ridge New Tech Middle School", "lat": 41.5435, "lon": -87.3822, "proficiency": 0.075, "district": "Lake Ridge New Tech Schools", "city": "Gary", "ncessch": "180546000992"}, {"name": "Lakeland Jr/Sr High School", "lat": 41.6541, "lon": -85.41, "proficiency": 0.17, "district": "Lakeland School Corporation", "city": "LaGrange", "ncessch": "180552000996"}, {"name": "Milford School", "lat": 41.40961, "lon": -85.853956, "proficiency": 0.15, "district": "Wawasee Community School Corp", "city": "Milford", "ncessch": "180555001001"}, {"name": "Wawasee Middle School", "lat": 41.377707, "lon": -85.70046, "proficiency": 0.22, "district": "Wawasee Community School Corp", "city": "Syracuse", "ncessch": "180555002354"}, {"name": "LaPorte Middle School", "lat": 41.589575, "lon": -86.716941, "proficiency": 0.25, "district": "LaPorte Community School Corp", "city": "LaPorte", "ncessch": "180558002680"}, {"name": "Fall Creek Valley Middle School", "lat": 39.8695, "lon": -85.9951, "proficiency": 0.11, "district": "MSD Lawrence Township", "city": "Indianapolis", "ncessch": "180567000139"}, {"name": "Belzer Middle School", "lat": 39.8536, "lon": -86.0366, "proficiency": 0.06, "district": "MSD Lawrence Township", "city": "Indianapolis", "ncessch": "180567001023"}, {"name": "Greendale Middle School", "lat": 39.0994, "lon": -84.8563, "proficiency": 0.32, "district": "Lawrenceburg Community School Corp", "city": "Lawrenceburg", "ncessch": "180570001036"}, {"name": "Lebanon Middle School", "lat": 40.0629, "lon": -86.4574, "proficiency": 0.32, "district": "Lebanon Community School Corp", "city": "Lebanon", "ncessch": "180579001040"}, {"name": "Selma Middle School", "lat": 40.167222, "lon": -85.263061, "proficiency": 0.32, "district": "Liberty-Perry Community Sch Corp", "city": "Selma", "ncessch": "180588001046"}, {"name": "Linton-Stockton Middle School", "lat": 39.0421, "lon": -87.1652, "proficiency": 0.27, "district": "Linton-Stockton School Corporation", "city": "Linton", "ncessch": "180591002147"}, {"name": "Columbia 6th Grade Academy", "lat": 40.7624, "lon": -86.3714, "proficiency": -0.03, "district": "Logansport Community Sch Corp", "city": "Logansport", "ncessch": "180603001052"}, {"name": "Logansport Junior High School", "lat": 40.7523, "lon": -86.3282, "proficiency": 0.15, "district": "Logansport Community Sch Corp", "city": "Logansport", "ncessch": "180603001058"}, {"name": "Logansport Community High School", "lat": 40.7493, "lon": -86.3309, "proficiency": -0.03, "district": "Logansport Community Sch Corp", "city": "Logansport", "ncessch": "180603001060"}, {"name": "Loogootee Middle School", "lat": 38.677986, "lon": -86.921344, "proficiency": 0.27, "district": "Loogootee Community Sch Corp", "city": "Loogootee", "ncessch": "180606001070"}, {"name": "Seeger Memorial Jr-Sr High School", "lat": 40.2985, "lon": -87.3883, "proficiency": 0.12, "district": "MSD Warren County", "city": "West Lebanon", "ncessch": "180608001073"}, {"name": "Maconaquah Middle School", "lat": 40.6517, "lon": -86.0615, "proficiency": 0.12, "district": "Maconaquah School Corp", "city": "Bunker Hill", "ncessch": "180609001079"}, {"name": "Madison Consolidated Jr High Sch", "lat": 38.77, "lon": -85.4018, "proficiency": 0.32, "district": "Madison Consolidated Schools", "city": "Madison", "ncessch": "180612001091"}, {"name": "E.O. Muncie Jr/Sr High School", "lat": 38.763271, "lon": -85.404509, "proficiency": -0.03, "district": "Madison Consolidated Schools", "city": "Madison", "ncessch": "180612002695"}, {"name": "Madison-Grant Jr./Sr. High School", "lat": 40.3842, "lon": -85.6735, "proficiency": 0.22, "district": "Madison-Grant United School Corp", "city": "Fairmount", "ncessch": "180624001097"}, {"name": "Manchester Jr-Sr High School", "lat": 41.0094, "lon": -85.7727, "proficiency": 0.32, "district": "Manchester Community Schools", "city": "N Manchester", "ncessch": "180627001103"}, {"name": "John L McCulloch Junior High Sch", "lat": 40.527139, "lon": -85.664101, "proficiency": 0.075, "district": "Marion Community Schools", "city": "Marion", "ncessch": "180639001112"}, {"name": "Sheridan Middle School", "lat": 40.1403, "lon": -86.214478, "proficiency": 0.27, "district": "Sheridan Community Schools", "city": "Sheridan", "ncessch": "180648001655"}, {"name": "John R. Wooden Middle School", "lat": 39.419891, "lon": -86.426915, "proficiency": 0.15, "district": "MSD Martinsville Schools", "city": "Martinsville", "ncessch": "180651002600"}, {"name": "Barker Middle School", "lat": 41.6863, "lon": -86.8854, "proficiency": 0.22, "district": "Michigan City Area Schools", "city": "Michigan City", "ncessch": "180657001140"}, {"name": "Martin T Krueger Middle School", "lat": 41.7155, "lon": -86.852, "proficiency": 0.12, "district": "Michigan City Area Schools", "city": "Michigan City", "ncessch": "180657001154"}, {"name": "Northridge Middle School", "lat": 41.672866, "lon": -85.726857, "proficiency": 0.4, "district": "Middlebury Community Schools", "city": "Middlebury", "ncessch": "180660001162"}, {"name": "Milan Middle School", "lat": 39.1287, "lon": -85.1285, "proficiency": 0.17, "district": "Milan Community Schools", "city": "Milan", "ncessch": "180663001626"}, {"name": "Cascade Middle School", "lat": 39.6674, "lon": -86.559, "proficiency": 0.42, "district": "Mill Creek Community Sch Corp", "city": "Clayton", "ncessch": "180666001170"}, {"name": "Oaklawn Campus Program", "lat": 41.658027, "lon": -86.198164, "proficiency": 0.245, "district": "School City of Mishawaka", "city": "Mishawaka", "ncessch": "180684000531"}, {"name": "John J Young Middle School", "lat": 41.676533, "lon": -86.1837, "proficiency": 0.15, "district": "School City of Mishawaka", "city": "Mishawaka", "ncessch": "180684001179"}, {"name": "R J Baskett Middle School", "lat": 40.4889, "lon": -85.6227, "proficiency": 0.27, "district": "Mississinewa Community School Corp", "city": "Gas City", "ncessch": "180687001190"}, {"name": "Mitchell Jr High School", "lat": 38.7363, "lon": -86.4796, "proficiency": 0.22, "district": "Mitchell Community Schools", "city": "Mitchell", "ncessch": "180690002151"}, {"name": "Cowan High School", "lat": 40.107651, "lon": -85.392567, "proficiency": 0.15, "district": "Cowan Community School Corp", "city": "Muncie", "ncessch": "180702001200"}, {"name": "Monroe Central Jr-Sr High School", "lat": 40.1919, "lon": -85.1676, "proficiency": 0.32, "district": "Monroe Central School Corp", "city": "Parker City", "ncessch": "180708001202"}, {"name": "Winamac Community Middle School", "lat": 41.0455, "lon": -86.5962, "proficiency": 0.32, "district": "Eastern Pulaski Community Sch Corp", "city": "Winamac", "ncessch": "180711001206"}, {"name": "Paul Hadley Middle School", "lat": 39.6188, "lon": -86.3788, "proficiency": 0.28, "district": "Mooresville Con School Corp", "city": "Mooresville", "ncessch": "180714001212"}, {"name": "Yorktown Middle School", "lat": 40.1771, "lon": -85.4922, "proficiency": 0.32, "district": "Yorktown Community Schools", "city": "Yorktown", "ncessch": "180723001218"}, {"name": "Mt Vernon Middle School", "lat": 39.9012, "lon": -85.8409, "proficiency": 0.26, "district": "Mt Vernon Community School Corp", "city": "Fortville", "ncessch": "180726001222"}, {"name": "Mount Vernon Jr High School", "lat": 37.9376, "lon": -87.8851, "proficiency": 0.47, "district": "MSD Mount Vernon", "city": "Mount Vernon", "ncessch": "180729001227"}, {"name": "Youth Opportunity Center", "lat": 40.1821, "lon": -85.4292, "proficiency": 0.245, "district": "Muncie Community Schools", "city": "Muncie", "ncessch": "180732001232"}, {"name": "Southside Middle School", "lat": 40.162877, "lon": -85.369035, "proficiency": 0.025, "district": "Muncie Community Schools", "city": "Muncie", "ncessch": "180732001252"}, {"name": "Northside Middle School", "lat": 40.2129, "lon": -85.4135, "proficiency": 0.12, "district": "Muncie Community Schools", "city": "Muncie", "ncessch": "180732002320"}, {"name": "Wilbur Wright Middle School", "lat": 41.557, "lon": -87.5031, "proficiency": 0.5, "district": "School Town of Munster", "city": "Munster", "ncessch": "180735001259"}, {"name": "Hagerstown Jr-Sr High School", "lat": 39.920519, "lon": -85.16105, "proficiency": 0.37, "district": "Nettle Creek School Corporation", "city": "Hagerstown", "ncessch": "180738001261"}, {"name": "Hazelwood Middle School", "lat": 38.3008, "lon": -85.8082, "proficiency": 0.12, "district": "New Albany-Floyd Co Con Sch", "city": "New Albany", "ncessch": "180741001271"}, {"name": "Nathaniel Scribner Middle School", "lat": 38.2899, "lon": -85.8406, "proficiency": 0.32, "district": "New Albany-Floyd Co Con Sch", "city": "New Albany", "ncessch": "180741001276"}, {"name": "Highland Hills Middle School", "lat": 38.3246, "lon": -85.9296, "proficiency": 0.49, "district": "New Albany-Floyd Co Con Sch", "city": "Georgetown", "ncessch": "180741002057"}, {"name": "New Castle Middle School", "lat": 39.9131, "lon": -85.3787, "proficiency": 0.22, "district": "New Castle Community School Corp", "city": "New Castle", "ncessch": "180744001288"}, {"name": "New Castle High School", "lat": 39.9124, "lon": -85.3767, "proficiency": -0.03, "district": "New Castle Community School Corp", "city": "New Castle", "ncessch": "180744001290"}, {"name": "Westville High School", "lat": 41.541903, "lon": -86.893832, "proficiency": 0.27, "district": "MSD of New Durham Township", "city": "Westville", "ncessch": "180747001294"}, {"name": "New Prairie Middle School", "lat": 41.681012, "lon": -86.561722, "proficiency": 0.32, "district": "New Prairie United School Corp", "city": "New Carlisle", "ncessch": "180756001299"}, {"name": "Indian Creek Middle School", "lat": 39.407, "lon": -86.1607, "proficiency": 0.22, "district": "Nineveh-Hensley-Jackson United", "city": "Trafalgar", "ncessch": "180762001302"}, {"name": "Noblesville West Middle School", "lat": 40.077165, "lon": -86.031354, "proficiency": 0.4, "district": "Noblesville Schools", "city": "Noblesville", "ncessch": "180765000639"}, {"name": "Noblesville East Middle School", "lat": 40.0574, "lon": -86.003901, "proficiency": 0.4, "district": "Noblesville Schools", "city": "Noblesville", "ncessch": "180765001310"}, {"name": "Bellmont Middle School", "lat": 40.835554, "lon": -84.90725, "proficiency": 0.27, "district": "North Adams Community Schools", "city": "Decatur", "ncessch": "180768001313"}, {"name": "North Daviess Jr-Sr High School", "lat": 38.8474, "lon": -87.0619, "proficiency": 0.17, "district": "North Daviess Com Schools", "city": "Elnora", "ncessch": "180771001319"}, {"name": "Princeton Community Middle", "lat": 38.367133, "lon": -87.580901, "proficiency": 0.17, "district": "North Gibson School Corporation", "city": "Princeton", "ncessch": "180777001327"}, {"name": "N Judson-San Pierre Jr Sr High Sch", "lat": 41.210613, "lon": -86.788253, "proficiency": 0.17, "district": "North Judson-San Pierre Sch Corp", "city": "North Judson", "ncessch": "180780001330"}, {"name": "North Knox Jr-Sr High School", "lat": 38.8352, "lon": -87.3138, "proficiency": 0.025, "district": "North Knox School Corp", "city": "Bicknell", "ncessch": "180783001334"}, {"name": "Bedford Middle School", "lat": 38.8616, "lon": -86.4904, "proficiency": 0.27, "district": "North Lawrence Com Schools", "city": "Bedford", "ncessch": "180786001336"}, {"name": "Oolitic School", "lat": 38.8923, "lon": -86.5213, "proficiency": 0.27, "district": "North Lawrence Com Schools", "city": "Oolitic", "ncessch": "180786001344"}, {"name": "North Miami Middle/High School", "lat": 40.8964, "lon": -86.066, "proficiency": 0.075, "district": "North Miami Community Schools", "city": "Denver", "ncessch": "180789001351"}, {"name": "North Montgomery Middle School", "lat": 40.1262, "lon": -86.9124, "proficiency": 0.47, "district": "North Montgomery Com Sch Corp", "city": "Crawfordsville", "ncessch": "180790002293"}, {"name": "North Newton Jr-Sr High School", "lat": 41.0346, "lon": -87.4241, "proficiency": 0.17, "district": "North Newton School Corp", "city": "Morocco", "ncessch": "180792001363"}, {"name": "North Posey Junior High School", "lat": 38.1416, "lon": -87.8026, "proficiency": 0.42, "district": "MSD North Posey Co Schools", "city": "Poseyville", "ncessch": "180795001365"}, {"name": "North Putnam Middle School", "lat": 39.79, "lon": -86.8007, "proficiency": 0.37, "district": "North Putnam Community Schools", "city": "Roachdale", "ncessch": "180798000316"}, {"name": "Heritage Hills Middle School", "lat": 38.1205, "lon": -86.9864, "proficiency": 0.57, "district": "North Spencer County Sch Corp", "city": "Lincoln City", "ncessch": "180801001898"}, {"name": "Tri Central Middle-High School", "lat": 40.3753, "lon": -86.0535, "proficiency": 0.15, "district": "Tri-Central Community Schools", "city": "Sharpsville", "ncessch": "180804001379"}, {"name": "North Vermillion High School", "lat": 39.9678, "lon": -87.4532, "proficiency": 0.05, "district": "North Vermillion Com Sch Corp", "city": "Cayuga", "ncessch": "180807001384"}, {"name": "Tri-West Middle School", "lat": 39.8783, "lon": -86.537, "proficiency": 0.57, "district": "North West Hendricks Schools", "city": "Lizton", "ncessch": "180810001670"}, {"name": "Northeast Dubois Jr/Sr High School", "lat": 38.4508, "lon": -86.7962, "proficiency": 0.57, "district": "Northeast Dubois Co Sch Corp", "city": "Dubois", "ncessch": "180812001393"}, {"name": "North White Middle School", "lat": 40.8673, "lon": -86.8762, "proficiency": 0.12, "district": "North White School Corp", "city": "Monon", "ncessch": "180813002522"}, {"name": "North Central Jr/Sr High School", "lat": 39.225044, "lon": -87.390376, "proficiency": 0.05, "district": "Northeast School Corp", "city": "Farmersburg", "ncessch": "180816001402"}, {"name": "Northeastern Middle School", "lat": 39.934453, "lon": -84.9122, "proficiency": 0.32, "district": "Northeastern Wayne Schools", "city": "Fountain City", "ncessch": "180819002567"}, {"name": "Norwell Middle School", "lat": 40.828564, "lon": -85.202045, "proficiency": 0.52, "district": "Northern Wells Community Schools", "city": "Ossian", "ncessch": "180822002159"}, {"name": "Maple Creek Middle School", "lat": 41.2023, "lon": -85.1388, "proficiency": 0.33, "district": "Northwest Allen County Schools", "city": "Fort Wayne", "ncessch": "180825001380"}, {"name": "Carroll Middle School", "lat": 41.2047, "lon": -85.1945, "proficiency": 0.35, "district": "Northwest Allen County Schools", "city": "Fort Wayne", "ncessch": "180825002294"}, {"name": "Shenandoah Middle School", "lat": 40.0071, "lon": -85.5259, "proficiency": 0.17, "district": "Shenandoah School Corporation", "city": "Middletown", "ncessch": "180828001421"}, {"name": "Triton Central Middle School", "lat": 39.6129, "lon": -85.8703, "proficiency": 0.32, "district": "Northwestern Con School Corp", "city": "Fairland", "ncessch": "180831001425"}, {"name": "Eagle Park Community School", "lat": 41.441258, "lon": -87.360508, "proficiency": 0.245, "district": "NW Indiana Special Education Coop", "city": "Crown Point", "ncessch": "180832002208"}, {"name": "Oak Hill Junior High School", "lat": 40.5799, "lon": -85.8213, "proficiency": 0.47, "district": "Oak Hill United School Corp", "city": "Converse", "ncessch": "180834001430"}, {"name": "Oregon-Davis Jr-Sr High School", "lat": 41.3886, "lon": -86.552, "proficiency": 0.15, "district": "Oregon-Davis School Corp", "city": "Hamlet", "ncessch": "180846001435"}, {"name": "Orleans Jr-Sr High School", "lat": 38.6679, "lon": -86.4543, "proficiency": 0.12, "district": "Orleans Community Schools", "city": "Orleans", "ncessch": "180849001437"}, {"name": "Paoli Jr & Sr High School", "lat": 38.5504, "lon": -86.477, "proficiency": 0.12, "district": "Paoli Community School Corp", "city": "Paoli", "ncessch": "180864001438"}, {"name": "Discovery Middle School", "lat": 41.7334, "lon": -86.0634, "proficiency": 0.62, "district": "Penn-Harris-Madison School Corp", "city": "Granger", "ncessch": "180876000794"}, {"name": "Schmucker Middle School", "lat": 41.6796, "lon": -86.111, "proficiency": 0.35, "district": "Penn-Harris-Madison School Corp", "city": "Mishawaka", "ncessch": "180876001452"}, {"name": "Virgil I Grissom Middle School", "lat": 41.6094, "lon": -86.136, "proficiency": 0.17, "district": "Penn-Harris-Madison School Corp", "city": "Mishawaka", "ncessch": "180876001453"}, {"name": "Southport Middle School", "lat": 39.6835, "lon": -86.1192, "proficiency": 0.23, "district": "Perry Township Schools", "city": "Indianapolis", "ncessch": "180882001462"}, {"name": "Perry Meridian Middle School", "lat": 39.6509, "lon": -86.1611, "proficiency": 0.3, "district": "Perry Township Schools", "city": "Indianapolis", "ncessch": "180882001463"}, {"name": "Peru Jr/Sr High School", "lat": 40.7601, "lon": -86.0726, "proficiency": -0.03, "district": "Peru Community Schools", "city": "Peru", "ncessch": "180885001476"}, {"name": "Peru Junior High School", "lat": 40.76, "lon": -86.0705, "proficiency": 0.27, "district": "Peru Community Schools", "city": "Peru", "ncessch": "180885001477"}, {"name": "Pike Central Middle School", "lat": 38.4335, "lon": -87.2432, "proficiency": 0.22, "district": "Pike County School Corp", "city": "Petersburg", "ncessch": "180890000889"}, {"name": "New Augusta Public Academy - North", "lat": 39.8739, "lon": -86.2237, "proficiency": 0.17, "district": "MSD Pike Township", "city": "Indianapolis", "ncessch": "180891000513"}, {"name": "Guion Creek Middle School", "lat": 39.845, "lon": -86.2366, "proficiency": 0.025, "district": "MSD Pike Township", "city": "Indianapolis", "ncessch": "180891001487"}, {"name": "Lincoln Middle School", "lat": 39.8799, "lon": -86.2516, "proficiency": 0.075, "district": "MSD Pike Township", "city": "Indianapolis", "ncessch": "180891001488"}, {"name": "Pioneer Jr-Sr High School", "lat": 40.861, "lon": -86.494, "proficiency": 0.37, "district": "Pioneer Regional School Corp", "city": "Royal Center", "ncessch": "180894001491"}, {"name": "Plainfield Community Middle School", "lat": 39.695591, "lon": -86.393521, "proficiency": 0.56, "district": "Plainfield Community School Corp", "city": "Plainfield", "ncessch": "180897002357"}, {"name": "Pride Academy", "lat": 39.695591, "lon": -86.393521, "proficiency": -0.03, "district": "Plainfield Community School Corp", "city": "Plainfield", "ncessch": "180897002694"}, {"name": "Morgan Township Middle/High School", "lat": 41.3921, "lon": -87.026, "proficiency": 0.545, "district": "East Porter County School Corp", "city": "Valparaiso", "ncessch": "180900001214"}, {"name": "Kouts Middle/High School", "lat": 41.3142, "lon": -87.023, "proficiency": 0.37, "district": "East Porter County School Corp", "city": "Kouts", "ncessch": "180900001497"}, {"name": "Washington Twp Middle/High School", "lat": 41.4844, "lon": -86.9946, "proficiency": 0.47, "district": "East Porter County School Corp", "city": "Valparaiso", "ncessch": "180900002009"}, {"name": "Lincoln Junior High School", "lat": 41.341258, "lon": -86.299092, "proficiency": 0.27, "district": "Plymouth Community School Corp", "city": "Plymouth", "ncessch": "180906001499"}, {"name": "Harold C Urey Middle School", "lat": 41.4682, "lon": -86.4876, "proficiency": 0.32, "district": "John Glenn School Corporation", "city": "Walkerton", "ncessch": "180912001504"}, {"name": "Porter County Education Services", "lat": 41.500855, "lon": -87.069557, "proficiency": -0.03, "district": "Porter County Education Services", "city": "Valparaiso", "ncessch": "180913001507"}, {"name": "William Fegely Middle School", "lat": 41.5664, "lon": -87.2068, "proficiency": 0.17, "district": "Portage Township Schools", "city": "Portage", "ncessch": "180915001519"}, {"name": "Willowcreek Middle School", "lat": 41.5772, "lon": -87.1842, "proficiency": 0.19, "district": "Portage Township Schools", "city": "Portage", "ncessch": "180915002212"}, {"name": "Boone Grove Middle School", "lat": 41.3554, "lon": -87.1284, "proficiency": 0.17, "district": "Porter Township School Corp", "city": "Boone Grove", "ncessch": "180918000523"}, {"name": "Prairie Heights Middle School", "lat": 41.63639, "lon": -85.200513, "proficiency": 0.32, "district": "Prairie Heights Community Sch Corp", "city": "LaGrange", "ncessch": "180930001525"}, {"name": "West Central Middle School", "lat": 41.028596, "lon": -86.890398, "proficiency": 0.345, "district": "West Central School Corp", "city": "Francesville", "ncessch": "180936001517"}, {"name": "Rensselaer Middle School", "lat": 40.9365, "lon": -87.1384, "proficiency": 0.27, "district": "Rensselaer Central School Corp", "city": "Rensselaer", "ncessch": "180942001544"}, {"name": "Edgewood Junior High School", "lat": 39.2338, "lon": -86.6387, "proficiency": 0.37, "district": "Richland-Bean Blossom C S C", "city": "Ellettsville", "ncessch": "180948001547"}, {"name": "Community Youth Services", "lat": 39.832549, "lon": -84.904253, "proficiency": 0.1, "district": "Richmond Community Schools", "city": "Richmond", "ncessch": "180951000366"}, {"name": "Dennis Middle School", "lat": 39.832, "lon": -84.9114, "proficiency": 0.12, "district": "Richmond Community Schools", "city": "Richmond", "ncessch": "180951001555"}, {"name": "Test Intermediate School", "lat": 39.829, "lon": -84.8717, "proficiency": 0.17, "district": "Richmond Community Schools", "city": "Richmond", "ncessch": "180951001561"}, {"name": "Ohio County Middle School", "lat": 38.947307, "lon": -84.860876, "proficiency": 0.15, "district": "Rising Sun-Ohio Co Com", "city": "Rising Sun", "ncessch": "180960002591"}, {"name": "Rochester Community Middle School", "lat": 41.0559, "lon": -86.2238, "proficiency": 0.27, "district": "Rochester Community School Corp", "city": "Rochester", "ncessch": "180963001577"}, {"name": "Pierce Middle School", "lat": 41.4896, "lon": -87.3329, "proficiency": 0.15, "district": "Merrillville Community School Corp", "city": "Merrillville", "ncessch": "180969001588"}, {"name": "Rossville Middle/Senior High Sch", "lat": 40.414354, "lon": -86.597665, "proficiency": 0.12, "district": "Rossville Con School District", "city": "Rossville", "ncessch": "180972001590"}, {"name": "Benjamin Rush Middle School", "lat": 39.6269, "lon": -85.4518, "proficiency": 0.47, "district": "Rush County Schools", "city": "Rushville", "ncessch": "180975002240"}, {"name": "Salem Middle School", "lat": 38.614, "lon": -86.1054, "proficiency": 0.075, "district": "Salem Community Schools", "city": "Salem", "ncessch": "180981001601"}, {"name": "Daleville Jr-Sr High School", "lat": 40.118211, "lon": -85.554781, "proficiency": 0.17, "district": "Daleville Community Schools", "city": "Daleville", "ncessch": "180984001603"}, {"name": "Austin Middle School", "lat": 38.73886, "lon": -85.800183, "proficiency": 0.075, "district": "Scott County School District 1", "city": "Austin", "ncessch": "180999001606"}, {"name": "Scottsburg Middle School", "lat": 38.680269, "lon": -85.763562, "proficiency": 0.12, "district": "Scott County School District 2", "city": "Scottsburg", "ncessch": "181002001611"}, {"name": "Seymour Middle School", "lat": 38.9682, "lon": -85.8773, "proficiency": 0.18, "district": "Seymour Community Schools", "city": "Seymour", "ncessch": "181008002214"}, {"name": "Shakamak Jr-Sr High School", "lat": 39.159361, "lon": -87.212846, "proficiency": 0.245, "district": "MSD Shakamak Schools", "city": "Jasonville", "ncessch": "181011001623"}, {"name": "Shelbyville Middle School", "lat": 39.506, "lon": -85.7932, "proficiency": 0.42, "district": "Shelbyville Central Schools", "city": "Shelbyville", "ncessch": "181014001630"}, {"name": "Shoals Middle School", "lat": 38.66774, "lon": -86.776515, "proficiency": 0.15, "district": "Shoals Community School Corp", "city": "Shoals", "ncessch": "181017002615"}, {"name": "Churubusco Jr-Sr High School", "lat": 41.2312, "lon": -85.3236, "proficiency": 0.17, "district": "Smith-Green Community Schools", "city": "Churubusco", "ncessch": "181023001638"}, {"name": "South Adams Middle School", "lat": 40.64665, "lon": -84.95998, "proficiency": 0.47, "district": "South Adams Schools", "city": "Berne", "ncessch": "181026001641"}, {"name": "Juvenile Justice Center", "lat": 41.664, "lon": -86.249, "proficiency": -0.03, "district": "South Bend Community School Corp", "city": "South Bend", "ncessch": "181029000898"}, {"name": "Jackson Middle School", "lat": 41.6233, "lon": -86.2366, "proficiency": 0.025, "district": "South Bend Community School Corp", "city": "South Bend", "ncessch": "181029001645"}, {"name": "Clay International Academy", "lat": 41.7252, "lon": -86.2446, "proficiency": 0.025, "district": "South Bend Community School Corp", "city": "South Bend", "ncessch": "181029001650"}, {"name": "Dickinson Fine Arts Academy", "lat": 41.6929, "lon": -86.3092, "proficiency": 0.025, "district": "South Bend Community School Corp", "city": "South Bend", "ncessch": "181029001661"}, {"name": "Navarre Middle School", "lat": 41.6686, "lon": -86.3124, "proficiency": 0.025, "district": "South Bend Community School Corp", "city": "South Bend", "ncessch": "181029001679"}, {"name": "Edison Middle School", "lat": 41.6896, "lon": -86.2093, "proficiency": 0.025, "district": "South Bend Community School Corp", "city": "South Bend", "ncessch": "181029001681"}, {"name": "Jefferson Traditional School", "lat": 41.6705, "lon": -86.2342, "proficiency": 0.075, "district": "South Bend Community School Corp", "city": "South Bend", "ncessch": "181029001682"}, {"name": "LaSalle Academy", "lat": 41.6949, "lon": -86.2874, "proficiency": 0.22, "district": "South Bend Community School Corp", "city": "South Bend", "ncessch": "181029001709"}, {"name": "South Bend Virtual School", "lat": 41.68555, "lon": -86.234171, "proficiency": -0.03, "district": "South Bend Community School Corp", "city": "South Bend", "ncessch": "181029002699"}, {"name": "Haubstadt Community School", "lat": 38.2063, "lon": -87.5661, "proficiency": 0.545, "district": "South Gibson School Corporation", "city": "Haubstadt", "ncessch": "181035001689"}, {"name": "Owensville Community School", "lat": 38.2585, "lon": -87.6989, "proficiency": 0.245, "district": "South Gibson School Corporation", "city": "Owensville", "ncessch": "181035001691"}, {"name": "Fort Branch Community School", "lat": 38.2406, "lon": -87.571, "proficiency": 0.47, "district": "South Gibson School Corporation", "city": "Fort Branch", "ncessch": "181035002230"}, {"name": "Corydon Central Jr High School", "lat": 38.2001, "lon": -86.1194, "proficiency": 0.42, "district": "South Harrison Com Schools", "city": "Corydon", "ncessch": "181036002283"}, {"name": "South Central Jr & Sr High School", "lat": 38.0817, "lon": -86.0005, "proficiency": 0.32, "district": "South Harrison Com Schools", "city": "Elizabeth", "ncessch": "181036002285"}, {"name": "Tri Junior-Senior High School", "lat": 39.8327, "lon": -85.3509, "proficiency": 0.05, "district": "South Henry School Corp", "city": "Straughn", "ncessch": "181038001702"}, {"name": "South Knox Middle-High School", "lat": 38.6351, "lon": -87.4218, "proficiency": 0.42, "district": "South Knox School Corp", "city": "Vincennes", "ncessch": "181041001706"}, {"name": "Pendleton Heights Middle School", "lat": 39.995128, "lon": -85.728175, "proficiency": 0.37, "district": "South Madison Com Sch Corp", "city": "Pendleton", "ncessch": "181044001712"}, {"name": "Southmont Jr High School", "lat": 39.946971, "lon": -86.905517, "proficiency": 0.32, "district": "South Montgomery Com Sch Corp", "city": "Crawfordsville", "ncessch": "181045002325"}, {"name": "South Newton Middle School", "lat": 40.8077, "lon": -87.3847, "proficiency": 0.15, "district": "South Newton School Corp", "city": "Kentland", "ncessch": "181047001473"}, {"name": "South Putnam Middle School", "lat": 39.582946, "lon": -86.81611, "proficiency": 0.22, "district": "South Putnam Community Schools", "city": "Greencastle", "ncessch": "181050002542"}, {"name": "South Ripley Junior High School", "lat": 39.051394, "lon": -85.248877, "proficiency": 0.47, "district": "South Ripley Com Sch Corp", "city": "Versailles", "ncessch": "181053002482"}, {"name": "South Spencer Middle School", "lat": 37.9062, "lon": -87.1064, "proficiency": 0.32, "district": "South Spencer County Sch Corp", "city": "Rockport", "ncessch": "181056001734"}, {"name": "South Vermillion Middle School", "lat": 39.689, "lon": -87.417, "proficiency": 0.27, "district": "South Vermillion Com Sch Corp", "city": "Clinton", "ncessch": "181059001740"}, {"name": "Fountain Central High School", "lat": 40.106202, "lon": -87.226833, "proficiency": 0.17, "district": "Southeast Fountain School Corp", "city": "Veedersburg", "ncessch": "181062001742"}, {"name": "Forest Park Jr-Sr High School", "lat": 38.2278, "lon": -86.8576, "proficiency": 0.52, "district": "Southeast Dubois Co Sch Corp", "city": "Ferdinand", "ncessch": "181064001745"}, {"name": "Hamilton SE Int and Jr High Sch", "lat": 39.967822, "lon": -85.878413, "proficiency": 0.37, "district": "Hamilton Southeastern Schools", "city": "Fishers", "ncessch": "181065000133"}, {"name": "Fishers Junior High School", "lat": 39.981549, "lon": -85.995361, "proficiency": 0.38, "district": "Hamilton Southeastern Schools", "city": "Fishers", "ncessch": "181065001245"}, {"name": "Riverside Junior High", "lat": 39.946479, "lon": -86.062359, "proficiency": 0.39, "district": "Hamilton Southeastern Schools", "city": "Fishers", "ncessch": "181065002182"}, {"name": "Fall Creek Junior High", "lat": 39.963278, "lon": -85.92111, "proficiency": 0.49, "district": "Hamilton Southeastern Schools", "city": "Fishers", "ncessch": "181065002580"}, {"name": "Lewis Cass Junior High School", "lat": 40.662872, "lon": -86.251457, "proficiency": 0.37, "district": "Lewis Cass Schools", "city": "Walton", "ncessch": "181068002625"}, {"name": "New Palestine Jr High School", "lat": 39.7524, "lon": -85.9124, "proficiency": 0.52, "district": "Southern Hancock Co Com Sch Corp", "city": "New Palestine", "ncessch": "181071001759"}, {"name": "Randolph Southern Jr-Sr High Sch", "lat": 40.052, "lon": -84.9453, "proficiency": 0.245, "district": "Randolph Southern School Corp", "city": "Lynn", "ncessch": "181074001763"}, {"name": "Southern Wells Jr-Sr High School", "lat": 40.608315, "lon": -85.279949, "proficiency": 0.27, "district": "Southern Wells Com Schools", "city": "Poneto", "ncessch": "181077001765"}, {"name": "Southwestern Middle School", "lat": 38.710704, "lon": -85.472769, "proficiency": 0.12, "district": "Southwestern-Jefferson Co Con", "city": "Hanover", "ncessch": "181080002547"}, {"name": "Southwestern High School", "lat": 39.4391, "lon": -85.8454, "proficiency": 0.245, "district": "Southwestern Con Sch Shelby Co", "city": "Shelbyville", "ncessch": "181083001769"}, {"name": "Sullivan Middle School", "lat": 39.112925, "lon": -87.413815, "proficiency": 0.22, "district": "Southwest School Corporation", "city": "Sullivan", "ncessch": "181086002359"}, {"name": "Carlisle Middle School", "lat": 38.963672, "lon": -87.40204, "proficiency": 0.1, "district": "Southwest School Corporation", "city": "Carlisle", "ncessch": "181086002584"}, {"name": "Southridge Middle School", "lat": 38.2746, "lon": -86.9639, "proficiency": 0.57, "district": "Southwest Dubois Co Sch Corp", "city": "Huntingburg", "ncessch": "181087001777"}, {"name": "Riverton Parke Jr-Sr High School", "lat": 39.6976, "lon": -87.3228, "proficiency": 0.17, "district": "Southwest Parke Com Sch Corp", "city": "Montezuma", "ncessch": "181090002287"}, {"name": "Speedway Junior High School", "lat": 39.7848, "lon": -86.2475, "proficiency": 0.57, "district": "School Town of Speedway", "city": "Speedway", "ncessch": "181092001784"}, {"name": "Owen Valley Middle School", "lat": 39.2888, "lon": -86.7826, "proficiency": 0.22, "district": "Spencer-Owen Community Schools", "city": "Spencer", "ncessch": "181095001790"}, {"name": "Springs Valley Comm High School", "lat": 38.5511, "lon": -86.6169, "proficiency": 0.12, "district": "Springs Valley Com School Corp", "city": "French Lick", "ncessch": "181098001795"}, {"name": "Angola Middle School", "lat": 41.6329, "lon": -84.9784, "proficiency": 0.42, "district": "MSD Steuben County", "city": "Angola", "ncessch": "181110001798"}, {"name": "East Central Middle School", "lat": 39.278188, "lon": -84.973767, "proficiency": 0.42, "district": "Sunman-Dearborn Com Sch Corp", "city": "St Leon", "ncessch": "181119002300"}, {"name": "Switzerland Co Middle School", "lat": 38.7419, "lon": -85.0781, "proficiency": 0.12, "district": "Switzerland County School Corp", "city": "Vevay", "ncessch": "181122000806"}, {"name": "Taylor Middle School", "lat": 40.434951, "lon": -86.056483, "proficiency": 0.12, "district": "Taylor Community School Corp", "city": "Kokomo", "ncessch": "181125001263"}, {"name": "Tell City Jr-Sr High School", "lat": 37.9545, "lon": -86.7636, "proficiency": 0.27, "district": "Tell City-Troy Twp School Corp", "city": "Tell City", "ncessch": "181126001819"}, {"name": "Battle Ground Middle School", "lat": 40.5059, "lon": -86.9179, "proficiency": 0.32, "district": "Tippecanoe School Corp", "city": "West Lafeyette", "ncessch": "181134001822"}, {"name": "East Tipp Middle School", "lat": 40.4602, "lon": -86.7613, "proficiency": 0.52, "district": "Tippecanoe School Corp", "city": "Lafayette", "ncessch": "181134001825"}, {"name": "Klondike Middle School", "lat": 40.4637, "lon": -86.9611, "proficiency": 0.37, "district": "Tippecanoe School Corp", "city": "West Lafayette", "ncessch": "181134001828"}, {"name": "Southwestern Middle School", "lat": 40.3023, "lon": -86.9458, "proficiency": 0.32, "district": "Tippecanoe School Corp", "city": "Lafayette", "ncessch": "181134001832"}, {"name": "Wainwright Middle School", "lat": 40.3148, "lon": -86.7583, "proficiency": 0.22, "district": "Tippecanoe School Corp", "city": "Lafayette", "ncessch": "181134001833"}, {"name": "Wea Ridge Middle School", "lat": 40.3528, "lon": -86.8776, "proficiency": 0.32, "district": "Tippecanoe School Corp", "city": "Lafayette", "ncessch": "181134001920"}, {"name": "Tippecanoe Valley Middle School", "lat": 41.1134, "lon": -86.0432, "proficiency": 0.37, "district": "Tippecanoe Valley School Corp", "city": "Arkon", "ncessch": "181137000397"}, {"name": "Tipton Middle School", "lat": 40.2719, "lon": -86.0399, "proficiency": 0.22, "district": "Tipton Community School Corp", "city": "Tipton", "ncessch": "181140001842"}, {"name": "Tri-County Jr/Sr High School", "lat": 40.7349, "lon": -87.0848, "proficiency": 0.22, "district": "Tri-County School Corporation", "city": "Wolcott", "ncessch": "181143001846"}, {"name": "Lowell Middle School", "lat": 41.270305, "lon": -87.431822, "proficiency": 0.27, "district": "Tri-Creek School Corporation", "city": "Lowell", "ncessch": "181146001851"}, {"name": "Triton Jr-Sr High School", "lat": 41.3014, "lon": -86.1085, "proficiency": 0.37, "district": "Triton School Corporation", "city": "Bourbon", "ncessch": "181149001856"}, {"name": "Roosevelt Middle School", "lat": 40.7438, "lon": -86.7721, "proficiency": 0.32, "district": "Twin Lakes School Corp", "city": "Monticello", "ncessch": "181158001862"}, {"name": "Union County Middle School", "lat": 39.635854, "lon": -84.916879, "proficiency": 0.17, "district": "Union Co/Clg Corner Joint Sch Dist", "city": "Liberty", "ncessch": "181161001868"}, {"name": "Union Township Middle School", "lat": 41.4789, "lon": -87.1804, "proficiency": 0.42, "district": "Union Township School Corp", "city": "Valparaiso", "ncessch": "181170000793"}, {"name": "Union Junior & High School", "lat": 40.047064, "lon": -85.14127, "proficiency": 0.1, "district": "Union School Corporation", "city": "Modoc", "ncessch": "181173001875"}, {"name": "Indiana Digital JR and High School", "lat": 40.047064, "lon": -85.14127, "proficiency": 0.08, "district": "Union School Corporation", "city": "Modoc", "ncessch": "181173002666"}, {"name": "LaVille Jr-Sr High School", "lat": 41.4789, "lon": -86.304, "proficiency": 0.22, "district": "Union-North United School Corp", "city": "Lakeville", "ncessch": "181191001879"}, {"name": "Benjamin Franklin Middle School", "lat": 41.4724, "lon": -87.0667, "proficiency": 0.42, "district": "Valparaiso Community Schools", "city": "Valparaiso", "ncessch": "181197001881"}, {"name": "Thomas Jefferson Middle School", "lat": 41.483, "lon": -87.0455, "proficiency": 0.47, "district": "Valparaiso Community Schools", "city": "Valparaiso", "ncessch": "181197001890"}, {"name": "Crothersville Jr-Sr High School", "lat": 38.797863, "lon": -85.836483, "proficiency": 0.1, "district": "Crothersville Community Schools", "city": "Crothersville", "ncessch": "181206001893"}, {"name": "Honey Creek Middle School", "lat": 39.3869, "lon": -87.3996, "proficiency": 0.32, "district": "Vigo County School Corp", "city": "Terre Haute", "ncessch": "181209001907"}, {"name": "Otter Creek Middle School", "lat": 39.5244, "lon": -87.371, "proficiency": 0.12, "district": "Vigo County School Corp", "city": "Terre Haute", "ncessch": "181209001911"}, {"name": "Sarah Scott Middle School", "lat": 39.4439, "lon": -87.4035, "proficiency": 0.075, "district": "Vigo County School Corp", "city": "Terre Haute", "ncessch": "181209001915"}, {"name": "West Vigo Middle School", "lat": 39.4618, "lon": -87.4912, "proficiency": 0.075, "district": "Vigo County School Corp", "city": "West Terre Haute", "ncessch": "181209001924"}, {"name": "Woodrow Wilson Middle School", "lat": 39.463982, "lon": -87.380072, "proficiency": 0.22, "district": "Vigo County School Corp", "city": "Terre Haute", "ncessch": "181209001925"}, {"name": "Booker T Washington Alt Sch", "lat": 39.426563, "lon": -87.408672, "proficiency": 0.245, "district": "Vigo County School Corp", "city": "Terre Haute", "ncessch": "181209002344"}, {"name": "George Rogers Clark School", "lat": 38.648709, "lon": -87.501498, "proficiency": 0.17, "district": "Vincennes Community School Corp", "city": "Vincennes", "ncessch": "181212001928"}, {"name": "Washington Learning Academy", "lat": 38.683566, "lon": -87.503624, "proficiency": 0.1, "district": "Vincennes Community School Corp", "city": "Vincennes", "ncessch": "181212002696"}, {"name": "Wabash Middle School", "lat": 40.8077, "lon": -85.8264, "proficiency": 0.22, "district": "Wabash City Schools", "city": "Wabash", "ncessch": "181215002301"}, {"name": "Northfield Jr-Sr High School", "lat": 40.855587, "lon": -85.795716, "proficiency": 0.27, "district": "MSD Wabash County Schools", "city": "Wabash", "ncessch": "181218001945"}, {"name": "Southwood Jr-Sr High School", "lat": 40.740346, "lon": -85.780809, "proficiency": 0.32, "district": "MSD Wabash County Schools", "city": "Wabash", "ncessch": "181218001948"}, {"name": "White's Jr-Sr High School", "lat": 40.746189, "lon": -85.780241, "proficiency": 0.1, "district": "MSD Wabash County Schools", "city": "Wabash", "ncessch": "181218001951"}, {"name": "North Wood Middle School", "lat": 41.54, "lon": -86.0218, "proficiency": 0.57, "district": "Wa-Nee Community Schools", "city": "Wakarusa", "ncessch": "181224001958"}, {"name": "Raymond Park Intermediate & Middle", "lat": 39.7383, "lon": -86.0156, "proficiency": 0.075, "district": "MSD Warren Township", "city": "Indianapolis", "ncessch": "181236000229"}, {"name": "Creston Intermediate & Middle Schl", "lat": 39.7543, "lon": -85.9727, "proficiency": 0.025, "district": "MSD Warren Township", "city": "Indianapolis", "ncessch": "181236001961"}, {"name": "Stonybrook Intermediate & Middle", "lat": 39.8072, "lon": -85.967, "proficiency": 0.075, "district": "MSD Warren Township", "city": "Indianapolis", "ncessch": "181236001970"}, {"name": "Boonville Middle School", "lat": 38.0403, "lon": -87.28, "proficiency": 0.22, "district": "Warrick County School Corp", "city": "Boonville", "ncessch": "181239001976"}, {"name": "Castle North Middle School", "lat": 37.9938, "lon": -87.3773, "proficiency": 0.57, "district": "Warrick County School Corp", "city": "Newburgh", "ncessch": "181239001978"}, {"name": "Castle South Middle School", "lat": 37.9798, "lon": -87.3835, "proficiency": 0.47, "district": "Warrick County School Corp", "city": "Newburgh", "ncessch": "181239002454"}, {"name": "Tecumseh Middle School", "lat": 38.194901, "lon": -87.341238, "proficiency": 0.32, "district": "Warrick County School Corp", "city": "Lynnville", "ncessch": "181239002609"}, {"name": "Edgewood Middle School", "lat": 41.2275, "lon": -85.8642, "proficiency": 0.37, "district": "Warsaw Community Schools", "city": "Warsaw", "ncessch": "181242002000"}, {"name": "Lakeview Middle School", "lat": 41.2336, "lon": -85.8435, "proficiency": 0.32, "district": "Warsaw Community Schools", "city": "Warsaw", "ncessch": "181242002364"}, {"name": "Washington Junior High School", "lat": 38.6591, "lon": -87.1686, "proficiency": 0.27, "district": "Washington Community Schools", "city": "Washington", "ncessch": "181245002007"}, {"name": "Eastwood Middle School", "lat": 39.867457, "lon": -86.092108, "proficiency": 0.27, "district": "MSD Washington Township", "city": "Indianapolis", "ncessch": "181272002013"}, {"name": "Northview Middle School", "lat": 39.908848, "lon": -86.131893, "proficiency": 0.17, "district": "MSD Washington Township", "city": "Indianapolis", "ncessch": "181272002022"}, {"name": "Westlane Middle School", "lat": 39.885298, "lon": -86.181853, "proficiency": 0.075, "district": "MSD Washington Township", "city": "Indianapolis", "ncessch": "181272002024"}, {"name": "Chapel Hill 7th & 8th Grade Center", "lat": 39.78, "lon": -86.291, "proficiency": 0.08, "district": "MSD Wayne Township", "city": "Indianapolis", "ncessch": "181281002032"}, {"name": "Lynhurst 7th & 8th Grade Center", "lat": 39.7249, "lon": -86.2442, "proficiency": 0.15, "district": "MSD Wayne Township", "city": "Indianapolis", "ncessch": "181281002039"}, {"name": "West Lafayette Jr/Sr High School", "lat": 40.4361, "lon": -86.9117, "proficiency": 0.57, "district": "West Lafayette Com School Corp", "city": "West Lafayette", "ncessch": "181287002048"}, {"name": "Frankton Jr-Sr High School", "lat": 40.2204, "lon": -85.7735, "proficiency": 0.27, "district": "Frankton-Lapel Community Schools", "city": "Frankton", "ncessch": "181288002050"}, {"name": "Lapel Middle School", "lat": 40.0619, "lon": -85.8447, "proficiency": 0.42, "district": "Frankton-Lapel Community Schools", "city": "Lapel", "ncessch": "181288002418"}, {"name": "West Noble Middle School", "lat": 41.4288, "lon": -85.5836, "proficiency": 0.42, "district": "West Noble School Corporation", "city": "Ligonier", "ncessch": "181290002059"}, {"name": "West Washington Jr-Sr High School", "lat": 38.5839, "lon": -86.2344, "proficiency": 0.27, "district": "West Washington School Corp", "city": "Campbellsburg", "ncessch": "181293002063"}, {"name": "Western Boone Jr-Sr High School", "lat": 40.0564, "lon": -86.613, "proficiency": 0.22, "district": "Western Boone Co Com Sch Dist", "city": "Thorntown", "ncessch": "181299002066"}, {"name": "Lincoln Middle School", "lat": 39.8158, "lon": -85.1674, "proficiency": 0.12, "district": "Western Wayne Schools", "city": "Cambridge City", "ncessch": "181305000561"}, {"name": "Westfield Middle School", "lat": 40.048, "lon": -86.1316, "proficiency": 0.46, "district": "Westfield-Washington Schools", "city": "Westfield", "ncessch": "181308002074"}, {"name": "Westview Jr-Sr High School", "lat": 41.617, "lon": -85.5396, "proficiency": 0.57, "district": "Westview School Corporation", "city": "Topeka", "ncessch": "181311002079"}, {"name": "Whiting Middle School", "lat": 41.681, "lon": -87.4935, "proficiency": 0.075, "district": "School City of Whiting", "city": "Whiting", "ncessch": "181320000398"}, {"name": "Whitko Jr/Sr High School", "lat": 41.0828, "lon": -85.6355, "proficiency": 0.12, "district": "Whitko Community School Corp", "city": "South Whitley", "ncessch": "181323002089"}], "districts": [{"name": "Indiana Department of Correction", "lat": 40.783937333333334, "lon": -86.32418966666667, "proficiency": -0.03, "schoolCount": 3}, {"name": "White River Valley School District", "lat": 38.978051, "lon": -87.100439, "proficiency": 0.32, "schoolCount": 1}, {"name": "Community Montessori Inc", "lat": 38.3531, "lon": -85.8098, "proficiency": 0.1, "schoolCount": 1}, {"name": "Irvington Community School", "lat": 39.7693, "lon": -86.052, "proficiency": 0.12, "schoolCount": 1}, {"name": "Options Charter Schools", "lat": 40.036616, "lon": -86.04245166666668, "proficiency": 0.245, "schoolCount": 3}, {"name": "Christel House Academy South", "lat": 39.727941, "lon": -86.148329, "proficiency": 0.245, "schoolCount": 1}, {"name": "IN Sch for the Blind & Vis Imprd", "lat": 39.895061, "lon": -86.143336, "proficiency": -0.03, "schoolCount": 1}, {"name": "Indiana School For The Deaf", "lat": 39.8343, "lon": -86.1366, "proficiency": 0.245, "schoolCount": 1}, {"name": "Thea Bowman Leadership Academy", "lat": 41.601115, "lon": -87.383887, "proficiency": 0.025, "schoolCount": 1}, {"name": "Charter School of the Dunes", "lat": 41.596404, "lon": -87.248952, "proficiency": 0.025, "schoolCount": 1}, {"name": "KIPP Indy College Prep Middle", "lat": 39.81148, "lon": -86.129141, "proficiency": 0.025, "schoolCount": 1}, {"name": "MSD Southwest Allen County Schls", "lat": 41.0537675, "lon": -85.2974, "proficiency": 0.34, "schoolCount": 2}, {"name": "SE Neighborhood Sch of Excellence", "lat": 39.746088, "lon": -86.140769, "proficiency": 0.025, "schoolCount": 1}, {"name": "Burris Laboratory School", "lat": 40.196838, "lon": -85.412325, "proficiency": 0.545, "schoolCount": 1}, {"name": "Andrew J Brown Academy", "lat": 39.822417, "lon": -85.973939, "proficiency": 0.05, "schoolCount": 1}, {"name": "Rural Community Schools Inc", "lat": 39.1198, "lon": -87.5558, "proficiency": -0.03, "schoolCount": 1}, {"name": "Charles A Tindley Accelerated Sch", "lat": 39.829805, "lon": -86.114481, "proficiency": 0.025, "schoolCount": 1}, {"name": "21st Century Charter Sch of Gary", "lat": 41.600759, "lon": -87.338843, "proficiency": 0.025, "schoolCount": 1}, {"name": "East Chicago Urban Enterprise Academy", "lat": 41.629629, "lon": -87.453264, "proficiency": 0.05, "schoolCount": 1}, {"name": "Victory College Prep Academy", "lat": 39.743394, "lon": -86.088571, "proficiency": 0.12, "schoolCount": 1}, {"name": "Gary Lighthouse Charter School", "lat": 41.598007, "lon": -87.392458, "proficiency": 0.025, "schoolCount": 1}, {"name": "East Chicago Lighthouse Charter", "lat": 41.642, "lon": -87.444125, "proficiency": 0.05, "schoolCount": 1}, {"name": "Adams Central Community Schools", "lat": 40.746147, "lon": -84.942832, "proficiency": 0.42, "schoolCount": 1}, {"name": "Geist Montessori Academy", "lat": 39.913763, "lon": -85.920828, "proficiency": 0.245, "schoolCount": 1}, {"name": "Renaissance Academy Charter School", "lat": 41.69, "lon": -86.7795, "proficiency": 0.495, "schoolCount": 1}, {"name": "IN Math & Science Academy", "lat": 39.8225, "lon": -86.237, "proficiency": 0.345, "schoolCount": 1}, {"name": "Aspire Charter Academy", "lat": 41.58916, "lon": -87.396927, "proficiency": 0.05, "schoolCount": 1}, {"name": "Anderson Preparatory Academy", "lat": 40.086738, "lon": -85.680354, "proficiency": 0.025, "schoolCount": 1}, {"name": "Hammond Academy of Science & Tech", "lat": 41.618095, "lon": -87.523552, "proficiency": 0.12, "schoolCount": 1}, {"name": "The Bloomington Project School", "lat": 39.163037, "lon": -86.533295, "proficiency": 0.545, "schoolCount": 1}, {"name": "Paramount Brookside", "lat": 39.787, "lon": -86.1128, "proficiency": 0.47, "schoolCount": 1}, {"name": "Discovery Charter School", "lat": 41.638615, "lon": -87.052374, "proficiency": 0.1, "schoolCount": 1}, {"name": "IN Math & Science Academy - North", "lat": 39.88988, "lon": -86.12095, "proficiency": 0.27, "schoolCount": 1}, {"name": "Indiana Connections Academy", "lat": 39.875879, "lon": -86.275272, "proficiency": 0.21, "schoolCount": 1}, {"name": "Rock Creek Community Academy", "lat": 38.405494, "lon": -85.739502, "proficiency": 0.245, "schoolCount": 1}, {"name": "Southside Sp Srvs Of Marion Co", "lat": 39.6888, "lon": -86.137971, "proficiency": 0.245, "schoolCount": 1}, {"name": "Tri-Township Cons School Corp", "lat": 41.4267, "lon": -86.8938, "proficiency": 0.1, "schoolCount": 1}, {"name": "Damar Charter Academy", "lat": 39.68811, "lon": -86.286721, "proficiency": 0.3, "schoolCount": 1}, {"name": "North Central Parke Comm Schl Corp", "lat": 39.876652, "lon": -87.211875, "proficiency": 0.17, "schoolCount": 1}, {"name": "Alexandria Community School Corp", "lat": 40.260855, "lon": -85.680083, "proficiency": 0.095, "schoolCount": 2}, {"name": "Inspire Academy - A Sch of Inquiry", "lat": 40.174217, "lon": -85.35449, "proficiency": -0.03, "schoolCount": 1}, {"name": "Phalen Leadership Academy - IN Inc", "lat": 39.828498, "lon": -86.001704, "proficiency": 0.245, "schoolCount": 1}, {"name": "Smith Academy for Excellence", "lat": 41.0755, "lon": -85.1487, "proficiency": 0.245, "schoolCount": 1}, {"name": "Enlace Academy", "lat": 39.82275, "lon": -86.262214, "proficiency": 0.05, "schoolCount": 1}, {"name": "Vision Academy", "lat": 39.790731, "lon": -86.190549, "proficiency": 0.05, "schoolCount": 1}, {"name": "Christel House Academy West", "lat": 39.766453, "lon": -86.212096, "proficiency": 0.05, "schoolCount": 1}, {"name": "Anderson Community School Corp", "lat": 40.1163885, "lon": -85.6730255, "proficiency": 0.095, "schoolCount": 2}, {"name": "Career Academy Middle School", "lat": 41.72774, "lon": -86.331751, "proficiency": 0.025, "schoolCount": 1}, {"name": "Dugger Union Community School Corp", "lat": 39.074371, "lon": -87.270515, "proficiency": 0.05, "schoolCount": 1}, {"name": "Mays Community Academy", "lat": 39.742015, "lon": -85.429294, "proficiency": 0.245, "schoolCount": 1}, {"name": "Steel City Academy", "lat": 41.55698, "lon": -87.369451, "proficiency": 0.1, "schoolCount": 1}, {"name": "Seven Oaks Classical School", "lat": 39.229805, "lon": -86.6213, "proficiency": 0.3, "schoolCount": 1}, {"name": "Higher Institute of Arts & Tech", "lat": 41.511898, "lon": -87.34511, "proficiency": 0.1, "schoolCount": 1}, {"name": "Hoosier College and Career Academy", "lat": 39.856955, "lon": -86.043148, "proficiency": 0.05, "schoolCount": 1}, {"name": "Argos Community Schools", "lat": 41.241437, "lon": -86.250678, "proficiency": 0.345, "schoolCount": 1}, {"name": "Avondale Meadows Middle School", "lat": 39.829777, "lon": -86.112431, "proficiency": 0.05, "schoolCount": 1}, {"name": "James & Rosemary Phalen Leadership Academy Middle School", "lat": 39.83625, "lon": -85.992503, "proficiency": 0.025, "schoolCount": 1}, {"name": "Urban ACT Academy", "lat": 39.768765, "lon": -86.136934, "proficiency": 0.1, "schoolCount": 1}, {"name": "Vanguard Collegiate of Indy", "lat": 39.768797, "lon": -86.202164, "proficiency": 0.1, "schoolCount": 1}, {"name": "Matchbook Learning", "lat": 39.784077, "lon": -86.195861, "proficiency": 0.025, "schoolCount": 1}, {"name": "Indiana Agriculture and Technology", "lat": 39.962466, "lon": -86.115301, "proficiency": 0.05, "schoolCount": 1}, {"name": "Timothy L. Johnson Academy Middle", "lat": 41.039295, "lon": -85.105113, "proficiency": 0.1, "schoolCount": 1}, {"name": "Dynamic Minds Academy", "lat": 39.908391, "lon": -86.054051, "proficiency": -0.03, "schoolCount": 1}, {"name": "Paramount Englewood", "lat": 39.768087, "lon": -86.111924, "proficiency": 0.245, "schoolCount": 1}, {"name": "Attica Consolidated School Corp", "lat": 40.276745, "lon": -87.251774, "proficiency": 0.245, "schoolCount": 1}, {"name": "Borden-Henryville School Corporation", "lat": 38.5064145, "lon": -85.858385, "proficiency": 0.3575, "schoolCount": 2}, {"name": "Silver Creek School Corporation", "lat": 38.405508, "lon": -85.755506, "proficiency": 0.22, "schoolCount": 1}, {"name": "Adelante Schools", "lat": 39.72386, "lon": -86.135761, "proficiency": 0.025, "schoolCount": 1}, {"name": "The PATH School", "lat": 39.776271, "lon": -86.221265, "proficiency": 0.05, "schoolCount": 1}, {"name": "Phalen Virtual Leadership Academy", "lat": 39.83625, "lon": -85.992503, "proficiency": -0.03, "schoolCount": 1}, {"name": "South Dearborn Community Sch Corp", "lat": 39.0629, "lon": -84.9309, "proficiency": 0.22, "schoolCount": 1}, {"name": "Avon Community School Corp", "lat": 39.771075499999995, "lon": -86.38752099999999, "proficiency": 0.49, "schoolCount": 2}, {"name": "Barr-Reeve Community Schools Inc", "lat": 38.6686, "lon": -87.0489, "proficiency": 0.72, "schoolCount": 1}, {"name": "Bartholomew Con School Corp", "lat": 39.2166045, "lon": -85.9123105, "proficiency": 0.295, "schoolCount": 2}, {"name": "Batesville Community School Corp", "lat": 39.3025, "lon": -85.2271, "proficiency": 0.47, "schoolCount": 1}, {"name": "Baugo Community Schools", "lat": 41.6394, "lon": -86.0247, "proficiency": 0.37, "schoolCount": 1}, {"name": "Beech Grove City Schools", "lat": 39.7262, "lon": -86.096, "proficiency": 0.12, "schoolCount": 1}, {"name": "Benton Community School Corp", "lat": 40.5645, "lon": -87.2425, "proficiency": 0.27, "schoolCount": 1}, {"name": "Blackford County Schools", "lat": 40.485, "lon": -85.3716, "proficiency": 0.22, "schoolCount": 1}, {"name": "Bloomfield School District", "lat": 39.025486, "lon": -86.945946, "proficiency": 0.32, "schoolCount": 1}, {"name": "Monroe County Community Sch Corp", "lat": 39.1417, "lon": -86.53283333333333, "proficiency": 0.3867, "schoolCount": 3}, {"name": "Blue River Valley Schools", "lat": 40.00184, "lon": -85.328871, "proficiency": 0.05, "schoolCount": 1}, {"name": "North Harrison Com School Corp", "lat": 38.323093, "lon": -86.146429, "proficiency": 0.17, "schoolCount": 1}, {"name": "MSD Bluffton-Harrison", "lat": 40.7221, "lon": -85.1564, "proficiency": 0.42, "schoolCount": 1}, {"name": "MSD Boone Township", "lat": 41.3162, "lon": -87.1985, "proficiency": 0.27, "schoolCount": 1}, {"name": "Clay Community Schools", "lat": 39.397644, "lon": -87.139902, "proficiency": 0.27, "schoolCount": 2}, {"name": "Bremen Public Schools", "lat": 41.4447, "lon": -86.1539, "proficiency": 0.42, "schoolCount": 1}, {"name": "Brown County School Corporation", "lat": 39.205472, "lon": -86.24343, "proficiency": 0.42, "schoolCount": 1}, {"name": "Brownsburg Community School Corp", "lat": 39.8216825, "lon": -86.380189, "proficiency": 0.68, "schoolCount": 2}, {"name": "Brownstown Cnt Com Sch Corp", "lat": 38.8809, "lon": -86.0481, "proficiency": 0.27, "schoolCount": 1}, {"name": "C A Beard Memorial School Corp", "lat": 39.805, "lon": -85.5205, "proficiency": 0.17, "schoolCount": 1}, {"name": "Cannelton City Schools", "lat": 37.910295, "lon": -86.743796, "proficiency": 0.1, "schoolCount": 1}, {"name": "Carmel Clay Schools", "lat": 39.97196666666667, "lon": -86.1483, "proficiency": 0.5433, "schoolCount": 3}, {"name": "Medora Community School Corp", "lat": 38.82468, "lon": -86.172398, "proficiency": 0.245, "schoolCount": 1}, {"name": "Carroll Consolidated School Corp", "lat": 40.545927, "lon": -86.480621, "proficiency": 0.27, "schoolCount": 1}, {"name": "Caston School Corporation", "lat": 40.911779, "lon": -86.282801, "proficiency": 0.245, "schoolCount": 1}, {"name": "Center Grove Community School Corp", "lat": 39.596599999999995, "lon": -86.19725, "proficiency": 0.495, "schoolCount": 2}, {"name": "Centerville-Abington Com Schs", "lat": 39.811831, "lon": -85.000937, "proficiency": 0.27, "schoolCount": 1}, {"name": "DeKalb Co Ctl United Sch Dist", "lat": 41.4093, "lon": -85.0387, "proficiency": 0.37, "schoolCount": 1}, {"name": "Central Noble Com School Corp", "lat": 41.3982, "lon": -85.4181, "proficiency": 0.22, "schoolCount": 1}, {"name": "Perry Central Com Schools Corp", "lat": 38.111402, "lon": -86.603943, "proficiency": 0.37, "schoolCount": 1}, {"name": "Randolph Central School Corp", "lat": 40.180913, "lon": -84.974842, "proficiency": 0.27, "schoolCount": 1}, {"name": "Clark-Pleasant Community Sch Corp", "lat": 39.5544, "lon": -86.086, "proficiency": 0.39, "schoolCount": 1}, {"name": "Clarksville Community School Corp", "lat": 38.3012505, "lon": -85.7675415, "proficiency": 0.1225, "schoolCount": 2}, {"name": "Northwestern School Corp", "lat": 40.5251, "lon": -86.2049, "proficiency": 0.47, "schoolCount": 1}, {"name": "Clinton Central School Corporation", "lat": 40.2984, "lon": -86.3913, "proficiency": 0.17, "schoolCount": 1}, {"name": "Clinton Prairie School Corporation", "lat": 40.25069, "lon": -86.591784, "proficiency": 0.12, "schoolCount": 1}, {"name": "South Central Com School Corp", "lat": 41.464926, "lon": -86.81635, "proficiency": 0.12, "schoolCount": 1}, {"name": "Cloverdale Community Schools", "lat": 39.5127, "lon": -86.7866, "proficiency": 0.22, "schoolCount": 1}, {"name": "Whitley County Con Schools", "lat": 41.135, "lon": -85.4883, "proficiency": 0.27, "schoolCount": 1}, {"name": "Concord Community Schools", "lat": 41.6341465, "lon": -85.9359635, "proficiency": 0.07, "schoolCount": 2}, {"name": "Covington Community School Corp", "lat": 40.1439, "lon": -87.3959, "proficiency": 0.42, "schoolCount": 1}, {"name": "Crawford County Community Sch Corp", "lat": 38.372, "lon": -86.3413, "proficiency": 0.22, "schoolCount": 1}, {"name": "Crawfordsville Community Schools", "lat": 40.034872, "lon": -86.896337, "proficiency": 0.17, "schoolCount": 1}, {"name": "Crown Point Community School Corp", "lat": 41.40825, "lon": -87.36574999999999, "proficiency": 0.36, "schoolCount": 2}, {"name": "Culver Community Schools Corp", "lat": 41.2239, "lon": -86.4253, "proficiency": 0.12, "schoolCount": 1}, {"name": "Danville Community School Corp", "lat": 39.751874, "lon": -86.545499, "proficiency": 0.52, "schoolCount": 1}, {"name": "Decatur County Community Schools", "lat": 39.295275, "lon": -85.52731, "proficiency": 0.235, "schoolCount": 2}, {"name": "MSD Decatur Township", "lat": 39.689262, "lon": -86.270682, "proficiency": 0.02, "schoolCount": 2}, {"name": "Delaware Community School Corp", "lat": 40.280707, "lon": -85.348286, "proficiency": 0.27, "schoolCount": 1}, {"name": "Delphi Community School Corp", "lat": 40.5752, "lon": -86.6673, "proficiency": 0.27, "schoolCount": 1}, {"name": "Duneland School Corporation", "lat": 41.6088, "lon": -87.0606, "proficiency": 0.47, "schoolCount": 1}, {"name": "Zionsville Community Schools", "lat": 39.960350000000005, "lon": -86.30969999999999, "proficiency": 0.545, "schoolCount": 2}, {"name": "East Allen County Schools", "lat": 41.0828032, "lon": -84.9974308, "proficiency": 0.231, "schoolCount": 5}, {"name": "School City of East Chicago", "lat": 41.6346, "lon": -87.4395, "proficiency": 0.025, "schoolCount": 1}, {"name": "Lake Station Community Schools", "lat": 41.5771, "lon": -87.245, "proficiency": 0.025, "schoolCount": 1}, {"name": "East Gibson School Corporation", "lat": 38.331, "lon": -87.3511, "proficiency": 0.245, "schoolCount": 1}, {"name": "East Noble School Corporation", "lat": 41.436529, "lon": -85.272377, "proficiency": 0.17, "schoolCount": 1}, {"name": "East Washington School Corp", "lat": 38.5147, "lon": -86.0001, "proficiency": 0.17, "schoolCount": 1}, {"name": "Eastbrook Community Sch Corp", "lat": 40.5454, "lon": -85.5051, "proficiency": 0.32, "schoolCount": 1}, {"name": "DeKalb Co Eastern Com Sch Dist", "lat": 41.431599, "lon": -84.863175, "proficiency": 0.27, "schoolCount": 1}, {"name": "Eastern Greene Schools", "lat": 39.043596, "lon": -86.744521, "proficiency": 0.22, "schoolCount": 1}, {"name": "Eastern Hancock Co Com Sch Corp", "lat": 39.8242, "lon": -85.6099, "proficiency": 0.42, "schoolCount": 1}, {"name": "Eastern Howard School Corporation", "lat": 40.473309, "lon": -85.971711, "proficiency": 0.32, "schoolCount": 1}, {"name": "Randolph Eastern School Corp", "lat": 40.2051, "lon": -84.8153, "proficiency": 0.025, "schoolCount": 1}, {"name": "Shelby Eastern Schools", "lat": 39.563055500000004, "lon": -85.6814485, "proficiency": 0.245, "schoolCount": 2}, {"name": "Edinburgh Community School Corp", "lat": 39.3516, "lon": -85.9701, "proficiency": 0.15, "schoolCount": 1}, {"name": "Elkhart Community Schools", "lat": 41.6831885, "lon": -85.976601, "proficiency": 0.0788, "schoolCount": 4}, {"name": "Elwood Community School Corp", "lat": 40.289076, "lon": -85.835438, "proficiency": 0.075, "schoolCount": 1}, {"name": "Eminence Community School Corp", "lat": 39.52436, "lon": -86.642464, "proficiency": 0.1, "schoolCount": 1}, {"name": "Evansville Vanderburgh School Corp", "lat": 37.98958184615385, "lon": -87.55706207692307, "proficiency": 0.1981, "schoolCount": 13}, {"name": "Fairfield Community Schools", "lat": 41.521831, "lon": -85.73252600000001, "proficiency": 0.2575, "schoolCount": 2}, {"name": "Fayette County School Corporation", "lat": 39.6562, "lon": -85.1341, "proficiency": 0.22, "schoolCount": 1}, {"name": "Flat Rock-Hawcreek School Corp", "lat": 39.2927, "lon": -85.77, "proficiency": 0.22, "schoolCount": 1}, {"name": "Fort Wayne Community Schools", "lat": 41.08695, "lon": -85.11944166666667, "proficiency": 0.1467, "schoolCount": 12}, {"name": "Community Schools of Frankfort", "lat": 40.2847, "lon": -86.4823, "proficiency": 0.17, "schoolCount": 1}, {"name": "Franklin Community School Corp", "lat": 39.486555, "lon": -86.062969, "proficiency": 0.23, "schoolCount": 1}, {"name": "Franklin County Community Sch Corp", "lat": 39.428, "lon": -85.0005, "proficiency": 0.32, "schoolCount": 1}, {"name": "Lanesville Community School Corp", "lat": 38.239163, "lon": -85.989548, "proficiency": 0.57, "schoolCount": 1}, {"name": "Franklin Township Com Sch Corp", "lat": 39.67653, "lon": -85.980721, "proficiency": 0.32, "schoolCount": 1}, {"name": "Fremont Community Schools", "lat": 41.7285, "lon": -84.9442, "proficiency": 0.37, "schoolCount": 1}, {"name": "Frontier School Corporation", "lat": 40.6644, "lon": -86.8624, "proficiency": 0.345, "schoolCount": 1}, {"name": "Garrett-Keyser-Butler Com Sch Corp", "lat": 41.347283, "lon": -85.127034, "proficiency": 0.22, "schoolCount": 1}, {"name": "Gary Community School Corp", "lat": 41.572321, "lon": -87.2849075, "proficiency": 0.025, "schoolCount": 2}, {"name": "Goshen Community Schools", "lat": 41.5715, "lon": -85.8461, "proficiency": 0.23, "schoolCount": 1}, {"name": "Greater Clark County Schools", "lat": 38.3790816, "lon": -85.6802534, "proficiency": 0.171, "schoolCount": 5}, {"name": "Greater Jasper Consolidated Schs", "lat": 38.425175, "lon": -86.948255, "proficiency": 0.42, "schoolCount": 1}, {"name": "Greencastle Community School Corp", "lat": 39.64015, "lon": -86.842335, "proficiency": 0.27, "schoolCount": 1}, {"name": "Greenfield-Central Com Schools", "lat": 39.8056, "lon": -85.7876, "proficiency": 0.35, "schoolCount": 1}, {"name": "Greensburg Community Schools", "lat": 39.3392, "lon": -85.4772, "proficiency": 0.17, "schoolCount": 1}, {"name": "Greenwood Community Sch Corp", "lat": 39.595243, "lon": -86.122214, "proficiency": 0.36, "schoolCount": 1}, {"name": "Monroe-Gregg School District", "lat": 39.5757, "lon": -86.4788, "proficiency": 0.22, "schoolCount": 1}, {"name": "Hamilton Community Schools", "lat": 41.522164, "lon": -84.919978, "proficiency": 0.1, "schoolCount": 1}, {"name": "Hamilton Heights School Corp", "lat": 40.155317, "lon": -86.014813, "proficiency": 0.22, "schoolCount": 1}, {"name": "School City of Hammond", "lat": 41.5944, "lon": -87.47900000000001, "proficiency": 0.025, "schoolCount": 2}, {"name": "Hanover Community School Corp", "lat": 41.356487, "lon": -87.463382, "proficiency": 0.37, "schoolCount": 1}, {"name": "Western School Corporation", "lat": 40.437767666666666, "lon": -86.24138066666667, "proficiency": 0.12, "schoolCount": 3}, {"name": "Wes-Del Community Schools", "lat": 40.2807, "lon": -85.4995, "proficiency": 0.22, "schoolCount": 1}, {"name": "School Town of Highland", "lat": 41.5453, "lon": -87.4587, "proficiency": 0.22, "schoolCount": 1}, {"name": "School City of Hobart", "lat": 41.5261, "lon": -87.2587, "proficiency": 0.22, "schoolCount": 1}, {"name": "River Forest Community Sch Corp", "lat": 41.5575, "lon": -87.2795, "proficiency": 0.025, "schoolCount": 1}, {"name": "Huntington Co Com Sch Corp", "lat": 40.88005, "lon": -85.4953, "proficiency": 0.345, "schoolCount": 2}, {"name": "Indianapolis Public Schools", "lat": 39.798041363636365, "lon": -86.15104718181819, "proficiency": 0.1509, "schoolCount": 22}, {"name": "Jac-Cen-Del Community Sch Corp", "lat": 39.142, "lon": -85.2951, "proficiency": 0.27, "schoolCount": 1}, {"name": "Jay School Corporation", "lat": 40.4296, "lon": -85.0234, "proficiency": 0.32, "schoolCount": 1}, {"name": "Jennings County School Corporation", "lat": 38.993564, "lon": -85.642488, "proficiency": 0.24, "schoolCount": 1}, {"name": "Kankakee Valley School Corp", "lat": 41.189246, "lon": -87.144347, "proficiency": 0.47, "schoolCount": 1}, {"name": "Knox Community School Corp", "lat": 41.2885, "lon": -86.6238, "proficiency": 0.22, "schoolCount": 1}, {"name": "Kokomo School Corporation", "lat": 40.485008, "lon": -86.12857366666667, "proficiency": 0.1383, "schoolCount": 3}, {"name": "Lafayette School Corporation", "lat": 40.3967, "lon": -86.8742, "proficiency": 0.23, "schoolCount": 1}, {"name": "Lake Central School Corporation", "lat": 41.47267733333334, "lon": -87.472264, "proficiency": 0.27, "schoolCount": 3}, {"name": "Lake Ridge New Tech Schools", "lat": 41.5435, "lon": -87.3822, "proficiency": 0.075, "schoolCount": 1}, {"name": "Lakeland School Corporation", "lat": 41.6541, "lon": -85.41, "proficiency": 0.17, "schoolCount": 1}, {"name": "Wawasee Community School Corp", "lat": 41.3936585, "lon": -85.777208, "proficiency": 0.185, "schoolCount": 2}, {"name": "LaPorte Community School Corp", "lat": 41.589575, "lon": -86.716941, "proficiency": 0.25, "schoolCount": 1}, {"name": "MSD Lawrence Township", "lat": 39.86155, "lon": -86.01585, "proficiency": 0.085, "schoolCount": 2}, {"name": "Lawrenceburg Community School Corp", "lat": 39.0994, "lon": -84.8563, "proficiency": 0.32, "schoolCount": 1}, {"name": "Lebanon Community School Corp", "lat": 40.0629, "lon": -86.4574, "proficiency": 0.32, "schoolCount": 1}, {"name": "Liberty-Perry Community Sch Corp", "lat": 40.167222, "lon": -85.263061, "proficiency": 0.32, "schoolCount": 1}, {"name": "Linton-Stockton School Corporation", "lat": 39.0421, "lon": -87.1652, "proficiency": 0.27, "schoolCount": 1}, {"name": "Logansport Community Sch Corp", "lat": 40.754666666666665, "lon": -86.34349999999999, "proficiency": 0.03, "schoolCount": 3}, {"name": "Loogootee Community Sch Corp", "lat": 38.677986, "lon": -86.921344, "proficiency": 0.27, "schoolCount": 1}, {"name": "MSD Warren County", "lat": 40.2985, "lon": -87.3883, "proficiency": 0.12, "schoolCount": 1}, {"name": "Maconaquah School Corp", "lat": 40.6517, "lon": -86.0615, "proficiency": 0.12, "schoolCount": 1}, {"name": "Madison Consolidated Schools", "lat": 38.76663550000001, "lon": -85.4031545, "proficiency": 0.145, "schoolCount": 2}, {"name": "Madison-Grant United School Corp", "lat": 40.3842, "lon": -85.6735, "proficiency": 0.22, "schoolCount": 1}, {"name": "Manchester Community Schools", "lat": 41.0094, "lon": -85.7727, "proficiency": 0.32, "schoolCount": 1}, {"name": "Marion Community Schools", "lat": 40.527139, "lon": -85.664101, "proficiency": 0.075, "schoolCount": 1}, {"name": "Sheridan Community Schools", "lat": 40.1403, "lon": -86.214478, "proficiency": 0.27, "schoolCount": 1}, {"name": "MSD Martinsville Schools", "lat": 39.419891, "lon": -86.426915, "proficiency": 0.15, "schoolCount": 1}, {"name": "Michigan City Area Schools", "lat": 41.700900000000004, "lon": -86.8687, "proficiency": 0.17, "schoolCount": 2}, {"name": "Middlebury Community Schools", "lat": 41.672866, "lon": -85.726857, "proficiency": 0.4, "schoolCount": 1}, {"name": "Milan Community Schools", "lat": 39.1287, "lon": -85.1285, "proficiency": 0.17, "schoolCount": 1}, {"name": "Mill Creek Community Sch Corp", "lat": 39.6674, "lon": -86.559, "proficiency": 0.42, "schoolCount": 1}, {"name": "School City of Mishawaka", "lat": 41.66728, "lon": -86.190932, "proficiency": 0.1975, "schoolCount": 2}, {"name": "Mississinewa Community School Corp", "lat": 40.4889, "lon": -85.6227, "proficiency": 0.27, "schoolCount": 1}, {"name": "Mitchell Community Schools", "lat": 38.7363, "lon": -86.4796, "proficiency": 0.22, "schoolCount": 1}, {"name": "Cowan Community School Corp", "lat": 40.107651, "lon": -85.392567, "proficiency": 0.15, "schoolCount": 1}, {"name": "Monroe Central School Corp", "lat": 40.1919, "lon": -85.1676, "proficiency": 0.32, "schoolCount": 1}, {"name": "Eastern Pulaski Community Sch Corp", "lat": 41.0455, "lon": -86.5962, "proficiency": 0.32, "schoolCount": 1}, {"name": "Mooresville Con School Corp", "lat": 39.6188, "lon": -86.3788, "proficiency": 0.28, "schoolCount": 1}, {"name": "Yorktown Community Schools", "lat": 40.1771, "lon": -85.4922, "proficiency": 0.32, "schoolCount": 1}, {"name": "Mt Vernon Community School Corp", "lat": 39.9012, "lon": -85.8409, "proficiency": 0.26, "schoolCount": 1}, {"name": "MSD Mount Vernon", "lat": 37.9376, "lon": -87.8851, "proficiency": 0.47, "schoolCount": 1}, {"name": "Muncie Community Schools", "lat": 40.185959, "lon": -85.40391166666666, "proficiency": 0.13, "schoolCount": 3}, {"name": "School Town of Munster", "lat": 41.557, "lon": -87.5031, "proficiency": 0.5, "schoolCount": 1}, {"name": "Nettle Creek School Corporation", "lat": 39.920519, "lon": -85.16105, "proficiency": 0.37, "schoolCount": 1}, {"name": "New Albany-Floyd Co Con Sch", "lat": 38.3051, "lon": -85.85946666666666, "proficiency": 0.31, "schoolCount": 3}, {"name": "New Castle Community School Corp", "lat": 39.91275, "lon": -85.3777, "proficiency": 0.095, "schoolCount": 2}, {"name": "MSD of New Durham Township", "lat": 41.541903, "lon": -86.893832, "proficiency": 0.27, "schoolCount": 1}, {"name": "New Prairie United School Corp", "lat": 41.681012, "lon": -86.561722, "proficiency": 0.32, "schoolCount": 1}, {"name": "Nineveh-Hensley-Jackson United", "lat": 39.407, "lon": -86.1607, "proficiency": 0.22, "schoolCount": 1}, {"name": "Noblesville Schools", "lat": 40.067282500000005, "lon": -86.0176275, "proficiency": 0.4, "schoolCount": 2}, {"name": "North Adams Community Schools", "lat": 40.835554, "lon": -84.90725, "proficiency": 0.27, "schoolCount": 1}, {"name": "North Daviess Com Schools", "lat": 38.8474, "lon": -87.0619, "proficiency": 0.17, "schoolCount": 1}, {"name": "North Gibson School Corporation", "lat": 38.367133, "lon": -87.580901, "proficiency": 0.17, "schoolCount": 1}, {"name": "North Judson-San Pierre Sch Corp", "lat": 41.210613, "lon": -86.788253, "proficiency": 0.17, "schoolCount": 1}, {"name": "North Knox School Corp", "lat": 38.8352, "lon": -87.3138, "proficiency": 0.025, "schoolCount": 1}, {"name": "North Lawrence Com Schools", "lat": 38.87695, "lon": -86.50585, "proficiency": 0.27, "schoolCount": 2}, {"name": "North Miami Community Schools", "lat": 40.8964, "lon": -86.066, "proficiency": 0.075, "schoolCount": 1}, {"name": "North Montgomery Com Sch Corp", "lat": 40.1262, "lon": -86.9124, "proficiency": 0.47, "schoolCount": 1}, {"name": "North Newton School Corp", "lat": 41.0346, "lon": -87.4241, "proficiency": 0.17, "schoolCount": 1}, {"name": "MSD North Posey Co Schools", "lat": 38.1416, "lon": -87.8026, "proficiency": 0.42, "schoolCount": 1}, {"name": "North Putnam Community Schools", "lat": 39.79, "lon": -86.8007, "proficiency": 0.37, "schoolCount": 1}, {"name": "North Spencer County Sch Corp", "lat": 38.1205, "lon": -86.9864, "proficiency": 0.57, "schoolCount": 1}, {"name": "Tri-Central Community Schools", "lat": 40.3753, "lon": -86.0535, "proficiency": 0.15, "schoolCount": 1}, {"name": "North Vermillion Com Sch Corp", "lat": 39.9678, "lon": -87.4532, "proficiency": 0.05, "schoolCount": 1}, {"name": "North West Hendricks Schools", "lat": 39.8783, "lon": -86.537, "proficiency": 0.57, "schoolCount": 1}, {"name": "Northeast Dubois Co Sch Corp", "lat": 38.4508, "lon": -86.7962, "proficiency": 0.57, "schoolCount": 1}, {"name": "North White School Corp", "lat": 40.8673, "lon": -86.8762, "proficiency": 0.12, "schoolCount": 1}, {"name": "Northeast School Corp", "lat": 39.225044, "lon": -87.390376, "proficiency": 0.05, "schoolCount": 1}, {"name": "Northeastern Wayne Schools", "lat": 39.934453, "lon": -84.9122, "proficiency": 0.32, "schoolCount": 1}, {"name": "Northern Wells Community Schools", "lat": 40.828564, "lon": -85.202045, "proficiency": 0.52, "schoolCount": 1}, {"name": "Northwest Allen County Schools", "lat": 41.203500000000005, "lon": -85.16665, "proficiency": 0.34, "schoolCount": 2}, {"name": "Shenandoah School Corporation", "lat": 40.0071, "lon": -85.5259, "proficiency": 0.17, "schoolCount": 1}, {"name": "Northwestern Con School Corp", "lat": 39.6129, "lon": -85.8703, "proficiency": 0.32, "schoolCount": 1}, {"name": "NW Indiana Special Education Coop", "lat": 41.441258, "lon": -87.360508, "proficiency": 0.245, "schoolCount": 1}, {"name": "Oak Hill United School Corp", "lat": 40.5799, "lon": -85.8213, "proficiency": 0.47, "schoolCount": 1}, {"name": "Oregon-Davis School Corp", "lat": 41.3886, "lon": -86.552, "proficiency": 0.15, "schoolCount": 1}, {"name": "Orleans Community Schools", "lat": 38.6679, "lon": -86.4543, "proficiency": 0.12, "schoolCount": 1}, {"name": "Paoli Community School Corp", "lat": 38.5504, "lon": -86.477, "proficiency": 0.12, "schoolCount": 1}, {"name": "Penn-Harris-Madison School Corp", "lat": 41.67413333333334, "lon": -86.10346666666668, "proficiency": 0.38, "schoolCount": 3}, {"name": "Perry Township Schools", "lat": 39.6672, "lon": -86.14015, "proficiency": 0.265, "schoolCount": 2}, {"name": "Peru Community Schools", "lat": 40.76005, "lon": -86.07155, "proficiency": 0.12, "schoolCount": 2}, {"name": "Pike County School Corp", "lat": 38.4335, "lon": -87.2432, "proficiency": 0.22, "schoolCount": 1}, {"name": "MSD Pike Township", "lat": 39.86626666666667, "lon": -86.2373, "proficiency": 0.09, "schoolCount": 3}, {"name": "Pioneer Regional School Corp", "lat": 40.861, "lon": -86.494, "proficiency": 0.37, "schoolCount": 1}, {"name": "Plainfield Community School Corp", "lat": 39.695591, "lon": -86.393521, "proficiency": 0.265, "schoolCount": 2}, {"name": "East Porter County School Corp", "lat": 41.396899999999995, "lon": -87.01453333333332, "proficiency": 0.4617, "schoolCount": 3}, {"name": "Plymouth Community School Corp", "lat": 41.341258, "lon": -86.299092, "proficiency": 0.27, "schoolCount": 1}, {"name": "John Glenn School Corporation", "lat": 41.4682, "lon": -86.4876, "proficiency": 0.32, "schoolCount": 1}, {"name": "Porter County Education Services", "lat": 41.500855, "lon": -87.069557, "proficiency": -0.03, "schoolCount": 1}, {"name": "Portage Township Schools", "lat": 41.571799999999996, "lon": -87.19550000000001, "proficiency": 0.18, "schoolCount": 2}, {"name": "Porter Township School Corp", "lat": 41.3554, "lon": -87.1284, "proficiency": 0.17, "schoolCount": 1}, {"name": "Prairie Heights Community Sch Corp", "lat": 41.63639, "lon": -85.200513, "proficiency": 0.32, "schoolCount": 1}, {"name": "West Central School Corp", "lat": 41.028596, "lon": -86.890398, "proficiency": 0.345, "schoolCount": 1}, {"name": "Rensselaer Central School Corp", "lat": 40.9365, "lon": -87.1384, "proficiency": 0.27, "schoolCount": 1}, {"name": "Richland-Bean Blossom C S C", "lat": 39.2338, "lon": -86.6387, "proficiency": 0.37, "schoolCount": 1}, {"name": "Richmond Community Schools", "lat": 39.831183, "lon": -84.89578433333334, "proficiency": 0.13, "schoolCount": 3}, {"name": "Rising Sun-Ohio Co Com", "lat": 38.947307, "lon": -84.860876, "proficiency": 0.15, "schoolCount": 1}, {"name": "Rochester Community School Corp", "lat": 41.0559, "lon": -86.2238, "proficiency": 0.27, "schoolCount": 1}, {"name": "Merrillville Community School Corp", "lat": 41.4896, "lon": -87.3329, "proficiency": 0.15, "schoolCount": 1}, {"name": "Rossville Con School District", "lat": 40.414354, "lon": -86.597665, "proficiency": 0.12, "schoolCount": 1}, {"name": "Rush County Schools", "lat": 39.6269, "lon": -85.4518, "proficiency": 0.47, "schoolCount": 1}, {"name": "Salem Community Schools", "lat": 38.614, "lon": -86.1054, "proficiency": 0.075, "schoolCount": 1}, {"name": "Daleville Community Schools", "lat": 40.118211, "lon": -85.554781, "proficiency": 0.17, "schoolCount": 1}, {"name": "Scott County School District 1", "lat": 38.73886, "lon": -85.800183, "proficiency": 0.075, "schoolCount": 1}, {"name": "Scott County School District 2", "lat": 38.680269, "lon": -85.763562, "proficiency": 0.12, "schoolCount": 1}, {"name": "Seymour Community Schools", "lat": 38.9682, "lon": -85.8773, "proficiency": 0.18, "schoolCount": 1}, {"name": "MSD Shakamak Schools", "lat": 39.159361, "lon": -87.212846, "proficiency": 0.245, "schoolCount": 1}, {"name": "Shelbyville Central Schools", "lat": 39.506, "lon": -85.7932, "proficiency": 0.42, "schoolCount": 1}, {"name": "Shoals Community School Corp", "lat": 38.66774, "lon": -86.776515, "proficiency": 0.15, "schoolCount": 1}, {"name": "Smith-Green Community Schools", "lat": 41.2312, "lon": -85.3236, "proficiency": 0.17, "schoolCount": 1}, {"name": "South Adams Schools", "lat": 40.64665, "lon": -84.95998, "proficiency": 0.47, "schoolCount": 1}, {"name": "South Bend Community School Corp", "lat": 41.67939444444445, "lon": -86.2574301111111, "proficiency": 0.04, "schoolCount": 9}, {"name": "South Gibson School Corporation", "lat": 38.23513333333333, "lon": -87.61200000000001, "proficiency": 0.42, "schoolCount": 3}, {"name": "South Harrison Com Schools", "lat": 38.1409, "lon": -86.05995, "proficiency": 0.37, "schoolCount": 2}, {"name": "South Henry School Corp", "lat": 39.8327, "lon": -85.3509, "proficiency": 0.05, "schoolCount": 1}, {"name": "South Knox School Corp", "lat": 38.6351, "lon": -87.4218, "proficiency": 0.42, "schoolCount": 1}, {"name": "South Madison Com Sch Corp", "lat": 39.995128, "lon": -85.728175, "proficiency": 0.37, "schoolCount": 1}, {"name": "South Montgomery Com Sch Corp", "lat": 39.946971, "lon": -86.905517, "proficiency": 0.32, "schoolCount": 1}, {"name": "South Newton School Corp", "lat": 40.8077, "lon": -87.3847, "proficiency": 0.15, "schoolCount": 1}, {"name": "South Putnam Community Schools", "lat": 39.582946, "lon": -86.81611, "proficiency": 0.22, "schoolCount": 1}, {"name": "South Ripley Com Sch Corp", "lat": 39.051394, "lon": -85.248877, "proficiency": 0.47, "schoolCount": 1}, {"name": "South Spencer County Sch Corp", "lat": 37.9062, "lon": -87.1064, "proficiency": 0.32, "schoolCount": 1}, {"name": "South Vermillion Com Sch Corp", "lat": 39.689, "lon": -87.417, "proficiency": 0.27, "schoolCount": 1}, {"name": "Southeast Fountain School Corp", "lat": 40.106202, "lon": -87.226833, "proficiency": 0.17, "schoolCount": 1}, {"name": "Southeast Dubois Co Sch Corp", "lat": 38.2278, "lon": -86.8576, "proficiency": 0.52, "schoolCount": 1}, {"name": "Hamilton Southeastern Schools", "lat": 39.964782, "lon": -85.96431075, "proficiency": 0.4075, "schoolCount": 4}, {"name": "Lewis Cass Schools", "lat": 40.662872, "lon": -86.251457, "proficiency": 0.37, "schoolCount": 1}, {"name": "Southern Hancock Co Com Sch Corp", "lat": 39.7524, "lon": -85.9124, "proficiency": 0.52, "schoolCount": 1}, {"name": "Randolph Southern School Corp", "lat": 40.052, "lon": -84.9453, "proficiency": 0.245, "schoolCount": 1}, {"name": "Southern Wells Com Schools", "lat": 40.608315, "lon": -85.279949, "proficiency": 0.27, "schoolCount": 1}, {"name": "Southwestern-Jefferson Co Con", "lat": 38.710704, "lon": -85.472769, "proficiency": 0.12, "schoolCount": 1}, {"name": "Southwestern Con Sch Shelby Co", "lat": 39.4391, "lon": -85.8454, "proficiency": 0.245, "schoolCount": 1}, {"name": "Southwest School Corporation", "lat": 39.038298499999996, "lon": -87.4079275, "proficiency": 0.16, "schoolCount": 2}, {"name": "Southwest Dubois Co Sch Corp", "lat": 38.2746, "lon": -86.9639, "proficiency": 0.57, "schoolCount": 1}, {"name": "Southwest Parke Com Sch Corp", "lat": 39.6976, "lon": -87.3228, "proficiency": 0.17, "schoolCount": 1}, {"name": "School Town of Speedway", "lat": 39.7848, "lon": -86.2475, "proficiency": 0.57, "schoolCount": 1}, {"name": "Spencer-Owen Community Schools", "lat": 39.2888, "lon": -86.7826, "proficiency": 0.22, "schoolCount": 1}, {"name": "Springs Valley Com School Corp", "lat": 38.5511, "lon": -86.6169, "proficiency": 0.12, "schoolCount": 1}, {"name": "MSD Steuben County", "lat": 41.6329, "lon": -84.9784, "proficiency": 0.42, "schoolCount": 1}, {"name": "Sunman-Dearborn Com Sch Corp", "lat": 39.278188, "lon": -84.973767, "proficiency": 0.42, "schoolCount": 1}, {"name": "Switzerland County School Corp", "lat": 38.7419, "lon": -85.0781, "proficiency": 0.12, "schoolCount": 1}, {"name": "Taylor Community School Corp", "lat": 40.434951, "lon": -86.056483, "proficiency": 0.12, "schoolCount": 1}, {"name": "Tell City-Troy Twp School Corp", "lat": 37.9545, "lon": -86.7636, "proficiency": 0.27, "schoolCount": 1}, {"name": "Tippecanoe School Corp", "lat": 40.39995, "lon": -86.87033333333333, "proficiency": 0.345, "schoolCount": 6}, {"name": "Tippecanoe Valley School Corp", "lat": 41.1134, "lon": -86.0432, "proficiency": 0.37, "schoolCount": 1}, {"name": "Tipton Community School Corp", "lat": 40.2719, "lon": -86.0399, "proficiency": 0.22, "schoolCount": 1}, {"name": "Tri-County School Corporation", "lat": 40.7349, "lon": -87.0848, "proficiency": 0.22, "schoolCount": 1}, {"name": "Tri-Creek School Corporation", "lat": 41.270305, "lon": -87.431822, "proficiency": 0.27, "schoolCount": 1}, {"name": "Triton School Corporation", "lat": 41.3014, "lon": -86.1085, "proficiency": 0.37, "schoolCount": 1}, {"name": "Twin Lakes School Corp", "lat": 40.7438, "lon": -86.7721, "proficiency": 0.32, "schoolCount": 1}, {"name": "Union Co/Clg Corner Joint Sch Dist", "lat": 39.635854, "lon": -84.916879, "proficiency": 0.17, "schoolCount": 1}, {"name": "Union Township School Corp", "lat": 41.4789, "lon": -87.1804, "proficiency": 0.42, "schoolCount": 1}, {"name": "Union School Corporation", "lat": 40.047064, "lon": -85.14127, "proficiency": 0.09, "schoolCount": 2}, {"name": "Union-North United School Corp", "lat": 41.4789, "lon": -86.304, "proficiency": 0.22, "schoolCount": 1}, {"name": "Valparaiso Community Schools", "lat": 41.4777, "lon": -87.0561, "proficiency": 0.445, "schoolCount": 2}, {"name": "Crothersville Community Schools", "lat": 38.797863, "lon": -85.836483, "proficiency": 0.1, "schoolCount": 1}, {"name": "Vigo County School Corp", "lat": 39.4512575, "lon": -87.40900733333332, "proficiency": 0.1758, "schoolCount": 6}, {"name": "Vincennes Community School Corp", "lat": 38.6661375, "lon": -87.502561, "proficiency": 0.135, "schoolCount": 2}, {"name": "Wabash City Schools", "lat": 40.8077, "lon": -85.8264, "proficiency": 0.22, "schoolCount": 1}, {"name": "MSD Wabash County Schools", "lat": 40.78070733333333, "lon": -85.78558866666667, "proficiency": 0.23, "schoolCount": 3}, {"name": "Wa-Nee Community Schools", "lat": 41.54, "lon": -86.0218, "proficiency": 0.57, "schoolCount": 1}, {"name": "MSD Warren Township", "lat": 39.766600000000004, "lon": -85.9851, "proficiency": 0.0583, "schoolCount": 3}, {"name": "Warrick County School Corp", "lat": 38.05220025, "lon": -87.3455095, "proficiency": 0.395, "schoolCount": 4}, {"name": "Warsaw Community Schools", "lat": 41.23055, "lon": -85.85385, "proficiency": 0.345, "schoolCount": 2}, {"name": "Washington Community Schools", "lat": 38.6591, "lon": -87.1686, "proficiency": 0.27, "schoolCount": 1}, {"name": "MSD Washington Township", "lat": 39.887201, "lon": -86.13528466666666, "proficiency": 0.1717, "schoolCount": 3}, {"name": "MSD Wayne Township", "lat": 39.752449999999996, "lon": -86.2676, "proficiency": 0.115, "schoolCount": 2}, {"name": "West Lafayette Com School Corp", "lat": 40.4361, "lon": -86.9117, "proficiency": 0.57, "schoolCount": 1}, {"name": "Frankton-Lapel Community Schools", "lat": 40.141149999999996, "lon": -85.8091, "proficiency": 0.345, "schoolCount": 2}, {"name": "West Noble School Corporation", "lat": 41.4288, "lon": -85.5836, "proficiency": 0.42, "schoolCount": 1}, {"name": "West Washington School Corp", "lat": 38.5839, "lon": -86.2344, "proficiency": 0.27, "schoolCount": 1}, {"name": "Western Boone Co Com Sch Dist", "lat": 40.0564, "lon": -86.613, "proficiency": 0.22, "schoolCount": 1}, {"name": "Western Wayne Schools", "lat": 39.8158, "lon": -85.1674, "proficiency": 0.12, "schoolCount": 1}, {"name": "Westfield-Washington Schools", "lat": 40.048, "lon": -86.1316, "proficiency": 0.46, "schoolCount": 1}, {"name": "Westview School Corporation", "lat": 41.617, "lon": -85.5396, "proficiency": 0.57, "schoolCount": 1}, {"name": "School City of Whiting", "lat": 41.681, "lon": -87.4935, "proficiency": 0.075, "schoolCount": 1}, {"name": "Whitko Community School Corp", "lat": 41.0828, "lon": -85.6355, "proficiency": 0.12, "schoolCount": 1}], "cities": [{"name": "Pendleton", "lat": 39.982113999999996, "lon": -85.7520375, "proficiency": 0.17, "schoolCount": 2}, {"name": "LaPorte", "lat": 41.640186666666665, "lon": -86.76416833333333, "proficiency": 0.2383, "schoolCount": 3}, {"name": "Logansport", "lat": 40.751431749999995, "lon": -86.35777625, "proficiency": 0.015, "schoolCount": 4}, {"name": "Lyons", "lat": 38.978051, "lon": -87.100439, "proficiency": 0.32, "schoolCount": 1}, {"name": "New Albany", "lat": 38.314600000000006, "lon": -85.81953333333333, "proficiency": 0.18, "schoolCount": 3}, {"name": "Indianapolis", "lat": 39.79617762857143, "lon": -86.13897664285714, "proficiency": 0.132, "schoolCount": 70}, {"name": "Carmel", "lat": 39.9845708, "lon": -86.1332888, "proficiency": 0.385, "schoolCount": 5}, {"name": "Noblesville", "lat": 40.04998125, "lon": -86.01409175, "proficiency": 0.3225, "schoolCount": 4}, {"name": "Gary", "lat": 41.58117411111111, "lon": -87.34250366666667, "proficiency": 0.0417, "schoolCount": 9}, {"name": "Fort Wayne", "lat": 41.092929444444444, "lon": -85.14528961111111, "proficiency": 0.1925, "schoolCount": 18}, {"name": "Muncie", "lat": 40.188184285714286, "lon": -85.38848614285713, "proficiency": 0.1893, "schoolCount": 7}, {"name": "Sullivan", "lat": 39.116362499999994, "lon": -87.4848075, "proficiency": 0.095, "schoolCount": 2}, {"name": "East Chicago", "lat": 41.63540966666667, "lon": -87.44562966666666, "proficiency": 0.0417, "schoolCount": 3}, {"name": "Monroe", "lat": 40.746147, "lon": -84.942832, "proficiency": 0.42, "schoolCount": 1}, {"name": "McCordsville", "lat": 39.913763, "lon": -85.920828, "proficiency": 0.245, "schoolCount": 1}, {"name": "Anderson", "lat": 40.106505, "lon": -85.67546833333334, "proficiency": 0.0717, "schoolCount": 3}, {"name": "Hammond", "lat": 41.60229833333333, "lon": -87.49385066666667, "proficiency": 0.0567, "schoolCount": 3}, {"name": "Bloomington", "lat": 39.147034250000004, "lon": -86.53294875, "proficiency": 0.4263, "schoolCount": 4}, {"name": "Porter", "lat": 41.638615, "lon": -87.052374, "proficiency": 0.1, "schoolCount": 1}, {"name": "Sellersburg", "lat": 38.405501, "lon": -85.74750399999999, "proficiency": 0.2325, "schoolCount": 2}, {"name": "Wanatah", "lat": 41.4267, "lon": -86.8938, "proficiency": 0.1, "schoolCount": 1}, {"name": "Marshall", "lat": 39.876652, "lon": -87.211875, "proficiency": 0.17, "schoolCount": 1}, {"name": "Alexandria", "lat": 40.260855, "lon": -85.680083, "proficiency": 0.095, "schoolCount": 2}, {"name": "South Bend", "lat": 41.684229, "lon": -86.26486220000001, "proficiency": 0.0385, "schoolCount": 10}, {"name": "Dugger", "lat": 39.074371, "lon": -87.270515, "proficiency": 0.05, "schoolCount": 1}, {"name": "Mays", "lat": 39.742015, "lon": -85.429294, "proficiency": 0.245, "schoolCount": 1}, {"name": "Ellettsville", "lat": 39.2318025, "lon": -86.63, "proficiency": 0.335, "schoolCount": 2}, {"name": "Merrillville", "lat": 41.500749, "lon": -87.339005, "proficiency": 0.125, "schoolCount": 2}, {"name": "Argos", "lat": 41.241437, "lon": -86.250678, "proficiency": 0.345, "schoolCount": 1}, {"name": "Attica", "lat": 40.276745, "lon": -87.251774, "proficiency": 0.245, "schoolCount": 1}, {"name": "Henryville", "lat": 38.543462, "lon": -85.769731, "proficiency": 0.27, "schoolCount": 1}, {"name": "Borden", "lat": 38.469367, "lon": -85.947039, "proficiency": 0.445, "schoolCount": 1}, {"name": "Aurora", "lat": 39.0629, "lon": -84.9309, "proficiency": 0.22, "schoolCount": 1}, {"name": "Avon", "lat": 39.771075499999995, "lon": -86.38752099999999, "proficiency": 0.49, "schoolCount": 2}, {"name": "Montgomery", "lat": 38.6686, "lon": -87.0489, "proficiency": 0.72, "schoolCount": 1}, {"name": "Columbus", "lat": 39.2166045, "lon": -85.9123105, "proficiency": 0.295, "schoolCount": 2}, {"name": "Batesville", "lat": 39.3025, "lon": -85.2271, "proficiency": 0.47, "schoolCount": 1}, {"name": "Elkhart", "lat": 41.662921, "lon": -85.97186157142858, "proficiency": 0.1179, "schoolCount": 7}, {"name": "Beech Grove", "lat": 39.7262, "lon": -86.096, "proficiency": 0.12, "schoolCount": 1}, {"name": "Oxford", "lat": 40.5645, "lon": -87.2425, "proficiency": 0.27, "schoolCount": 1}, {"name": "Hartford City", "lat": 40.485, "lon": -85.3716, "proficiency": 0.22, "schoolCount": 1}, {"name": "Bloomfield", "lat": 39.034541000000004, "lon": -86.8452335, "proficiency": 0.27, "schoolCount": 2}, {"name": "New Castle", "lat": 39.94244666666666, "lon": -85.36142366666667, "proficiency": 0.08, "schoolCount": 3}, {"name": "Ramsey", "lat": 38.323093, "lon": -86.146429, "proficiency": 0.17, "schoolCount": 1}, {"name": "Bluffton", "lat": 40.7221, "lon": -85.1564, "proficiency": 0.42, "schoolCount": 1}, {"name": "Hebron", "lat": 41.3162, "lon": -87.1985, "proficiency": 0.27, "schoolCount": 1}, {"name": "Clay City", "lat": 39.2794, "lon": -87.1097, "proficiency": 0.17, "schoolCount": 1}, {"name": "Brazil", "lat": 39.515888, "lon": -87.170104, "proficiency": 0.37, "schoolCount": 1}, {"name": "Bremen", "lat": 41.4447, "lon": -86.1539, "proficiency": 0.42, "schoolCount": 1}, {"name": "Nashville", "lat": 39.205472, "lon": -86.24343, "proficiency": 0.42, "schoolCount": 1}, {"name": "Brownsburg", "lat": 39.8216825, "lon": -86.380189, "proficiency": 0.68, "schoolCount": 2}, {"name": "Brownstown", "lat": 38.8809, "lon": -86.0481, "proficiency": 0.27, "schoolCount": 1}, {"name": "Knightstown", "lat": 39.805, "lon": -85.5205, "proficiency": 0.17, "schoolCount": 1}, {"name": "Cannelton", "lat": 37.910295, "lon": -86.743796, "proficiency": 0.1, "schoolCount": 1}, {"name": "Medora", "lat": 38.82468, "lon": -86.172398, "proficiency": 0.245, "schoolCount": 1}, {"name": "Flora", "lat": 40.545927, "lon": -86.480621, "proficiency": 0.27, "schoolCount": 1}, {"name": "Rochester", "lat": 40.9838395, "lon": -86.2533005, "proficiency": 0.2575, "schoolCount": 2}, {"name": "Greenwood", "lat": 39.585710750000004, "lon": -86.1506785, "proficiency": 0.435, "schoolCount": 4}, {"name": "Centerville", "lat": 39.811831, "lon": -85.000937, "proficiency": 0.27, "schoolCount": 1}, {"name": "Waterloo", "lat": 41.4093, "lon": -85.0387, "proficiency": 0.37, "schoolCount": 1}, {"name": "Albion", "lat": 41.3982, "lon": -85.4181, "proficiency": 0.22, "schoolCount": 1}, {"name": "Leopold", "lat": 38.111402, "lon": -86.603943, "proficiency": 0.37, "schoolCount": 1}, {"name": "Winchester", "lat": 40.180913, "lon": -84.974842, "proficiency": 0.27, "schoolCount": 1}, {"name": "Clarksville", "lat": 38.3012505, "lon": -85.7675415, "proficiency": 0.1225, "schoolCount": 2}, {"name": "Kokomo", "lat": 40.483015, "lon": -86.1294208, "proficiency": 0.201, "schoolCount": 5}, {"name": "Michigantown", "lat": 40.2984, "lon": -86.3913, "proficiency": 0.17, "schoolCount": 1}, {"name": "Frankfort", "lat": 40.267695, "lon": -86.537042, "proficiency": 0.145, "schoolCount": 2}, {"name": "Union Mills", "lat": 41.464926, "lon": -86.81635, "proficiency": 0.12, "schoolCount": 1}, {"name": "Cloverdale", "lat": 39.5127, "lon": -86.7866, "proficiency": 0.22, "schoolCount": 1}, {"name": "Columbia City", "lat": 41.135, "lon": -85.4883, "proficiency": 0.27, "schoolCount": 1}, {"name": "Covington", "lat": 40.1439, "lon": -87.3959, "proficiency": 0.42, "schoolCount": 1}, {"name": "Marengo", "lat": 38.372, "lon": -86.3413, "proficiency": 0.22, "schoolCount": 1}, {"name": "Crawfordsville", "lat": 40.036014333333334, "lon": -86.90475133333332, "proficiency": 0.32, "schoolCount": 3}, {"name": "Crown Point", "lat": 41.419252666666665, "lon": -87.36400266666665, "proficiency": 0.3217, "schoolCount": 3}, {"name": "Culver", "lat": 41.2239, "lon": -86.4253, "proficiency": 0.12, "schoolCount": 1}, {"name": "Danville", "lat": 39.751874, "lon": -86.545499, "proficiency": 0.52, "schoolCount": 1}, {"name": "Greensburg", "lat": 39.30991666666666, "lon": -85.51060666666666, "proficiency": 0.2133, "schoolCount": 3}, {"name": "Delphi", "lat": 40.5752, "lon": -86.6673, "proficiency": 0.27, "schoolCount": 1}, {"name": "Chesterton", "lat": 41.6088, "lon": -87.0606, "proficiency": 0.47, "schoolCount": 1}, {"name": "Zionsville", "lat": 39.9611, "lon": -86.2845, "proficiency": 0.62, "schoolCount": 1}, {"name": "Whitestown", "lat": 39.9596, "lon": -86.3349, "proficiency": 0.47, "schoolCount": 1}, {"name": "Monroeville", "lat": 40.976692, "lon": -84.962024, "proficiency": 0.075, "schoolCount": 1}, {"name": "Leo", "lat": 41.219929, "lon": -85.017996, "proficiency": 0.47, "schoolCount": 1}, {"name": "New Haven", "lat": 41.065225, "lon": -85.012198, "proficiency": 0.22, "schoolCount": 1}, {"name": "Woodburn", "lat": 41.125422, "lon": -84.919279, "proficiency": 0.27, "schoolCount": 1}, {"name": "Ft Wayne", "lat": 41.026748, "lon": -85.075657, "proficiency": 0.12, "schoolCount": 1}, {"name": "Lake Station", "lat": 41.5771, "lon": -87.245, "proficiency": 0.025, "schoolCount": 1}, {"name": "Oakland City", "lat": 38.331, "lon": -87.3511, "proficiency": 0.245, "schoolCount": 1}, {"name": "Kendallville", "lat": 41.436529, "lon": -85.272377, "proficiency": 0.17, "schoolCount": 1}, {"name": "Pekin", "lat": 38.5147, "lon": -86.0001, "proficiency": 0.17, "schoolCount": 1}, {"name": "Marion", "lat": 40.5362695, "lon": -85.5846005, "proficiency": 0.1975, "schoolCount": 2}, {"name": "Butler", "lat": 41.431599, "lon": -84.863175, "proficiency": 0.27, "schoolCount": 1}, {"name": "Charlottesville", "lat": 39.8242, "lon": -85.6099, "proficiency": 0.42, "schoolCount": 1}, {"name": "Greentown", "lat": 40.473309, "lon": -85.971711, "proficiency": 0.32, "schoolCount": 1}, {"name": "Union City", "lat": 40.2051, "lon": -84.8153, "proficiency": 0.025, "schoolCount": 1}, {"name": "Morristown", "lat": 39.672828, "lon": -85.701597, "proficiency": 0.245, "schoolCount": 1}, {"name": "Waldron", "lat": 39.453283, "lon": -85.6613, "proficiency": 0.245, "schoolCount": 1}, {"name": "Edinburgh", "lat": 39.3516, "lon": -85.9701, "proficiency": 0.15, "schoolCount": 1}, {"name": "Elwood", "lat": 40.289076, "lon": -85.835438, "proficiency": 0.075, "schoolCount": 1}, {"name": "Eminence", "lat": 39.52436, "lon": -86.642464, "proficiency": 0.1, "schoolCount": 1}, {"name": "Evansville", "lat": 37.98958184615385, "lon": -87.55706207692307, "proficiency": 0.1981, "schoolCount": 13}, {"name": "Goshen", "lat": 41.544664499999996, "lon": -85.8069395, "proficiency": 0.25, "schoolCount": 2}, {"name": "Millersburg", "lat": 41.525833, "lon": -85.697273, "proficiency": 0.245, "schoolCount": 1}, {"name": "Connersville", "lat": 39.6562, "lon": -85.1341, "proficiency": 0.22, "schoolCount": 1}, {"name": "Hope", "lat": 39.2927, "lon": -85.77, "proficiency": 0.22, "schoolCount": 1}, {"name": "Franklin", "lat": 39.486555, "lon": -86.062969, "proficiency": 0.23, "schoolCount": 1}, {"name": "Brookville", "lat": 39.428, "lon": -85.0005, "proficiency": 0.32, "schoolCount": 1}, {"name": "Lanesville", "lat": 38.239163, "lon": -85.989548, "proficiency": 0.57, "schoolCount": 1}, {"name": "Fremont", "lat": 41.7285, "lon": -84.9442, "proficiency": 0.37, "schoolCount": 1}, {"name": "Chalmers", "lat": 40.6644, "lon": -86.8624, "proficiency": 0.345, "schoolCount": 1}, {"name": "Garrett", "lat": 41.347283, "lon": -85.127034, "proficiency": 0.22, "schoolCount": 1}, {"name": "New Washington", "lat": 38.5657, "lon": -85.5413, "proficiency": 0.05, "schoolCount": 1}, {"name": "Jeffersonville", "lat": 38.298102666666665, "lon": -85.730389, "proficiency": 0.195, "schoolCount": 3}, {"name": "Charlestown", "lat": 38.4354, "lon": -85.6688, "proficiency": 0.22, "schoolCount": 1}, {"name": "Jasper", "lat": 38.425175, "lon": -86.948255, "proficiency": 0.42, "schoolCount": 1}, {"name": "Greencastle", "lat": 39.611548, "lon": -86.8292225, "proficiency": 0.245, "schoolCount": 2}, {"name": "Greenfield", "lat": 39.8056, "lon": -85.7876, "proficiency": 0.35, "schoolCount": 1}, {"name": "Monrovia", "lat": 39.5757, "lon": -86.4788, "proficiency": 0.22, "schoolCount": 1}, {"name": "Hamilton", "lat": 41.522164, "lon": -84.919978, "proficiency": 0.1, "schoolCount": 1}, {"name": "Arcadia", "lat": 40.155317, "lon": -86.014813, "proficiency": 0.22, "schoolCount": 1}, {"name": "Cedar Lake", "lat": 41.356487, "lon": -87.463382, "proficiency": 0.37, "schoolCount": 1}, {"name": "Russiaville", "lat": 40.437767666666666, "lon": -86.24138066666667, "proficiency": 0.12, "schoolCount": 3}, {"name": "Gaston", "lat": 40.2807, "lon": -85.4995, "proficiency": 0.22, "schoolCount": 1}, {"name": "Highland", "lat": 41.5453, "lon": -87.4587, "proficiency": 0.22, "schoolCount": 1}, {"name": "Hobart", "lat": 41.541799999999995, "lon": -87.26910000000001, "proficiency": 0.1225, "schoolCount": 2}, {"name": "Huntington", "lat": 40.88005, "lon": -85.4953, "proficiency": 0.345, "schoolCount": 2}, {"name": "Osgood", "lat": 39.142, "lon": -85.2951, "proficiency": 0.27, "schoolCount": 1}, {"name": "Portland", "lat": 40.4296, "lon": -85.0234, "proficiency": 0.32, "schoolCount": 1}, {"name": "North Vernon", "lat": 38.993564, "lon": -85.642488, "proficiency": 0.24, "schoolCount": 1}, {"name": "Wheatfield", "lat": 41.189246, "lon": -87.144347, "proficiency": 0.47, "schoolCount": 1}, {"name": "Knox", "lat": 41.2885, "lon": -86.6238, "proficiency": 0.22, "schoolCount": 1}, {"name": "Lafayette", "lat": 40.365359999999995, "lon": -86.84344000000002, "proficiency": 0.322, "schoolCount": 5}, {"name": "Dyer", "lat": 41.4919, "lon": -87.515, "proficiency": 0.22, "schoolCount": 1}, {"name": "Schererville", "lat": 41.4774, "lon": -87.4586, "proficiency": 0.22, "schoolCount": 1}, {"name": "Saint John", "lat": 41.448732, "lon": -87.443192, "proficiency": 0.37, "schoolCount": 1}, {"name": "LaGrange", "lat": 41.645245, "lon": -85.3052565, "proficiency": 0.245, "schoolCount": 2}, {"name": "Milford", "lat": 41.40961, "lon": -85.853956, "proficiency": 0.15, "schoolCount": 1}, {"name": "Syracuse", "lat": 41.377707, "lon": -85.70046, "proficiency": 0.22, "schoolCount": 1}, {"name": "Lawrenceburg", "lat": 39.0994, "lon": -84.8563, "proficiency": 0.32, "schoolCount": 1}, {"name": "Lebanon", "lat": 40.0629, "lon": -86.4574, "proficiency": 0.32, "schoolCount": 1}, {"name": "Selma", "lat": 40.167222, "lon": -85.263061, "proficiency": 0.32, "schoolCount": 1}, {"name": "Linton", "lat": 39.0421, "lon": -87.1652, "proficiency": 0.27, "schoolCount": 1}, {"name": "Loogootee", "lat": 38.677986, "lon": -86.921344, "proficiency": 0.27, "schoolCount": 1}, {"name": "West Lebanon", "lat": 40.2985, "lon": -87.3883, "proficiency": 0.12, "schoolCount": 1}, {"name": "Bunker Hill", "lat": 40.6517, "lon": -86.0615, "proficiency": 0.12, "schoolCount": 1}, {"name": "Madison", "lat": 38.76663550000001, "lon": -85.4031545, "proficiency": 0.145, "schoolCount": 2}, {"name": "Fairmount", "lat": 40.3842, "lon": -85.6735, "proficiency": 0.22, "schoolCount": 1}, {"name": "N Manchester", "lat": 41.0094, "lon": -85.7727, "proficiency": 0.32, "schoolCount": 1}, {"name": "Sheridan", "lat": 40.1403, "lon": -86.214478, "proficiency": 0.27, "schoolCount": 1}, {"name": "Martinsville", "lat": 39.419891, "lon": -86.426915, "proficiency": 0.15, "schoolCount": 1}, {"name": "Michigan City", "lat": 41.700900000000004, "lon": -86.8687, "proficiency": 0.17, "schoolCount": 2}, {"name": "Middlebury", "lat": 41.672866, "lon": -85.726857, "proficiency": 0.4, "schoolCount": 1}, {"name": "Milan", "lat": 39.1287, "lon": -85.1285, "proficiency": 0.17, "schoolCount": 1}, {"name": "Clayton", "lat": 39.6674, "lon": -86.559, "proficiency": 0.42, "schoolCount": 1}, {"name": "Mishawaka", "lat": 41.65589, "lon": -86.157216, "proficiency": 0.2288, "schoolCount": 4}, {"name": "Gas City", "lat": 40.4889, "lon": -85.6227, "proficiency": 0.27, "schoolCount": 1}, {"name": "Mitchell", "lat": 38.7363, "lon": -86.4796, "proficiency": 0.22, "schoolCount": 1}, {"name": "Parker City", "lat": 40.1919, "lon": -85.1676, "proficiency": 0.32, "schoolCount": 1}, {"name": "Winamac", "lat": 41.0455, "lon": -86.5962, "proficiency": 0.32, "schoolCount": 1}, {"name": "Mooresville", "lat": 39.6188, "lon": -86.3788, "proficiency": 0.28, "schoolCount": 1}, {"name": "Yorktown", "lat": 40.1771, "lon": -85.4922, "proficiency": 0.32, "schoolCount": 1}, {"name": "Fortville", "lat": 39.9012, "lon": -85.8409, "proficiency": 0.26, "schoolCount": 1}, {"name": "Mount Vernon", "lat": 37.9376, "lon": -87.8851, "proficiency": 0.47, "schoolCount": 1}, {"name": "Munster", "lat": 41.557, "lon": -87.5031, "proficiency": 0.5, "schoolCount": 1}, {"name": "Hagerstown", "lat": 39.920519, "lon": -85.16105, "proficiency": 0.37, "schoolCount": 1}, {"name": "Georgetown", "lat": 38.3246, "lon": -85.9296, "proficiency": 0.49, "schoolCount": 1}, {"name": "Westville", "lat": 41.541903, "lon": -86.893832, "proficiency": 0.27, "schoolCount": 1}, {"name": "New Carlisle", "lat": 41.681012, "lon": -86.561722, "proficiency": 0.32, "schoolCount": 1}, {"name": "Trafalgar", "lat": 39.407, "lon": -86.1607, "proficiency": 0.22, "schoolCount": 1}, {"name": "Decatur", "lat": 40.835554, "lon": -84.90725, "proficiency": 0.27, "schoolCount": 1}, {"name": "Elnora", "lat": 38.8474, "lon": -87.0619, "proficiency": 0.17, "schoolCount": 1}, {"name": "Princeton", "lat": 38.367133, "lon": -87.580901, "proficiency": 0.17, "schoolCount": 1}, {"name": "North Judson", "lat": 41.210613, "lon": -86.788253, "proficiency": 0.17, "schoolCount": 1}, {"name": "Bicknell", "lat": 38.8352, "lon": -87.3138, "proficiency": 0.025, "schoolCount": 1}, {"name": "Bedford", "lat": 38.8616, "lon": -86.4904, "proficiency": 0.27, "schoolCount": 1}, {"name": "Oolitic", "lat": 38.8923, "lon": -86.5213, "proficiency": 0.27, "schoolCount": 1}, {"name": "Denver", "lat": 40.8964, "lon": -86.066, "proficiency": 0.075, "schoolCount": 1}, {"name": "Morocco", "lat": 41.0346, "lon": -87.4241, "proficiency": 0.17, "schoolCount": 1}, {"name": "Poseyville", "lat": 38.1416, "lon": -87.8026, "proficiency": 0.42, "schoolCount": 1}, {"name": "Roachdale", "lat": 39.79, "lon": -86.8007, "proficiency": 0.37, "schoolCount": 1}, {"name": "Lincoln City", "lat": 38.1205, "lon": -86.9864, "proficiency": 0.57, "schoolCount": 1}, {"name": "Sharpsville", "lat": 40.3753, "lon": -86.0535, "proficiency": 0.15, "schoolCount": 1}, {"name": "Cayuga", "lat": 39.9678, "lon": -87.4532, "proficiency": 0.05, "schoolCount": 1}, {"name": "Lizton", "lat": 39.8783, "lon": -86.537, "proficiency": 0.57, "schoolCount": 1}, {"name": "Dubois", "lat": 38.4508, "lon": -86.7962, "proficiency": 0.57, "schoolCount": 1}, {"name": "Monon", "lat": 40.8673, "lon": -86.8762, "proficiency": 0.12, "schoolCount": 1}, {"name": "Farmersburg", "lat": 39.225044, "lon": -87.390376, "proficiency": 0.05, "schoolCount": 1}, {"name": "Fountain City", "lat": 39.934453, "lon": -84.9122, "proficiency": 0.32, "schoolCount": 1}, {"name": "Ossian", "lat": 40.828564, "lon": -85.202045, "proficiency": 0.52, "schoolCount": 1}, {"name": "Middletown", "lat": 40.0071, "lon": -85.5259, "proficiency": 0.17, "schoolCount": 1}, {"name": "Fairland", "lat": 39.6129, "lon": -85.8703, "proficiency": 0.32, "schoolCount": 1}, {"name": "Converse", "lat": 40.5799, "lon": -85.8213, "proficiency": 0.47, "schoolCount": 1}, {"name": "Hamlet", "lat": 41.3886, "lon": -86.552, "proficiency": 0.15, "schoolCount": 1}, {"name": "Orleans", "lat": 38.6679, "lon": -86.4543, "proficiency": 0.12, "schoolCount": 1}, {"name": "Paoli", "lat": 38.5504, "lon": -86.477, "proficiency": 0.12, "schoolCount": 1}, {"name": "Granger", "lat": 41.7334, "lon": -86.0634, "proficiency": 0.62, "schoolCount": 1}, {"name": "Peru", "lat": 40.76005, "lon": -86.07155, "proficiency": 0.12, "schoolCount": 2}, {"name": "Petersburg", "lat": 38.4335, "lon": -87.2432, "proficiency": 0.22, "schoolCount": 1}, {"name": "Royal Center", "lat": 40.861, "lon": -86.494, "proficiency": 0.37, "schoolCount": 1}, {"name": "Plainfield", "lat": 39.695591, "lon": -86.393521, "proficiency": 0.265, "schoolCount": 2}, {"name": "Valparaiso", "lat": 41.46860916666667, "lon": -87.06379283333332, "proficiency": 0.3825, "schoolCount": 6}, {"name": "Kouts", "lat": 41.3142, "lon": -87.023, "proficiency": 0.37, "schoolCount": 1}, {"name": "Plymouth", "lat": 41.341258, "lon": -86.299092, "proficiency": 0.27, "schoolCount": 1}, {"name": "Walkerton", "lat": 41.4682, "lon": -86.4876, "proficiency": 0.32, "schoolCount": 1}, {"name": "Portage", "lat": 41.571799999999996, "lon": -87.19550000000001, "proficiency": 0.18, "schoolCount": 2}, {"name": "Boone Grove", "lat": 41.3554, "lon": -87.1284, "proficiency": 0.17, "schoolCount": 1}, {"name": "Francesville", "lat": 41.028596, "lon": -86.890398, "proficiency": 0.345, "schoolCount": 1}, {"name": "Rensselaer", "lat": 40.9365, "lon": -87.1384, "proficiency": 0.27, "schoolCount": 1}, {"name": "Richmond", "lat": 39.831183, "lon": -84.89578433333334, "proficiency": 0.13, "schoolCount": 3}, {"name": "Rising Sun", "lat": 38.947307, "lon": -84.860876, "proficiency": 0.15, "schoolCount": 1}, {"name": "Rossville", "lat": 40.414354, "lon": -86.597665, "proficiency": 0.12, "schoolCount": 1}, {"name": "Rushville", "lat": 39.6269, "lon": -85.4518, "proficiency": 0.47, "schoolCount": 1}, {"name": "Salem", "lat": 38.614, "lon": -86.1054, "proficiency": 0.075, "schoolCount": 1}, {"name": "Daleville", "lat": 40.118211, "lon": -85.554781, "proficiency": 0.17, "schoolCount": 1}, {"name": "Austin", "lat": 38.73886, "lon": -85.800183, "proficiency": 0.075, "schoolCount": 1}, {"name": "Scottsburg", "lat": 38.680269, "lon": -85.763562, "proficiency": 0.12, "schoolCount": 1}, {"name": "Seymour", "lat": 38.9682, "lon": -85.8773, "proficiency": 0.18, "schoolCount": 1}, {"name": "Jasonville", "lat": 39.159361, "lon": -87.212846, "proficiency": 0.245, "schoolCount": 1}, {"name": "Shelbyville", "lat": 39.47255, "lon": -85.8193, "proficiency": 0.3325, "schoolCount": 2}, {"name": "Shoals", "lat": 38.66774, "lon": -86.776515, "proficiency": 0.15, "schoolCount": 1}, {"name": "Churubusco", "lat": 41.2312, "lon": -85.3236, "proficiency": 0.17, "schoolCount": 1}, {"name": "Berne", "lat": 40.64665, "lon": -84.95998, "proficiency": 0.47, "schoolCount": 1}, {"name": "Haubstadt", "lat": 38.2063, "lon": -87.5661, "proficiency": 0.545, "schoolCount": 1}, {"name": "Owensville", "lat": 38.2585, "lon": -87.6989, "proficiency": 0.245, "schoolCount": 1}, {"name": "Fort Branch", "lat": 38.2406, "lon": -87.571, "proficiency": 0.47, "schoolCount": 1}, {"name": "Corydon", "lat": 38.2001, "lon": -86.1194, "proficiency": 0.42, "schoolCount": 1}, {"name": "Elizabeth", "lat": 38.0817, "lon": -86.0005, "proficiency": 0.32, "schoolCount": 1}, {"name": "Straughn", "lat": 39.8327, "lon": -85.3509, "proficiency": 0.05, "schoolCount": 1}, {"name": "Vincennes", "lat": 38.655791666666666, "lon": -87.47564066666666, "proficiency": 0.23, "schoolCount": 3}, {"name": "Kentland", "lat": 40.8077, "lon": -87.3847, "proficiency": 0.15, "schoolCount": 1}, {"name": "Versailles", "lat": 39.051394, "lon": -85.248877, "proficiency": 0.47, "schoolCount": 1}, {"name": "Rockport", "lat": 37.9062, "lon": -87.1064, "proficiency": 0.32, "schoolCount": 1}, {"name": "Clinton", "lat": 39.689, "lon": -87.417, "proficiency": 0.27, "schoolCount": 1}, {"name": "Veedersburg", "lat": 40.106202, "lon": -87.226833, "proficiency": 0.17, "schoolCount": 1}, {"name": "Ferdinand", "lat": 38.2278, "lon": -86.8576, "proficiency": 0.52, "schoolCount": 1}, {"name": "Fishers", "lat": 39.964782, "lon": -85.96431075, "proficiency": 0.4075, "schoolCount": 4}, {"name": "Walton", "lat": 40.662872, "lon": -86.251457, "proficiency": 0.37, "schoolCount": 1}, {"name": "New Palestine", "lat": 39.7524, "lon": -85.9124, "proficiency": 0.52, "schoolCount": 1}, {"name": "Lynn", "lat": 40.052, "lon": -84.9453, "proficiency": 0.245, "schoolCount": 1}, {"name": "Poneto", "lat": 40.608315, "lon": -85.279949, "proficiency": 0.27, "schoolCount": 1}, {"name": "Hanover", "lat": 38.710704, "lon": -85.472769, "proficiency": 0.12, "schoolCount": 1}, {"name": "Carlisle", "lat": 38.963672, "lon": -87.40204, "proficiency": 0.1, "schoolCount": 1}, {"name": "Huntingburg", "lat": 38.2746, "lon": -86.9639, "proficiency": 0.57, "schoolCount": 1}, {"name": "Montezuma", "lat": 39.6976, "lon": -87.3228, "proficiency": 0.17, "schoolCount": 1}, {"name": "Speedway", "lat": 39.7848, "lon": -86.2475, "proficiency": 0.57, "schoolCount": 1}, {"name": "Spencer", "lat": 39.2888, "lon": -86.7826, "proficiency": 0.22, "schoolCount": 1}, {"name": "French Lick", "lat": 38.5511, "lon": -86.6169, "proficiency": 0.12, "schoolCount": 1}, {"name": "Angola", "lat": 41.6329, "lon": -84.9784, "proficiency": 0.42, "schoolCount": 1}, {"name": "St Leon", "lat": 39.278188, "lon": -84.973767, "proficiency": 0.42, "schoolCount": 1}, {"name": "Vevay", "lat": 38.7419, "lon": -85.0781, "proficiency": 0.12, "schoolCount": 1}, {"name": "Tell City", "lat": 37.9545, "lon": -86.7636, "proficiency": 0.27, "schoolCount": 1}, {"name": "West Lafeyette", "lat": 40.5059, "lon": -86.9179, "proficiency": 0.32, "schoolCount": 1}, {"name": "West Lafayette", "lat": 40.4499, "lon": -86.93639999999999, "proficiency": 0.47, "schoolCount": 2}, {"name": "Arkon", "lat": 41.1134, "lon": -86.0432, "proficiency": 0.37, "schoolCount": 1}, {"name": "Tipton", "lat": 40.2719, "lon": -86.0399, "proficiency": 0.22, "schoolCount": 1}, {"name": "Wolcott", "lat": 40.7349, "lon": -87.0848, "proficiency": 0.22, "schoolCount": 1}, {"name": "Lowell", "lat": 41.270305, "lon": -87.431822, "proficiency": 0.27, "schoolCount": 1}, {"name": "Bourbon", "lat": 41.3014, "lon": -86.1085, "proficiency": 0.37, "schoolCount": 1}, {"name": "Monticello", "lat": 40.7438, "lon": -86.7721, "proficiency": 0.32, "schoolCount": 1}, {"name": "Liberty", "lat": 39.635854, "lon": -84.916879, "proficiency": 0.17, "schoolCount": 1}, {"name": "Modoc", "lat": 40.047064, "lon": -85.14127, "proficiency": 0.09, "schoolCount": 2}, {"name": "Lakeville", "lat": 41.4789, "lon": -86.304, "proficiency": 0.22, "schoolCount": 1}, {"name": "Crothersville", "lat": 38.797863, "lon": -85.836483, "proficiency": 0.1, "schoolCount": 1}, {"name": "Terre Haute", "lat": 39.449149, "lon": -87.3925688, "proficiency": 0.196, "schoolCount": 5}, {"name": "West Terre Haute", "lat": 39.4618, "lon": -87.4912, "proficiency": 0.075, "schoolCount": 1}, {"name": "Wabash", "lat": 40.7874555, "lon": -85.7957915, "proficiency": 0.2275, "schoolCount": 4}, {"name": "Wakarusa", "lat": 41.54, "lon": -86.0218, "proficiency": 0.57, "schoolCount": 1}, {"name": "Boonville", "lat": 38.0403, "lon": -87.28, "proficiency": 0.22, "schoolCount": 1}, {"name": "Newburgh", "lat": 37.9868, "lon": -87.38040000000001, "proficiency": 0.52, "schoolCount": 2}, {"name": "Lynnville", "lat": 38.194901, "lon": -87.341238, "proficiency": 0.32, "schoolCount": 1}, {"name": "Warsaw", "lat": 41.23055, "lon": -85.85385, "proficiency": 0.345, "schoolCount": 2}, {"name": "Washington", "lat": 38.6591, "lon": -87.1686, "proficiency": 0.27, "schoolCount": 1}, {"name": "Frankton", "lat": 40.2204, "lon": -85.7735, "proficiency": 0.27, "schoolCount": 1}, {"name": "Lapel", "lat": 40.0619, "lon": -85.8447, "proficiency": 0.42, "schoolCount": 1}, {"name": "Ligonier", "lat": 41.4288, "lon": -85.5836, "proficiency": 0.42, "schoolCount": 1}, {"name": "Campbellsburg", "lat": 38.5839, "lon": -86.2344, "proficiency": 0.27, "schoolCount": 1}, {"name": "Thorntown", "lat": 40.0564, "lon": -86.613, "proficiency": 0.22, "schoolCount": 1}, {"name": "Cambridge City", "lat": 39.8158, "lon": -85.1674, "proficiency": 0.12, "schoolCount": 1}, {"name": "Westfield", "lat": 40.048, "lon": -86.1316, "proficiency": 0.46, "schoolCount": 1}, {"name": "Topeka", "lat": 41.617, "lon": -85.5396, "proficiency": 0.57, "schoolCount": 1}, {"name": "Whiting", "lat": 41.681, "lon": -87.4935, "proficiency": 0.075, "schoolCount": 1}, {"name": "South Whitley", "lat": 41.0828, "lon": -85.6355, "proficiency": 0.12, "schoolCount": 1}]}