{"state": "KS", "stateName": "Kansas", "year": 2020, "naep": {"text": "3 out of 4", "numerator": 3, "denominator": 4}, "schools": [{"name": "Southeast Saline High", "lat": 38.7092, "lon": -97.51, "proficiency": 0.15, "district": "Southeast Of Saline", "city": "Gypsum", "ncessch": "200000100523"}, {"name": "Smoky Valley Middle School", "lat": 38.5779, "lon": -97.6828, "proficiency": 0.12, "district": "Smoky Valley", "city": "Lindsborg", "ncessch": "200000201467"}, {"name": "Smoky Valley Virtual Charter School", "lat": 38.572627, "lon": -97.675592, "proficiency": 0.245, "district": "Smoky Valley", "city": "Lindsborg", "ncessch": "200000201809"}, {"name": "Wamego Middle School", "lat": 39.216, "lon": -96.3168, "proficiency": 0.22, "district": "Wamego", "city": "Wamego", "ncessch": "200000300583"}, {"name": "Rock Creek Middle School", "lat": 39.303209, "lon": -96.438823, "proficiency": 0.22, "district": "Rock Creek", "city": "St. George", "ncessch": "200000402114"}, {"name": "Hiawatha Middle School", "lat": 39.8505, "lon": -95.5239, "proficiency": 0.22, "district": "Hiawatha", "city": "Hiawatha", "ncessch": "200000601728"}, {"name": "Smith Center Jr Sr High", "lat": 39.78069, "lon": -98.774518, "proficiency": 0.1, "district": "Smith Center", "city": "Smith Center", "ncessch": "200000700156"}, {"name": "Hanover Elem", "lat": 39.892542, "lon": -96.874011, "proficiency": -0.03, "district": "Barnes", "city": "Hanover", "ncessch": "200001200094"}, {"name": "Linn Elem", "lat": 39.6835, "lon": -97.0853, "proficiency": 0.75, "district": "Barnes", "city": "Linn", "ncessch": "200001200096"}, {"name": "Winona Elem", "lat": 39.063922, "lon": -101.245948, "proficiency": -0.03, "district": "Triplains", "city": "Winona", "ncessch": "200001300414"}, {"name": "Central Heights High", "lat": 38.463562, "lon": -95.191989, "proficiency": 0.345, "district": "Central Heights", "city": "Richmond", "ncessch": "200001400453"}, {"name": "Ottawa Middle School", "lat": 38.5979, "lon": -95.2775, "proficiency": 0.17, "district": "Ottawa", "city": "Ottawa", "ncessch": "200001500462"}, {"name": "Ottawa Sr High", "lat": 38.6002, "lon": -95.2787, "proficiency": -0.03, "district": "Ottawa", "city": "Ottawa", "ncessch": "200001500463"}, {"name": "Marysville Jr/Sr High", "lat": 39.8394, "lon": -96.6441, "proficiency": 0.15, "district": "Marysville", "city": "Marysville", "ncessch": "200001600762"}, {"name": "Scott City Middle", "lat": 38.4781, "lon": -100.9171, "proficiency": 0.22, "district": "Scott County", "city": "Scott City", "ncessch": "200001701217"}, {"name": "Western Plains North Elem", "lat": 38.641016, "lon": -99.93163, "proficiency": -0.03, "district": "Western Plains", "city": "Ransom", "ncessch": "200002000496"}, {"name": "Western Plains South Elem/Jr High", "lat": 38.441833, "lon": -99.693932, "proficiency": -0.03, "district": "Western Plains", "city": "Bazine", "ncessch": "200002000501"}, {"name": "Rawlins County Jr/Sr High School", "lat": 39.807661, "lon": -101.037065, "proficiency": 0.1, "district": "Rawlins County", "city": "Atwood", "ncessch": "200002300580"}, {"name": "Washington County High School", "lat": 39.8227, "lon": -97.0545, "proficiency": 0.1, "district": "Washington Co. Schools", "city": "Washington", "ncessch": "200002801828"}, {"name": "Rock Hills Jr/Sr High School", "lat": 39.78866, "lon": -98.201937, "proficiency": 0.3, "district": "Rock Hills", "city": "Mankato", "ncessch": "200002901837"}, {"name": "Republic County Jr./Sr. High School", "lat": 39.8178, "lon": -97.6266, "proficiency": 0.15, "district": "Republic County", "city": "Belleville", "ncessch": "200003001958"}, {"name": "THUNDER RIDGE MIDDLE SCHOOL", "lat": 39.761261, "lon": -99.114554, "proficiency": 0.3, "district": "Thunder Ridge Schools", "city": "AGRA", "ncessch": "200034601900"}, {"name": "Doniphan West JR/SR High School", "lat": 39.860011, "lon": -95.261138, "proficiency": 0.1, "district": "Doniphan West Schools", "city": "Highland", "ncessch": "200034801941"}, {"name": "Wilson Junior/Senior High School", "lat": 38.820723, "lon": -98.473065, "proficiency": 0.1, "district": "Central Plains", "city": "Wilson", "ncessch": "200034902022"}, {"name": "Central Plains Jr. Sr. High School", "lat": 38.526288, "lon": -98.543306, "proficiency": 0.3, "district": "Central Plains", "city": "Claflin", "ncessch": "200034902043"}, {"name": "Sabetha Middle School", "lat": 39.897102, "lon": -95.790751, "proficiency": 0.245, "district": "Prairie Hills", "city": "Sabetha", "ncessch": "200035002026"}, {"name": "Wetmore Elementary", "lat": 39.636238, "lon": -95.808568, "proficiency": 0.245, "district": "Prairie Hills", "city": "Wetmore", "ncessch": "200035002027"}, {"name": "Axtell Elementary School", "lat": 39.876129, "lon": -96.256958, "proficiency": 0.245, "district": "Prairie Hills", "city": "Axtell", "ncessch": "200035002073"}, {"name": "Riverside Middle School", "lat": 39.75743, "lon": -94.88398, "proficiency": 0.1, "district": "Riverside", "city": "Elwood", "ncessch": "200035101983"}, {"name": "Nemaha Central Elementary and Middle School", "lat": 39.836075, "lon": -96.071867, "proficiency": 0.345, "district": "Nemaha Central", "city": "Seneca", "ncessch": "200035302048"}, {"name": "Abilene Middle School", "lat": 38.9291, "lon": -97.2216, "proficiency": 0.22, "district": "Abilene", "city": "Abilene", "ncessch": "200318001062"}, {"name": "Washburn Rural Middle School", "lat": 38.958, "lon": -95.7527, "proficiency": 0.27, "district": "Auburn Washburn", "city": "Topeka", "ncessch": "200320001710"}, {"name": "NLC Elementary School", "lat": 38.508532, "lon": -96.264433, "proficiency": 0.1, "district": "North Lyon County", "city": "Americus", "ncessch": "200321000210"}, {"name": "Wabaunsee Junior High", "lat": 39.072, "lon": -96.1682, "proficiency": 0.545, "district": "Wabaunsee", "city": "Paxico", "ncessch": "200324000622"}, {"name": "Long Island Middle School", "lat": 39.946284, "lon": -99.53451, "proficiency": 0.245, "district": "Northern Valley", "city": "Long Island", "ncessch": "200327000063"}, {"name": "Altamont Elem", "lat": 37.1916, "lon": -95.2923, "proficiency": 0.3, "district": "Labette County", "city": "Altamont", "ncessch": "200330001494"}, {"name": "Bartlett Elem", "lat": 37.0574, "lon": -95.2126, "proficiency": 0.245, "district": "Labette County", "city": "Bartlett", "ncessch": "200330001496"}, {"name": "Edna Elem", "lat": 37.0604, "lon": -95.3614, "proficiency": 0.495, "district": "Labette County", "city": "Edna", "ncessch": "200330001497"}, {"name": "Meadowview Elem", "lat": 37.295655, "lon": -95.290961, "proficiency": 0.15, "district": "Labette County", "city": "Parsons", "ncessch": "200330001500"}, {"name": "Mound Valley Elem", "lat": 37.2045, "lon": -95.4078, "proficiency": 0.695, "district": "Labette County", "city": "Mound Valley", "ncessch": "200330001501"}, {"name": "Andover Middle School", "lat": 37.7152, "lon": -97.133, "proficiency": 0.47, "district": "Andover", "city": "Andover", "ncessch": "200336000859"}, {"name": "Andover Central Middle School", "lat": 37.6927, "lon": -97.1245, "proficiency": 0.52, "district": "Andover", "city": "Andover", "ncessch": "200336001564"}, {"name": "Andover eCademy", "lat": 37.711969, "lon": -97.13724, "proficiency": 0.15, "district": "Andover", "city": "Andover", "ncessch": "200336002040"}, {"name": "Chaparral Jr/Sr High", "lat": 37.218744, "lon": -98.041181, "proficiency": 0.12, "district": "Chaparral Schools", "city": "Anthony", "ncessch": "200339000749"}, {"name": "Argonia High", "lat": 37.269878, "lon": -97.76084, "proficiency": 0.245, "district": "Argonia Public Schools", "city": "Argonia", "ncessch": "200343000742"}, {"name": "Arkansas City Middle Sch", "lat": 37.0791, "lon": -97.0342, "proficiency": 0.17, "district": "Arkansas City", "city": "Arkansas City", "ncessch": "200345001240"}, {"name": "Northeast Elem", "lat": 37.5447, "lon": -94.7058, "proficiency": 0.245, "district": "Northeast", "city": "Arma", "ncessch": "200348000183"}, {"name": "Ashland Junior High School", "lat": 37.193795, "lon": -99.775434, "proficiency": 0.3, "district": "Ashland", "city": "Ashland", "ncessch": "200351001650"}, {"name": "Atchison Middle School", "lat": 39.565039, "lon": -95.119776, "proficiency": 0.17, "district": "Atchison Public Schools", "city": "Atchison", "ncessch": "200354000958"}, {"name": "Central School", "lat": 39.565039, "lon": -95.119776, "proficiency": -0.03, "district": "Atchison Public Schools", "city": "Atchison", "ncessch": "200354001868"}, {"name": "Puls Elem", "lat": 37.2463, "lon": -98.228, "proficiency": 0.1, "district": "Attica", "city": "Attica", "ncessch": "200357001513"}, {"name": "Augusta Middle School", "lat": 37.682, "lon": -96.9796, "proficiency": 0.17, "district": "Augusta", "city": "Augusta", "ncessch": "200363000918"}, {"name": "Baldwin Junior High School", "lat": 38.7856, "lon": -95.1833, "proficiency": 0.22, "district": "Baldwin City", "city": "Baldwin City", "ncessch": "200372000703"}, {"name": "Basehor-Linwood Middle School", "lat": 39.09301, "lon": -94.94852, "proficiency": 0.32, "district": "Basehor-Linwood", "city": "Basehor", "ncessch": "200378001188"}, {"name": "Baxter Springs High", "lat": 37.037124, "lon": -94.733298, "proficiency": 0.245, "district": "Baxter Springs", "city": "Baxter Springs", "ncessch": "200381001508"}, {"name": "Beloit Jr-Sr High", "lat": 39.4777, "lon": -98.1058, "proficiency": 0.445, "district": "Beloit", "city": "Beloit", "ncessch": "200387000410"}, {"name": "Belle Plaine Middle", "lat": 37.3968, "lon": -97.2808, "proficiency": 0.05, "district": "Belle Plaine", "city": "Belle Plaine", "ncessch": "200390001584"}, {"name": "Bennington Junior High/High School", "lat": 39.0327, "lon": -97.5967, "proficiency": 0.1, "district": "Twin Valley", "city": "Bennington", "ncessch": "200396000165"}, {"name": "Tescott Junior High/High School", "lat": 39.013, "lon": -97.8802, "proficiency": 0.245, "district": "Twin Valley", "city": "Tescott", "ncessch": "200396000167"}, {"name": "Otis-Bison Junior/Senior High School", "lat": 38.5382, "lon": -99.054144, "proficiency": 0.245, "district": "Otis-Bison", "city": "Otis", "ncessch": "200402000923"}, {"name": "SouthWinds Academy", "lat": 38.538257, "lon": -99.054042, "proficiency": -0.03, "district": "Otis-Bison", "city": "OTIS", "ncessch": "200402002066"}, {"name": "Robert E Clark Middle", "lat": 39.0615, "lon": -94.8957, "proficiency": 0.12, "district": "Bonner Springs", "city": "Bonner Springs", "ncessch": "200405000030"}, {"name": "Brewster Elem", "lat": 39.365516, "lon": -101.376399, "proficiency": 0.245, "district": "Brewster", "city": "Brewster", "ncessch": "200408000569"}, {"name": "Bucklin Elem", "lat": 37.5455, "lon": -99.6336, "proficiency": 0.1, "district": "Bucklin", "city": "Bucklin", "ncessch": "200414001190"}, {"name": "Altoona-Midway Middle/High School", "lat": 37.670139, "lon": -95.652198, "proficiency": 0.245, "district": "Altoona-Midway", "city": "Buffalo", "ncessch": "200417001872"}, {"name": "Prairie Hills Middle", "lat": 38.0888, "lon": -97.8656, "proficiency": 0.17, "district": "Buhler", "city": "Hutchinson", "ncessch": "200420001585"}, {"name": "Central Jr-Sr High", "lat": 37.319962, "lon": -96.753163, "proficiency": 0.1, "district": "Central", "city": "Burden", "ncessch": "200423001200"}, {"name": "Burlingame Junior/Senior High", "lat": 38.757477, "lon": -95.837611, "proficiency": 0.1, "district": "Burlingame Public School", "city": "Burlingame", "ncessch": "200426001161"}, {"name": "Burlington Middle School 5 - 8", "lat": 38.20727, "lon": -95.743911, "proficiency": 0.17, "district": "Burlington", "city": "Burlington", "ncessch": "200429001994"}, {"name": "Burrton MS/HS", "lat": 38.0196, "lon": -97.6715, "proficiency": 0.1, "district": "Burrton", "city": "Burrton", "ncessch": "200435000781"}, {"name": "Caldwell Secondary School", "lat": 37.033153, "lon": -97.610407, "proficiency": 0.245, "district": "Caldwell", "city": "Caldwell", "ncessch": "200438000744"}, {"name": "Caney Valley High", "lat": 37.0183, "lon": -95.927, "proficiency": 0.245, "district": "Caney Valley", "city": "Caney", "ncessch": "200441001065"}, {"name": "Canton-Galva Jr./Sr. High", "lat": 38.3816, "lon": -97.4326, "proficiency": 0.1, "district": "Canton-Galva", "city": "Canton", "ncessch": "200444001002"}, {"name": "Lakeside Junior/Senior High School", "lat": 39.5082, "lon": -98.5449, "proficiency": 0.3, "district": "Waconda", "city": "Downs", "ncessch": "200447000406"}, {"name": "Tipton Community School", "lat": 39.338033, "lon": -98.468554, "proficiency": -0.03, "district": "Waconda", "city": "Tipton", "ncessch": "200447001844"}, {"name": "Cedar Vale High", "lat": 37.10603, "lon": -96.500872, "proficiency": 0.245, "district": "Cedar Vale", "city": "Cedar Vale", "ncessch": "200450000444"}, {"name": "Centralia High", "lat": 39.7247, "lon": -96.1329, "proficiency": 0.3, "district": "Vermillion", "city": "Centralia", "ncessch": "200456000831"}, {"name": "Frankfort High", "lat": 39.707529, "lon": -96.419126, "proficiency": 0.3, "district": "Vermillion", "city": "Frankfort", "ncessch": "200456000833"}, {"name": "Royster Middle School", "lat": 37.6823, "lon": -95.4592, "proficiency": 0.12, "district": "Chanute Public Schools", "city": "Chanute", "ncessch": "200459000972"}, {"name": "Chapman Middle School", "lat": 38.9739, "lon": -97.0186, "proficiency": 0.17, "district": "Chapman", "city": "Chapman", "ncessch": "200462001248"}, {"name": "Raymond Jr High", "lat": 38.356582, "lon": -98.34574, "proficiency": 0.245, "district": "Chase-Raymond", "city": "Chase", "ncessch": "200465000914"}, {"name": "Cheney Middle School  6-8", "lat": 37.6338, "lon": -97.7816, "proficiency": 0.42, "district": "Cheney", "city": "Cheney", "ncessch": "200467000394"}, {"name": "Southeast Middle School", "lat": 37.346094, "lon": -94.822565, "proficiency": 0.15, "district": "Cherokee", "city": "Cherokee", "ncessch": "200471000185"}, {"name": "Cherryvale Sr / Middle School", "lat": 37.2633, "lon": -95.547, "proficiency": 0.05, "district": "Cherryvale", "city": "Cherryvale", "ncessch": "200474001125"}, {"name": "Thayer Schools", "lat": 37.4906, "lon": -95.4738, "proficiency": 0.245, "district": "Cherryvale", "city": "Cherryvale", "ncessch": "200474001867"}, {"name": "Chetopa High", "lat": 37.0387, "lon": -95.0891, "proficiency": 0.245, "district": "Chetopa-St. Paul", "city": "Chetopa", "ncessch": "200477001493"}, {"name": "St. Paul Middle School", "lat": 37.515502, "lon": -95.165741, "proficiency": 0.3, "district": "Chetopa-St. Paul", "city": "St. Paul", "ncessch": "200477001907"}, {"name": "Cheylin Jr/Sr High", "lat": 39.747133, "lon": -101.532347, "proficiency": 0.245, "district": "Cheylin", "city": "Bird City", "ncessch": "200479000482"}, {"name": "Cimarron High", "lat": 37.8115, "lon": -100.3415, "proficiency": 0.05, "district": "Cimarron-Ensign", "city": "Cimarron", "ncessch": "200480000010"}, {"name": "Jackson Heights High School and Middle School", "lat": 39.526329, "lon": -95.740801, "proficiency": 0.05, "district": "North Jackson", "city": "Holton", "ncessch": "200483001936"}, {"name": "Clay Center Community Middle", "lat": 39.3886, "lon": -97.1172, "proficiency": 0.17, "district": "Clay County", "city": "Clay Center", "ncessch": "200489000823"}, {"name": "Wakefield Elem", "lat": 39.213, "lon": -97.0164, "proficiency": 0.1, "district": "Clay County", "city": "Wakefield", "ncessch": "200489000828"}, {"name": "Clearwater Intermediate - Middle School", "lat": 37.5031, "lon": -97.4962, "proficiency": 0.47, "district": "Clearwater", "city": "Clearwater", "ncessch": "200492000376"}, {"name": "Clifton-Clyde Middle School", "lat": 39.5672, "lon": -97.2848, "proficiency": 0.3, "district": "Clifton-Clyde", "city": "Clifton", "ncessch": "200495001612"}, {"name": "Roosevelt Middle", "lat": 37.037, "lon": -95.6317, "proficiency": 0.075, "district": "Coffeyville", "city": "Coffeyville", "ncessch": "200498001597"}, {"name": "Colby Middle School", "lat": 39.395627, "lon": -101.053161, "proficiency": 0.17, "district": "Colby Public Schools", "city": "Colby", "ncessch": "200501000572"}, {"name": "South Central Middle School", "lat": 37.1982, "lon": -99.4809, "proficiency": 0.3, "district": "Comanche County", "city": "Protection", "ncessch": "200504000493"}, {"name": "Central Elem", "lat": 37.1617, "lon": -94.8481, "proficiency": 0.245, "district": "Columbus", "city": "Columbus", "ncessch": "200507001342"}, {"name": "Concordia Jr-Sr High", "lat": 39.567024, "lon": -97.66572, "proficiency": 0.17, "district": "Concordia", "city": "Concordia", "ncessch": "200510000644"}, {"name": "Conway Springs Middle School", "lat": 37.3917, "lon": -97.6471, "proficiency": 0.05, "district": "Conway Springs", "city": "Conway Springs", "ncessch": "200513001701"}, {"name": "South Gray Jr High", "lat": 37.539516, "lon": -100.630039, "proficiency": 0.1, "district": "Copeland", "city": "Copeland", "ncessch": "200519001713"}, {"name": "Chase County Junior Senior High School", "lat": 38.372654, "lon": -96.54422, "proficiency": 0.1, "district": "Chase County", "city": "Cottonwood Falls", "ncessch": "200525002024"}, {"name": "Council Grove Junior Senior High School", "lat": 38.659747, "lon": -96.488787, "proficiency": 0.42, "district": "Morris County", "city": "Council Grove", "ncessch": "200528000988"}, {"name": "Pike Valley Jr High", "lat": 39.7979, "lon": -97.777, "proficiency": 0.245, "district": "Pike Valley", "city": "Scandia", "ncessch": "200531001586"}, {"name": "Cunningham High", "lat": 37.649152, "lon": -98.432815, "proficiency": 0.245, "district": "Cunningham", "city": "Cunningham", "ncessch": "200537000635"}, {"name": "Deerfield Middle School", "lat": 37.98124, "lon": -101.137798, "proficiency": 0.1, "district": "Deerfield", "city": "Deerfield", "ncessch": "200540000004"}, {"name": "Derby Middle Sch", "lat": 37.547, "lon": -97.2613, "proficiency": 0.17, "district": "Derby", "city": "Derby", "ncessch": "200546001598"}, {"name": "Derby North Middle School", "lat": 37.582865, "lon": -97.241934, "proficiency": 0.32, "district": "Derby", "city": "Derby", "ncessch": "200546002079"}, {"name": "Monticello Trails Middle School", "lat": 39.0173, "lon": -94.8409, "proficiency": 0.47, "district": "De Soto", "city": "Shawnee", "ncessch": "200549000898"}, {"name": "Lexington Trails Middle School", "lat": 38.9687, "lon": -94.9845, "proficiency": 0.42, "district": "De Soto", "city": "De Soto", "ncessch": "200549000906"}, {"name": "Mill Creek Middle School", "lat": 38.9836, "lon": -94.8803, "proficiency": 0.27, "district": "De Soto", "city": "Lenexa", "ncessch": "200549001871"}, {"name": "Dexter High", "lat": 37.182326, "lon": -96.716108, "proficiency": 0.1, "district": "Dexter", "city": "Dexter", "ncessch": "200552001245"}, {"name": "Dighton High", "lat": 38.480716, "lon": -100.460556, "proficiency": 0.245, "district": "Dighton", "city": "Dighton", "ncessch": "200555001296"}, {"name": "Dodge City Middle School", "lat": 37.770163, "lon": -100.022707, "proficiency": 0.12, "district": "Dodge City", "city": "Dodge City", "ncessch": "200558001094"}, {"name": "Comanche Middle School", "lat": 37.763836, "lon": -100.018282, "proficiency": 0.17, "district": "Dodge City", "city": "Dodge City", "ncessch": "200558001743"}, {"name": "Marvin Sisk Middle School", "lat": 37.5215, "lon": -97.0037, "proficiency": 0.15, "district": "Douglass Public Schools", "city": "Douglass", "ncessch": "200561000725"}, {"name": "Pleasant Ridge Middle", "lat": 39.363921, "lon": -95.056001, "proficiency": 0.345, "district": "Easton", "city": "Easton", "ncessch": "200564001130"}, {"name": "Atchison County Community JR/SR High", "lat": 39.526294, "lon": -95.392121, "proficiency": 0.05, "district": "Atchison Co Comm Schools", "city": "Effingham", "ncessch": "200570001957"}, {"name": "El Dorado Middle", "lat": 37.854572, "lon": -96.845492, "proficiency": 0.12, "district": "El Dorado", "city": "El Dorado", "ncessch": "200573001332"}, {"name": "Elk Valley High School", "lat": 37.375216, "lon": -96.078981, "proficiency": 0.245, "district": "Elk Valley", "city": "Longton", "ncessch": "200576000436"}, {"name": "Elkhart Middle School", "lat": 37.007825, "lon": -101.904635, "proficiency": 0.15, "district": "Elkhart", "city": "Elkhart", "ncessch": "200579000079"}, {"name": "Kansas Connections Academy", "lat": 37.008732, "lon": -101.903857, "proficiency": 0.15, "district": "Elkhart", "city": "Newton", "ncessch": "200579001973"}, {"name": "Ell-Saline Middle/High School", "lat": 38.7724, "lon": -97.8601, "proficiency": 0.15, "district": "Ell-Saline", "city": "Brookville", "ncessch": "200580000527"}, {"name": "Ellinwood  Middle School", "lat": 38.3562, "lon": -98.5783, "proficiency": 0.495, "district": "Ellinwood Public Schools", "city": "Ellinwood", "ncessch": "200582000732"}, {"name": "Ellis Jr/Sr High", "lat": 38.929, "lon": -99.5594, "proficiency": 0.15, "district": "Ellis", "city": "Ellis", "ncessch": "200585000868"}, {"name": "Ellsworth High", "lat": 38.7365, "lon": -98.2285, "proficiency": 0.15, "district": "Ellsworth", "city": "Ellsworth", "ncessch": "200587000611"}, {"name": "Emporia Middle School", "lat": 38.4257, "lon": -96.2248, "proficiency": 0.11, "district": "Emporia", "city": "Emporia", "ncessch": "200594000225"}, {"name": "Galesburg Middle School", "lat": 37.470141, "lon": -95.352189, "proficiency": 0.05, "district": "Erie-Galesburg", "city": "Galesburg", "ncessch": "200600001932"}, {"name": "Mission Valley Junior and Senior High School", "lat": 38.886017, "lon": -96.001661, "proficiency": 0.345, "district": "Mission Valley", "city": "Eskridge", "ncessch": "200606000626"}, {"name": "Eudora Middle School", "lat": 38.917481, "lon": -95.096735, "proficiency": 0.17, "district": "Eudora", "city": "Eudora", "ncessch": "200609000874"}, {"name": "Eureka Jr/Sr High", "lat": 37.8277, "lon": -96.28, "proficiency": 0.15, "district": "Eureka", "city": "Eureka", "ncessch": "200612000873"}, {"name": "Fort Scott Middle School", "lat": 37.8282, "lon": -94.6908, "proficiency": 0.12, "district": "Fort Scott", "city": "Fort Scott", "ncessch": "200618000148"}, {"name": "Fowler High", "lat": 37.3853, "lon": -100.1961, "proficiency": 0.245, "district": "Fowler", "city": "Fowler", "ncessch": "200621000104"}, {"name": "Remington Middle School", "lat": 37.9632, "lon": -97.1458, "proficiency": 0.3, "district": "Remington-Whitewater", "city": "Whitewater", "ncessch": "200624000045"}, {"name": "Fredonia Jr./Sr. High School", "lat": 37.5277, "lon": -95.8238, "proficiency": 0.05, "district": "Fredonia", "city": "Fredonia", "ncessch": "200627001304"}, {"name": "Frontenac Jr. High", "lat": 37.452954, "lon": -94.687355, "proficiency": 0.27, "district": "Frontenac Public Schools", "city": "Frontenac", "ncessch": "200630001915"}, {"name": "Patton Jr High", "lat": 39.345632, "lon": -94.931704, "proficiency": 0.52, "district": "Fort Leavenworth", "city": "Fort Leavenworth", "ncessch": "200633000049"}, {"name": "Galena Middle School", "lat": 37.073929, "lon": -94.63361, "proficiency": 0.075, "district": "Galena", "city": "Galena", "ncessch": "200636001511"}, {"name": "Horace J. Good Middle School", "lat": 37.978196, "lon": -100.868625, "proficiency": 0.09, "district": "Garden City", "city": "Garden City", "ncessch": "200639001174"}, {"name": "Kenneth Henderson Middle", "lat": 37.9876, "lon": -100.8527, "proficiency": 0.17, "district": "Garden City", "city": "Garden City", "ncessch": "200639001180"}, {"name": "Charles O Stones Intermediate Ctr", "lat": 37.9655, "lon": -100.8299, "proficiency": -0.03, "district": "Garden City", "city": "Garden City", "ncessch": "200639001227"}, {"name": "GC Achieve at J.D. Adams Hall", "lat": 37.976801, "lon": -100.869103, "proficiency": 0.245, "district": "Garden City", "city": "Garden City", "ncessch": "200639002067"}, {"name": "Pioneer Ridge Middle School", "lat": 38.8339, "lon": -94.9629, "proficiency": 0.27, "district": "Gardner Edgerton", "city": "Gardner", "ncessch": "200642001824"}, {"name": "Wheatridge Middle School", "lat": 38.8136, "lon": -94.9223, "proficiency": 0.17, "district": "Gardner Edgerton", "city": "Gardner", "ncessch": "200642001878"}, {"name": "Trail Ridge Middle School", "lat": 38.804811, "lon": -94.918845, "proficiency": 0.17, "district": "Gardner Edgerton", "city": "Gardner", "ncessch": "200642002076"}, {"name": "Anderson County Jr/Sr High School", "lat": 38.2869, "lon": -95.2591, "proficiency": 0.32, "district": "Garnett", "city": "Garnett", "ncessch": "200645000206"}, {"name": "Westphalia", "lat": 38.1829, "lon": -95.4956, "proficiency": -0.03, "district": "Garnett", "city": "Westphalia", "ncessch": "200645000768"}, {"name": "Girard Middle", "lat": 37.5148, "lon": -94.8439, "proficiency": 0.17, "district": "Girard", "city": "Girard", "ncessch": "200648000192"}, {"name": "Glasco Elem", "lat": 39.3623, "lon": -97.8354, "proficiency": 0.245, "district": "Southern Cloud", "city": "Glasco", "ncessch": "200651000647"}, {"name": "Miltonvale High", "lat": 39.3466, "lon": -97.4576, "proficiency": -0.03, "district": "Southern Cloud", "city": "Miltonvale", "ncessch": "200651000650"}, {"name": "Goddard Middle School", "lat": 37.644425, "lon": -97.569636, "proficiency": 0.32, "district": "Goddard", "city": "Goddard", "ncessch": "200654000698"}, {"name": "Dwight D. Eisenhower Middle School", "lat": 37.67264, "lon": -97.527842, "proficiency": 0.47, "district": "Goddard", "city": "Goddard", "ncessch": "200654001732"}, {"name": "Goessel High", "lat": 38.2471, "lon": -97.3497, "proficiency": 0.3, "district": "Goessel", "city": "Goessel", "ncessch": "200657000964"}, {"name": "Goodland Jr-Sr. High School", "lat": 39.346426, "lon": -101.705895, "proficiency": 0.12, "district": "Goodland", "city": "Goodland", "ncessch": "200658000717"}, {"name": "Great Bend Middle School", "lat": 38.3722, "lon": -98.7845, "proficiency": 0.17, "district": "Great Bend", "city": "Great Bend", "ncessch": "200666001034"}, {"name": "Greeley County Jr./Sr. High", "lat": 38.4723, "lon": -101.7567, "proficiency": 0.1, "district": "Greeley County Schools", "city": "Tribune", "ncessch": "200669000014"}, {"name": "Kiowa County Elem/Jr. High", "lat": 37.599118, "lon": -99.291589, "proficiency": 0.3, "district": "Kiowa County", "city": "Greensburg", "ncessch": "200672001009"}, {"name": "21st Century Learning Academy/Kiowa County", "lat": 37.599118, "lon": -99.291589, "proficiency": 0.245, "district": "Kiowa County", "city": "Greensburg", "ncessch": "200672002055"}, {"name": "Grinnell Middle School", "lat": 39.121671, "lon": -100.632227, "proficiency": 0.1, "district": "Grinnell Public Schools", "city": "Grinnell", "ncessch": "200678001895"}, {"name": "Halstead Middle School", "lat": 37.9988, "lon": -97.509, "proficiency": 0.05, "district": "Halstead", "city": "Halstead", "ncessch": "200684001079"}, {"name": "Hamilton High", "lat": 37.982854, "lon": -96.159096, "proficiency": -0.03, "district": "Hamilton", "city": "Hamilton", "ncessch": "200687000878"}, {"name": "Hartford Jr./Sr. High School", "lat": 38.3101, "lon": -95.9567, "proficiency": 0.3, "district": "Southern Lyon County", "city": "Hartford", "ncessch": "200693000215"}, {"name": "Olpe Jr./Sr. High School", "lat": 38.264064, "lon": -96.169933, "proficiency": 0.495, "district": "Southern Lyon County", "city": "Olpe", "ncessch": "200693000219"}, {"name": "Yoder Charter Elem School", "lat": 37.9407, "lon": -97.8662, "proficiency": 0.245, "district": "Haven Public Schools", "city": "Yoder", "ncessch": "200696000561"}, {"name": "Haven Middle School", "lat": 37.9062, "lon": -97.7788, "proficiency": 0.245, "district": "Haven Public Schools", "city": "Haven", "ncessch": "200696001679"}, {"name": "Haven Virtual Academy", "lat": 37.905602, "lon": -97.778384, "proficiency": -0.03, "district": "Haven Public Schools", "city": "Haven", "ncessch": "200696002081"}, {"name": "Haviland Elem", "lat": 37.6185, "lon": -99.1109, "proficiency": 0.75, "district": "Haviland", "city": "Haviland", "ncessch": "200699001253"}, {"name": "Hays Middle School", "lat": 38.8887, "lon": -99.3231, "proficiency": 0.27, "district": "Hays", "city": "Hays", "ncessch": "200702001321"}, {"name": "Haysville Middle School", "lat": 37.565776, "lon": -97.363049, "proficiency": 0.075, "district": "Haysville", "city": "Haysville", "ncessch": "200705000363"}, {"name": "Haysville West Middle School", "lat": 37.56566, "lon": -97.375432, "proficiency": 0.12, "district": "Haysville", "city": "Haysville", "ncessch": "200705001906"}, {"name": "Healy High", "lat": 38.604947, "lon": -100.613449, "proficiency": -0.03, "district": "Healy Public Schools", "city": "Healy", "ncessch": "200708001226"}, {"name": "Herington Middle Sch", "lat": 38.686268, "lon": -96.942463, "proficiency": 0.15, "district": "Herington", "city": "Herington", "ncessch": "200711001308"}, {"name": "Hesston Middle", "lat": 38.1384, "lon": -97.4261, "proficiency": 0.545, "district": "Hesston", "city": "Hesston", "ncessch": "200717001193"}, {"name": "Hill City Junior-Senior High", "lat": 39.37034, "lon": -99.853443, "proficiency": 0.1, "district": "Graham County", "city": "Hill City", "ncessch": "200726001954"}, {"name": "Hillsboro Middle/High School", "lat": 38.3524, "lon": -97.1993, "proficiency": 0.445, "district": "Durham-Hillsboro-Lehigh", "city": "Hillsboro", "ncessch": "200729000961"}, {"name": "Hoisington Middle", "lat": 38.5237, "lon": -98.7806, "proficiency": 0.32, "district": "Hoisington", "city": "Hoisington", "ncessch": "200732001046"}, {"name": "Holcomb Middle", "lat": 37.9928, "lon": -100.9886, "proficiency": 0.22, "district": "Holcomb", "city": "Holcomb", "ncessch": "200735000798"}, {"name": "Holton Middle", "lat": 39.47089, "lon": -95.739046, "proficiency": 0.27, "district": "Holton", "city": "Holton", "ncessch": "200738000656"}, {"name": "Hope Elem", "lat": 38.690429, "lon": -97.073382, "proficiency": -0.03, "district": "Rural Vista", "city": "Hope", "ncessch": "200744001287"}, {"name": "White City Elem", "lat": 38.797242, "lon": -96.731919, "proficiency": 0.245, "district": "Rural Vista", "city": "White City", "ncessch": "200744001289"}, {"name": "Everest Middle", "lat": 39.6743, "lon": -95.4278, "proficiency": 0.15, "district": "South Brown County", "city": "Everest", "ncessch": "200747001040"}, {"name": "West Elk Schools", "lat": 37.461159, "lon": -96.254367, "proficiency": 0.15, "district": "West Elk", "city": "Howard", "ncessch": "200750002013"}, {"name": "Hoxie High", "lat": 39.3565, "lon": -100.4343, "proficiency": 0.15, "district": "Hoxie Community Schools", "city": "Hoxie", "ncessch": "200753000966"}, {"name": "Hugoton Middle", "lat": 37.168986, "lon": -101.34879, "proficiency": 0.075, "district": "Hugoton Public Schools", "city": "Hugoton", "ncessch": "200756000056"}, {"name": "Hugoton Learning Academy", "lat": 37.169198, "lon": -101.350355, "proficiency": -0.03, "district": "Hugoton Public Schools", "city": "Hugoton", "ncessch": "200756001965"}, {"name": "Humboldt Middle School", "lat": 37.8108, "lon": -95.433, "proficiency": 0.445, "district": "Humboldt", "city": "Humboldt", "ncessch": "200759000248"}, {"name": "Hutchinson High School", "lat": 38.06709, "lon": -97.914005, "proficiency": -0.03, "district": "Hutchinson Public Schools", "city": "Hutchinson", "ncessch": "200762000544"}, {"name": "Hutchinson Middle School 8", "lat": 38.069, "lon": -97.9359, "proficiency": 0.12, "district": "Hutchinson Public Schools", "city": "Hutchinson", "ncessch": "200762001635"}, {"name": "Independence Middle", "lat": 37.2282, "lon": -95.7101, "proficiency": 0.22, "district": "Independence", "city": "Independence", "ncessch": "200765001120"}, {"name": "Ingalls High School/Junior High", "lat": 37.828259, "lon": -100.450506, "proficiency": 0.1, "district": "Ingalls", "city": "Ingalls", "ncessch": "200768001273"}, {"name": "Inman Jr/Sr High School", "lat": 38.2279, "lon": -97.7751, "proficiency": 0.1, "district": "Inman", "city": "Inman", "ncessch": "200771001128"}, {"name": "Iola Middle School", "lat": 37.9227, "lon": -95.3976, "proficiency": 0.075, "district": "Iola", "city": "Iola", "ncessch": "200774000243"}, {"name": "Jayhawk-Linn High", "lat": 38.1337, "lon": -94.8289, "proficiency": 0.15, "district": "Jayhawk", "city": "Mound City", "ncessch": "200775000696"}, {"name": "Hodgeman County High", "lat": 38.0841, "lon": -99.8877, "proficiency": 0.1, "district": "Hodgeman County Schools", "city": "Jetmore", "ncessch": "200780000108"}, {"name": "Stanton County Jr./Sr. High School", "lat": 37.5756, "lon": -101.7541, "proficiency": 0.1, "district": "Stanton County", "city": "Johnson", "ncessch": "200786001145"}, {"name": "Fort Riley Middle School", "lat": 39.086256, "lon": -96.795282, "proficiency": 0.37, "district": "Geary County Schools", "city": "Fort Riley", "ncessch": "200789001265"}, {"name": "Junction City Middle School", "lat": 39.028276, "lon": -96.880075, "proficiency": 0.19, "district": "Geary County Schools", "city": "Junction City", "ncessch": "200789001266"}, {"name": "Central Middle", "lat": 39.095817, "lon": -94.633318, "proficiency": 0.025, "district": "Kansas City", "city": "Kansas City", "ncessch": "200795001414"}, {"name": "Carl B. Bruce Middle School", "lat": 39.131605, "lon": -94.651294, "proficiency": 0.025, "district": "Kansas City", "city": "Kansas City", "ncessch": "200795001415"}, {"name": "Argentine Middle", "lat": 39.0705, "lon": -94.6529, "proficiency": 0.025, "district": "Kansas City", "city": "Kansas City", "ncessch": "200795001417"}, {"name": "Rosedale Middle", "lat": 39.062073, "lon": -94.615583, "proficiency": 0.025, "district": "Kansas City", "city": "Kansas City", "ncessch": "200795001418"}, {"name": "Sumner Academy of Arts & Science", "lat": 39.1212, "lon": -94.6301, "proficiency": 0.32, "district": "Kansas City", "city": "Kansas City", "ncessch": "200795001419"}, {"name": "Arrowhead Middle", "lat": 39.1243, "lon": -94.767, "proficiency": 0.025, "district": "Kansas City", "city": "Kansas City", "ncessch": "200795001421"}, {"name": "D D Eisenhower Middle", "lat": 39.1392, "lon": -94.7441, "proficiency": 0.025, "district": "Kansas City", "city": "Kansas City", "ncessch": "200795001427"}, {"name": "Bridges/Wyandot Academy", "lat": 39.140135, "lon": -94.634159, "proficiency": -0.03, "district": "Kansas City", "city": "Kansas City", "ncessch": "200795002091"}, {"name": "Gloria Willis Middle School", "lat": 39.125618, "lon": -94.725918, "proficiency": 0.025, "district": "Kansas City", "city": "Kansas City", "ncessch": "200795002112"}, {"name": "Rossville Jr.-Sr. High School", "lat": 39.1324, "lon": -95.95, "proficiency": 0.15, "district": "Kaw Valley", "city": "Rossville", "ncessch": "200797000590"}, {"name": "St. Marys Junior Senior High", "lat": 39.1863, "lon": -96.0577, "proficiency": 0.345, "district": "Kaw Valley", "city": "St Marys", "ncessch": "200797000592"}, {"name": "Crest Elementary", "lat": 38.0723, "lon": -95.361, "proficiency": 0.1, "district": "Crest", "city": "Colony", "ncessch": "200804001274"}, {"name": "Norwich Middle School", "lat": 37.4576, "lon": -97.8469, "proficiency": 0.245, "district": "Kingman - Norwich", "city": "Norwich", "ncessch": "200807001969"}, {"name": "Kingman Middle School", "lat": 37.66183, "lon": -98.114857, "proficiency": 0.05, "district": "Kingman - Norwich", "city": "Kingman", "ncessch": "200807001993"}, {"name": "Kinsley Jr/Sr High School", "lat": 37.921095, "lon": -99.413352, "proficiency": 0.1, "district": "Kinsley-Offerle", "city": "Kinsley", "ncessch": "200810001944"}, {"name": "South Barber 7-12", "lat": 37.027948, "lon": -98.481804, "proficiency": 0.245, "district": "South Barber", "city": "Kiowa", "ncessch": "200813001966"}, {"name": "Southwestern Heights Jr/Sr High", "lat": 37.228954, "lon": -100.647178, "proficiency": 0.05, "district": "Kismet-Plains", "city": "Kismet", "ncessch": "200819001300"}, {"name": "La Crosse Middle School", "lat": 38.526719, "lon": -99.30527, "proficiency": 0.1, "district": "LaCrosse", "city": "La Crosse", "ncessch": "200822000891"}, {"name": "Prairie View Middle", "lat": 38.342977, "lon": -94.852384, "proficiency": 0.12, "district": "Prairie View", "city": "LaCygne", "ncessch": "200825000754"}, {"name": "Lakin Middle", "lat": 37.9411, "lon": -101.2667, "proficiency": 0.245, "district": "Lakin", "city": "Lakin", "ncessch": "200828001637"}, {"name": "Fairfield Schools", "lat": 37.869484, "lon": -98.323995, "proficiency": 0.1, "district": "Fairfield", "city": "Langdon", "ncessch": "200831002025"}, {"name": "Lansing Middle 6-8", "lat": 39.242903, "lon": -94.894184, "proficiency": 0.32, "district": "Lansing", "city": "Lansing", "ncessch": "200834001664"}, {"name": "Larned Middle School", "lat": 38.183417, "lon": -99.109052, "proficiency": 0.245, "district": "Ft Larned", "city": "Larned", "ncessch": "200837001354"}, {"name": "Lawrence Southwest Middle School", "lat": 38.9379, "lon": -95.2995, "proficiency": 0.22, "district": "Lawrence", "city": "Lawrence", "ncessch": "200840000876"}, {"name": "Lawrence Liberty Memorial Central Mid School", "lat": 38.9577, "lon": -95.2348, "proficiency": 0.12, "district": "Lawrence", "city": "Lawrence", "ncessch": "200840001375"}, {"name": "Billy Mills Middle School", "lat": 38.9349, "lon": -95.2395, "proficiency": 0.17, "district": "Lawrence", "city": "Lawrence", "ncessch": "200840001376"}, {"name": "Lawrence West Middle School", "lat": 38.9657, "lon": -95.2678, "proficiency": 0.22, "district": "Lawrence", "city": "Lawrence", "ncessch": "200840001377"}, {"name": "Lawrence Virtual School", "lat": 38.98117, "lon": -95.257511, "proficiency": 0.37, "district": "Lawrence", "city": "Lawrence", "ncessch": "200840001776"}, {"name": "Leavenworth Virtual School", "lat": 39.3073, "lon": -94.9154, "proficiency": 0.245, "district": "Leavenworth", "city": "Leavenworth", "ncessch": "200843001850"}, {"name": "Richard Warren Middle School", "lat": 39.283605, "lon": -94.933119, "proficiency": 0.025, "district": "Leavenworth", "city": "Leavenworth", "ncessch": "200843002030"}, {"name": "Bluestem Jr/Sr High", "lat": 37.6832, "lon": -96.7879, "proficiency": 0.05, "district": "Bluestem", "city": "Leon", "ncessch": "200855000038"}, {"name": "Wichita County Junior-Senior High School", "lat": 38.483135, "lon": -101.368084, "proficiency": 0.05, "district": "Leoti", "city": "Leoti", "ncessch": "200861001952"}, {"name": "Southern Coffey County Middle School", "lat": 38.0869, "lon": -95.6341, "proficiency": 0.245, "district": "LeRoy-Gridley", "city": "Gridley", "ncessch": "200867001794"}, {"name": "Eisenhower Middle School", "lat": 37.06271, "lon": -100.942519, "proficiency": 0.025, "district": "Liberal", "city": "Liberal", "ncessch": "200873002080"}, {"name": "Seymour Rogers Middle School", "lat": 37.030437, "lon": -100.911168, "proficiency": 0.025, "district": "Liberal", "city": "Liberal", "ncessch": "200873002095"}, {"name": "Lincoln Jr/Sr High", "lat": 39.043254, "lon": -98.136598, "proficiency": 0.1, "district": "Lincoln", "city": "Lincoln", "ncessch": "200879000487"}, {"name": "Little River Junior High", "lat": 38.398606, "lon": -98.015435, "proficiency": 0.1, "district": "Little River", "city": "Little River", "ncessch": "200888001101"}, {"name": "Logan High", "lat": 39.664867, "lon": -99.573943, "proficiency": 0.245, "district": "Logan", "city": "Logan", "ncessch": "200891000608"}, {"name": "Centre", "lat": 38.523496, "lon": -96.952625, "proficiency": 0.1, "district": "Centre", "city": "Lost Springs", "ncessch": "200894002012"}, {"name": "Louisburg Middle", "lat": 38.619733, "lon": -94.669204, "proficiency": 0.17, "district": "Louisburg", "city": "Louisburg", "ncessch": "200897001638"}, {"name": "Lyndon Elem", "lat": 38.608367, "lon": -95.678972, "proficiency": 0.3, "district": "Lyndon", "city": "Lyndon", "ncessch": "200900001007"}, {"name": "Lyons Middle School", "lat": 38.333935, "lon": -98.198315, "proficiency": 0.05, "district": "Lyons", "city": "Lyons", "ncessch": "200903000929"}, {"name": "Macksville High", "lat": 37.961166, "lon": -98.96585, "proficiency": 0.1, "district": "Macksville", "city": "Macksville", "ncessch": "200906000713"}, {"name": "Madison High", "lat": 38.124399, "lon": -96.137495, "proficiency": 0.1, "district": "Madison-Virgil", "city": "Madison", "ncessch": "200909000862"}, {"name": "Maize South Middle School", "lat": 37.746078, "lon": -97.451113, "proficiency": 0.27, "district": "Maize", "city": "Wichita", "ncessch": "200914000384"}, {"name": "Maize Middle School", "lat": 37.767409, "lon": -97.46205, "proficiency": 0.28, "district": "Maize", "city": "Maize", "ncessch": "200914001105"}, {"name": "Maize Virtual Preparatory School", "lat": 37.775573, "lon": -97.46895, "proficiency": 0.75, "district": "Maize", "city": "Maize", "ncessch": "200914002083"}, {"name": "Susan B Anthony Middle School", "lat": 39.213, "lon": -96.609, "proficiency": 0.37, "district": "Manhattan-Ogden", "city": "Manhattan", "ncessch": "200918001049"}, {"name": "Dwight D Eisenhower Middle School", "lat": 39.2171, "lon": -96.5713, "proficiency": 0.22, "district": "Manhattan-Ogden", "city": "Manhattan", "ncessch": "200918001067"}, {"name": "Marion Middle", "lat": 38.347662, "lon": -97.01474, "proficiency": 0.495, "district": "Marion-Florence", "city": "Marion", "ncessch": "200924000947"}, {"name": "Royal Valley Middle School", "lat": 39.3363, "lon": -95.7193, "proficiency": 0.245, "district": "Royal Valley", "city": "Mayetta", "ncessch": "200932000661"}, {"name": "McLouth Middle", "lat": 39.1959, "lon": -95.2118, "proficiency": 0.05, "district": "McLouth", "city": "McLouth", "ncessch": "200936000992"}, {"name": "McPherson Middle School", "lat": 38.3676, "lon": -97.6566, "proficiency": 0.17, "district": "McPherson", "city": "McPherson", "ncessch": "200939000998"}, {"name": "Meade Elem", "lat": 37.2881, "lon": -100.3364, "proficiency": 0.3, "district": "Meade", "city": "Meade", "ncessch": "200942000105"}, {"name": "Medicine Lodge Jr/Sr High School", "lat": 37.292137, "lon": -98.584107, "proficiency": 0.245, "district": "Barber County North", "city": "Medicine Lodge", "ncessch": "200945001931"}, {"name": "Marais Des Cygnes Valley Middle", "lat": 38.510918, "lon": -95.637281, "proficiency": 0.245, "district": "Marais Des Cygnes Valley", "city": "Melvern", "ncessch": "200948001167"}, {"name": "Jefferson West Middle", "lat": 39.1926, "lon": -95.5606, "proficiency": 0.22, "district": "Jefferson West", "city": "Meriden", "ncessch": "200951000669"}, {"name": "Minneapolis Jr-Sr High School", "lat": 39.126339, "lon": -97.698841, "proficiency": 0.245, "district": "North Ottawa County", "city": "Minneapolis", "ncessch": "200957000163"}, {"name": "Minneola Elem", "lat": 37.438958, "lon": -100.012992, "proficiency": 0.495, "district": "Minneola", "city": "Minneola", "ncessch": "200960000082"}, {"name": "Marmaton Valley High", "lat": 37.9194, "lon": -95.171, "proficiency": 0.1, "district": "Marmaton Valley", "city": "Moran", "ncessch": "200966000238"}, {"name": "Moscow High", "lat": 37.321474, "lon": -101.204336, "proficiency": 0.245, "district": "Moscow Public Schools", "city": "Moscow", "ncessch": "200972000054"}, {"name": "Moundridge Middle", "lat": 38.202178, "lon": -97.510762, "proficiency": 0.245, "district": "Moundridge", "city": "Moundridge", "ncessch": "200978001013"}, {"name": "Mulvane Middle School", "lat": 37.4835, "lon": -97.2456, "proficiency": 0.17, "district": "Mulvane", "city": "Mulvane", "ncessch": "200984001315"}, {"name": "Natoma High (6-12)", "lat": 39.1925, "lon": -99.0237, "proficiency": 0.245, "district": "Paradise", "city": "Natoma", "ncessch": "200985000905"}, {"name": "Neodesha High", "lat": 37.427709, "lon": -95.685019, "proficiency": 0.12, "district": "Neodesha", "city": "Neodesha", "ncessch": "200990001197"}, {"name": "Ness City High", "lat": 38.4551, "lon": -99.8973, "proficiency": 0.1, "district": "Ness City", "city": "Ness City", "ncessch": "200993000500"}, {"name": "Newton Sr High", "lat": 38.059444, "lon": -97.363543, "proficiency": -0.03, "district": "Newton", "city": "Newton", "ncessch": "200996000796"}, {"name": "Chisholm Middle School", "lat": 38.044381, "lon": -97.330084, "proficiency": 0.17, "district": "Newton", "city": "Newton", "ncessch": "200996001975"}, {"name": "Opportunity Academy", "lat": 38.051844, "lon": -97.362928, "proficiency": -0.03, "district": "Newton", "city": "Newton", "ncessch": "200996002109"}, {"name": "Reno Valley Middle School", "lat": 38.0711, "lon": -97.9769, "proficiency": 0.22, "district": "Nickerson", "city": "Hutchinson", "ncessch": "200999000548"}, {"name": "South Hutchinson Elem", "lat": 38.022843, "lon": -97.936912, "proficiency": -0.03, "district": "Nickerson", "city": "South Hutchinson", "ncessch": "200999000549"}, {"name": "Central State Academy", "lat": 38.143324, "lon": -98.086735, "proficiency": 0.245, "district": "Nickerson", "city": "Hutchinson", "ncessch": "200999002092"}, {"name": "Norton Jr High", "lat": 39.836675, "lon": -99.894784, "proficiency": 0.15, "district": "Norton Community Schools", "city": "Norton", "ncessch": "201002000059"}, {"name": "Oakley Middle School", "lat": 39.1317, "lon": -100.8543, "proficiency": 0.05, "district": "Oakley", "city": "Oakley", "ncessch": "201005001707"}, {"name": "Decatur Community Jr/Sr High", "lat": 39.819953, "lon": -100.522372, "proficiency": 0.1, "district": "Oberlin", "city": "Oberlin", "ncessch": "201008000477"}, {"name": "Santa Fe Trail Middle School", "lat": 38.8993, "lon": -94.7959, "proficiency": 0.17, "district": "Olathe", "city": "Olathe", "ncessch": "201014000135"}, {"name": "Oregon Trail Middle School", "lat": 38.8703, "lon": -94.8478, "proficiency": 0.17, "district": "Olathe", "city": "Olathe", "ncessch": "201014000136"}, {"name": "California Trail Middle School", "lat": 38.886, "lon": -94.7466, "proficiency": 0.37, "district": "Olathe", "city": "Olathe", "ncessch": "201014001019"}, {"name": "Chisholm Trail Middle School", "lat": 38.8413, "lon": -94.782, "proficiency": 0.47, "district": "Olathe", "city": "Olathe", "ncessch": "201014001548"}, {"name": "Indian Trail Middle School", "lat": 38.8557, "lon": -94.7955, "proficiency": 0.17, "district": "Olathe", "city": "Olathe", "ncessch": "201014001601"}, {"name": "Pioneer Trail Middle School", "lat": 38.8994, "lon": -94.7643, "proficiency": 0.17, "district": "Olathe", "city": "Olathe", "ncessch": "201014001655"}, {"name": "Frontier Trail Middle School", "lat": 38.8704, "lon": -94.7636, "proficiency": 0.42, "district": "Olathe", "city": "Olathe", "ncessch": "201014001676"}, {"name": "Prairie Trail Middle School", "lat": 38.9354, "lon": -94.8363, "proficiency": 0.42, "district": "Olathe", "city": "Olathe", "ncessch": "201014001761"}, {"name": "Mission Trail Middle School", "lat": 38.89634, "lon": -94.86806, "proficiency": 0.37, "district": "Olathe", "city": "Olathe", "ncessch": "201014001971"}, {"name": "Summit Trail Middle School", "lat": 38.914472, "lon": -94.842859, "proficiency": 0.32, "district": "Olathe", "city": "Olathe", "ncessch": "201014002102"}, {"name": "Onaga Elem", "lat": 39.4912, "lon": -96.1662, "proficiency": 0.3, "district": "Onaga-Havensville-Wheaton", "city": "Onaga", "ncessch": "201017000594"}, {"name": "Osage City Middle School", "lat": 38.630403, "lon": -95.826957, "proficiency": 0.37, "district": "Osage City", "city": "Osage City", "ncessch": "201023001839"}, {"name": "Osawatomie Middle School", "lat": 38.497707, "lon": -94.947101, "proficiency": 0.025, "district": "Osawatomie", "city": "Osawatomie", "ncessch": "201026000773"}, {"name": "Osborne Junior/Senior High", "lat": 39.4404, "lon": -98.697, "proficiency": 0.3, "district": "Osborne County", "city": "Osborne", "ncessch": "201029000882"}, {"name": "Oskaloosa JR-SR High School", "lat": 39.2213, "lon": -95.314, "proficiency": 0.05, "district": "Oskaloosa Public Schools", "city": "Oskaloosa", "ncessch": "201032001887"}, {"name": "Service Valley Charter Academy", "lat": 37.310124, "lon": -95.123019, "proficiency": 0.245, "district": "Oswego", "city": "Oswego", "ncessch": "201035001490"}, {"name": "Oswego Junior-Senior High School", "lat": 37.1746, "lon": -95.1171, "proficiency": 0.1, "district": "Oswego", "city": "Oswego", "ncessch": "201035001491"}, {"name": "Carbondale Attendance Center", "lat": 38.821612, "lon": -95.68925, "proficiency": 0.15, "district": "Santa Fe Trail", "city": "Carbondale", "ncessch": "201041001054"}, {"name": "Oxford Jr/Sr High", "lat": 37.279544, "lon": -97.165013, "proficiency": 0.3, "district": "Oxford", "city": "Oxford", "ncessch": "201044000739"}, {"name": "Palco Jr. High", "lat": 39.249821, "lon": -99.565203, "proficiency": 0.245, "district": "Palco", "city": "Palco", "ncessch": "201047000396"}, {"name": "Paola Middle", "lat": 38.5763, "lon": -94.8624, "proficiency": 0.32, "district": "Paola", "city": "Paola", "ncessch": "201050000776"}, {"name": "Parsons Middle School", "lat": 37.3409, "lon": -95.2779, "proficiency": 0.22, "district": "Parsons", "city": "Parsons", "ncessch": "201056001486"}, {"name": "Peabody-Burns Jr/Sr High School", "lat": 38.1734, "lon": -97.1049, "proficiency": 0.245, "district": "Peabody-Burns", "city": "Peabody", "ncessch": "201059000902"}, {"name": "Perry-Lecompton Middle", "lat": 39.078279, "lon": -95.383835, "proficiency": 0.15, "district": "Perry Public Schools", "city": "Perry", "ncessch": "201062000677"}, {"name": "Phillipsburg Middle", "lat": 39.7554, "lon": -99.3195, "proficiency": 0.05, "district": "Phillipsburg", "city": "Phillipsburg", "ncessch": "201065000605"}, {"name": "Piper Middle", "lat": 39.1668, "lon": -94.8313, "proficiency": 0.17, "district": "Piper-Kansas City", "city": "Kansas City", "ncessch": "201068001681"}, {"name": "Pittsburg Middle School", "lat": 37.4197, "lon": -94.7029, "proficiency": 0.37, "district": "Pittsburg", "city": "Pittsburg", "ncessch": "201071001591"}, {"name": "Plainville High", "lat": 39.2317, "lon": -99.2961, "proficiency": 0.1, "district": "Plainville", "city": "Plainville", "ncessch": "201074000400"}, {"name": "Pleasanton High", "lat": 38.1747, "lon": -94.7196, "proficiency": 0.05, "district": "Pleasanton", "city": "Pleasanton", "ncessch": "201077000681"}, {"name": "West Franklin Middle School", "lat": 38.610083, "lon": -95.445039, "proficiency": 0.245, "district": "West Franklin", "city": "Pomona", "ncessch": "201080001894"}, {"name": "Liberty Middle School", "lat": 37.6436, "lon": -98.7422, "proficiency": 0.22, "district": "Pratt", "city": "Pratt", "ncessch": "201089000841"}, {"name": "Pretty Prairie Middle", "lat": 37.7815, "lon": -98.0171, "proficiency": 0.1, "district": "Pretty Prairie", "city": "Pretty Prairie", "ncessch": "201092000557"}, {"name": "Quinter Jr-Sr High", "lat": 39.06616, "lon": -100.23144, "proficiency": 0.1, "district": "Quinter Public Schools", "city": "Quinter", "ncessch": "201095000473"}, {"name": "Randolph Middle", "lat": 39.4337, "lon": -96.7602, "proficiency": 0.1, "district": "Blue Valley", "city": "Randolph", "ncessch": "201098000856"}, {"name": "Golden Plains Middle", "lat": 39.466294, "lon": -100.74327, "proficiency": 0.1, "district": "Golden Plains", "city": "Rexford", "ncessch": "201104000574"}, {"name": "Andale Elem-Middle", "lat": 37.7937, "lon": -97.6319, "proficiency": 0.345, "district": "Renwick", "city": "Andale", "ncessch": "201108000386"}, {"name": "Colwich Elem", "lat": 37.7783, "lon": -97.5416, "proficiency": 0.695, "district": "Renwick", "city": "Colwich", "ncessch": "201108000388"}, {"name": "Garden Plain Elem", "lat": 37.6607, "lon": -97.6788, "proficiency": 0.445, "district": "Renwick", "city": "Garden Plain", "ncessch": "201108000389"}, {"name": "St. Marks School", "lat": 37.735089, "lon": -97.560238, "proficiency": 0.445, "district": "Renwick", "city": "Colwich", "ncessch": "201108002034"}, {"name": "Riley County Grade School", "lat": 39.299667, "lon": -96.827217, "proficiency": 0.645, "district": "Riley County", "city": "Riley", "ncessch": "201110000819"}, {"name": "Riverton Middle", "lat": 37.073, "lon": -94.7058, "proficiency": 0.05, "district": "Riverton", "city": "Riverton", "ncessch": "201113000872"}, {"name": "Rolla JH/HS (6-12)", "lat": 37.1206, "lon": -101.6299, "proficiency": 0.245, "district": "Rolla", "city": "Rolla", "ncessch": "201119000077"}, {"name": "Flinthills Middle School", "lat": 37.813328, "lon": -96.618697, "proficiency": 0.1, "district": "Flinthills", "city": "Rosalia", "ncessch": "201122001951"}, {"name": "Rose Hill Middle", "lat": 37.555115, "lon": -97.13312, "proficiency": 0.17, "district": "Rose Hill Public Schools", "city": "Rose Hill", "ncessch": "201125001592"}, {"name": "Pawnee Heights", "lat": 38.198001, "lon": -99.400342, "proficiency": 0.245, "district": "Pawnee Heights", "city": "Rozel", "ncessch": "201128002033"}, {"name": "Ruppenthal Middle", "lat": 38.889944, "lon": -98.857835, "proficiency": 0.05, "district": "Russell County", "city": "Russell", "ncessch": "201131000944"}, {"name": "Lakewood Middle School", "lat": 38.845694, "lon": -97.591092, "proficiency": 0.075, "district": "Salina", "city": "Salina", "ncessch": "201137000519"}, {"name": "Salina South Middle", "lat": 38.807759, "lon": -97.609326, "proficiency": 0.27, "district": "Salina", "city": "Salina", "ncessch": "201137000520"}, {"name": "Satanta Jr-Sr High", "lat": 37.4399, "lon": -100.982, "proficiency": 0.1, "district": "Satanta", "city": "Satanta", "ncessch": "201140001503"}, {"name": "Skyline Elem", "lat": 37.639823, "lon": -98.783756, "proficiency": 0.245, "district": "Skyline Schools", "city": "Pratt", "ncessch": "201143001074"}, {"name": "Seaman Middle School", "lat": 39.145714, "lon": -95.6626, "proficiency": 0.17, "district": "Seaman", "city": "Topeka", "ncessch": "201149001921"}, {"name": "Sedan High", "lat": 37.129592, "lon": -96.182947, "proficiency": 0.1, "district": "Chautauqua Co Community", "city": "Sedan", "ncessch": "201152000446"}, {"name": "Sedgwick High", "lat": 37.9167, "lon": -97.4302, "proficiency": 0.15, "district": "Sedgwick Public Schools", "city": "Sedgwick", "ncessch": "201155001077"}, {"name": "Sharon Springs Elem", "lat": 38.9001, "lon": -101.752, "proficiency": 0.245, "district": "Wallace County Schools", "city": "Sharon Springs", "ncessch": "201161000168"}, {"name": "Westridge Middle", "lat": 38.9593, "lon": -94.7158, "proficiency": 0.13, "district": "Shawnee Mission Pub Sch", "city": "Shawnee Mission", "ncessch": "201164001565"}, {"name": "Hocker Grove Middle", "lat": 39.0236, "lon": -94.7066, "proficiency": 0.17, "district": "Shawnee Mission Pub Sch", "city": "Shawnee Mission", "ncessch": "201164001566"}, {"name": "Indian Hills Middle", "lat": 39.0142, "lon": -94.6316, "proficiency": 0.39, "district": "Shawnee Mission Pub Sch", "city": "Shawnee Mission", "ncessch": "201164001568"}, {"name": "Indian Woods Middle", "lat": 38.9522, "lon": -94.6553, "proficiency": 0.34, "district": "Shawnee Mission Pub Sch", "city": "Shawnee Mission", "ncessch": "201164001571"}, {"name": "Trailridge Middle", "lat": 38.9922, "lon": -94.7248, "proficiency": 0.23, "district": "Shawnee Mission Pub Sch", "city": "Shawnee Mission", "ncessch": "201164001573"}, {"name": "Silver Lake Jr-Sr High", "lat": 39.1021, "lon": -95.8556, "proficiency": 0.42, "district": "Silver Lake", "city": "Silver Lake", "ncessch": "201170000785"}, {"name": "Solomon Elem", "lat": 38.9229, "lon": -97.3694, "proficiency": 0.3, "district": "Solomon", "city": "Solomon", "ncessch": "201176000883"}, {"name": "South Haven High", "lat": 37.048, "lon": -97.3979, "proficiency": 0.3, "district": "South Haven", "city": "South Haven", "ncessch": "201179001510"}, {"name": "Spearville Jr/Sr High", "lat": 37.850008, "lon": -99.752812, "proficiency": 0.1, "district": "Spearville", "city": "Spearville", "ncessch": "201182000837"}, {"name": "Spring Hill Middle School", "lat": 38.737716, "lon": -94.820793, "proficiency": 0.22, "district": "Spring Hill", "city": "Spring Hill", "ncessch": "201185000119"}, {"name": "Insight School of Kansas", "lat": 38.738043, "lon": -94.824783, "proficiency": 0.075, "district": "Spring Hill", "city": "Spring Hill", "ncessch": "201185001918"}, {"name": "Woodland Spring Middle School", "lat": 38.827571, "lon": -94.787396, "proficiency": 0.57, "district": "Spring Hill", "city": "Olathe", "ncessch": "201185002111"}, {"name": "St Francis High", "lat": 39.774003, "lon": -101.79528, "proficiency": 0.3, "district": "St Francis Comm Sch", "city": "St Francis", "ncessch": "201188000484"}, {"name": "St John High", "lat": 38.0042, "lon": -98.7593, "proficiency": 0.1, "district": "St John-Hudson", "city": "St. John", "ncessch": "201191000711"}, {"name": "Stafford Middle School/High School", "lat": 37.962551, "lon": -98.594214, "proficiency": 0.245, "district": "Stafford", "city": "Stafford", "ncessch": "201197000708"}, {"name": "Harmony Middle", "lat": 38.8708, "lon": -94.6988, "proficiency": 0.37, "district": "Blue Valley", "city": "Overland Park", "ncessch": "201200000012"}, {"name": "Blue Valley Middle", "lat": 38.8324, "lon": -94.6408, "proficiency": 0.22, "district": "Blue Valley", "city": "Overland Park", "ncessch": "201200000115"}, {"name": "Prairie Star Middle", "lat": 38.8715, "lon": -94.6294, "proficiency": 0.37, "district": "Blue Valley", "city": "Leawood", "ncessch": "201200000994"}, {"name": "Pleasant Ridge Middle", "lat": 38.8308, "lon": -94.6921, "proficiency": 0.27, "district": "Blue Valley", "city": "Overland Park", "ncessch": "201200001291"}, {"name": "Leawood Middle", "lat": 38.908534, "lon": -94.614424, "proficiency": 0.32, "district": "Blue Valley", "city": "Leawood", "ncessch": "201200001606"}, {"name": "Oxford Middle", "lat": 38.9028, "lon": -94.7064, "proficiency": 0.22, "district": "Blue Valley", "city": "Overland Park", "ncessch": "201200001671"}, {"name": "Overland Trail Middle", "lat": 38.8857, "lon": -94.6548, "proficiency": 0.37, "district": "Blue Valley", "city": "Overland Park", "ncessch": "201200001686"}, {"name": "Lakewood Middle", "lat": 38.8631, "lon": -94.6621, "proficiency": 0.37, "district": "Blue Valley", "city": "Overland Park", "ncessch": "201200001700"}, {"name": "Aubry Bend Middle School", "lat": 38.809059, "lon": -94.73183, "proficiency": 0.22, "district": "Blue Valley", "city": "Overland Park", "ncessch": "201200002045"}, {"name": "Sterling Junior High/Senior High", "lat": 38.2157, "lon": -98.2031, "proficiency": 0.345, "district": "Sterling", "city": "Sterling", "ncessch": "201203000809"}, {"name": "Stockton High", "lat": 39.437722, "lon": -99.277952, "proficiency": 0.05, "district": "Stockton", "city": "Stockton", "ncessch": "201206000402"}, {"name": "Sublette Middle", "lat": 37.476539, "lon": -100.848306, "proficiency": 0.1, "district": "Sublette", "city": "Sublette", "ncessch": "201209001687"}, {"name": "Sylvan-Lucas Unified Jr. sr", "lat": 39.014533, "lon": -98.401168, "proficiency": 0.1, "district": "Sylvan Grove", "city": "Sylvan Grove", "ncessch": "201212001976"}, {"name": "Syracuse High", "lat": 37.984862, "lon": -101.751845, "proficiency": 0.05, "district": "Syracuse", "city": "Syracuse", "ncessch": "201215001348"}, {"name": "Shawnee Heights Middle", "lat": 38.9888, "lon": -95.5582, "proficiency": 0.19, "district": "Shawnee Heights", "city": "Tecumseh", "ncessch": "201218001136"}, {"name": "Tonganoxie Middle School", "lat": 39.100349, "lon": -95.083186, "proficiency": 0.12, "district": "Tonganoxie", "city": "Tonganoxie", "ncessch": "201221001865"}, {"name": "Avondale Academy", "lat": 39.062016, "lon": -95.707152, "proficiency": -0.03, "district": "Topeka Public Schools", "city": "Topeka", "ncessch": "201226001440"}, {"name": "Robinson Middle School", "lat": 39.0406, "lon": -95.6924, "proficiency": 0.075, "district": "Topeka Public Schools", "city": "Topeka", "ncessch": "201226001442"}, {"name": "Eisenhower Middle School", "lat": 39.0067, "lon": -95.6571, "proficiency": 0.22, "district": "Topeka Public Schools", "city": "Topeka", "ncessch": "201226001469"}, {"name": "Capital City", "lat": 39.061083, "lon": -95.710119, "proficiency": -0.03, "district": "Topeka Public Schools", "city": "Topeka", "ncessch": "201226001471"}, {"name": "Jardine Middle School", "lat": 39.0099, "lon": -95.7091, "proficiency": 0.075, "district": "Topeka Public Schools", "city": "Topeka", "ncessch": "201226001472"}, {"name": "Marjorie French Middle School", "lat": 39.0072, "lon": -95.7466, "proficiency": 0.22, "district": "Topeka Public Schools", "city": "Topeka", "ncessch": "201226001474"}, {"name": "Chase Middle School", "lat": 39.0614, "lon": -95.6421, "proficiency": 0.12, "district": "Topeka Public Schools", "city": "Topeka", "ncessch": "201226001595"}, {"name": "Landon Middle School", "lat": 39.055, "lon": -95.7444, "proficiency": 0.17, "district": "Topeka Public Schools", "city": "Topeka", "ncessch": "201226001688"}, {"name": "Circle Middle School", "lat": 37.7953, "lon": -97.111, "proficiency": 0.075, "district": "Circle", "city": "Benton", "ncessch": "201230001738"}, {"name": "Troy High and Middle School", "lat": 39.784381, "lon": -95.095561, "proficiency": 0.3, "district": "Troy Public Schools", "city": "Troy", "ncessch": "201233001039"}, {"name": "Turner Middle School", "lat": 39.0756, "lon": -94.7056, "proficiency": 0.025, "district": "Turner-Kansas City", "city": "Kansas City", "ncessch": "201236001520"}, {"name": "Udall Middle School", "lat": 37.3844, "lon": -97.121, "proficiency": 0.1, "district": "Udall", "city": "Udall", "ncessch": "201239001583"}, {"name": "Kepley Middle School", "lat": 37.5814, "lon": -101.3639, "proficiency": 0.12, "district": "Ulysses", "city": "Ulysses", "ncessch": "201242000067"}, {"name": "Uniontown High School", "lat": 37.8493, "lon": -94.972, "proficiency": 0.05, "district": "Uniontown", "city": "Uniontown", "ncessch": "201245000150"}, {"name": "Valley Center Middle School", "lat": 37.844512, "lon": -97.370774, "proficiency": 0.22, "district": "Valley Center Pub Sch", "city": "Valley Center", "ncessch": "201251000369"}, {"name": "Valley Falls Elem", "lat": 39.3429, "lon": -95.4603, "proficiency": 0.15, "district": "Valley Falls", "city": "Valley Falls", "ncessch": "201254000662"}, {"name": "Victoria Junior-Senior High School", "lat": 38.857418, "lon": -99.144559, "proficiency": 0.1, "district": "Victoria", "city": "Victoria", "ncessch": "201260001999"}, {"name": "Trego Grade School", "lat": 39.030587, "lon": -99.881702, "proficiency": 0.1, "district": "Wakeeney", "city": "WaKeeney", "ncessch": "201263000050"}, {"name": "Valley Heights Jr/Sr High", "lat": 39.6865, "lon": -96.7117, "proficiency": 0.245, "district": "Valley Heights", "city": "Blue Rapids", "ncessch": "201278001383"}, {"name": "Lebo High", "lat": 38.417373, "lon": -95.858545, "proficiency": 0.3, "district": "Lebo-Waverly", "city": "Lebo", "ncessch": "201281000174"}, {"name": "Waverly High", "lat": 38.3957, "lon": -95.601, "proficiency": 0.245, "district": "Lebo-Waverly", "city": "Waverly", "ncessch": "201281000176"}, {"name": "Wellington Middle School", "lat": 37.270838, "lon": -97.393491, "proficiency": 0.025, "district": "Wellington", "city": "Wellington", "ncessch": "201284000727"}, {"name": "Wellsville Middle School", "lat": 38.7172, "lon": -95.0848, "proficiency": 0.37, "district": "Wellsville", "city": "Wellsville", "ncessch": "201287001733"}, {"name": "Weskan High", "lat": 38.865524, "lon": -101.964182, "proficiency": -0.03, "district": "Weskan", "city": "Weskan", "ncessch": "201290000172"}, {"name": "Levy Sp Ed Center", "lat": 37.6889, "lon": -97.4342, "proficiency": 0.245, "district": "Wichita", "city": "Wichita", "ncessch": "201299000113"}, {"name": "Wells Alternative Middle School", "lat": 37.629593, "lon": -97.322885, "proficiency": 0.1, "district": "Wichita", "city": "Wichita", "ncessch": "201299000321"}, {"name": "Allison Traditional Magnet Middle", "lat": 37.6825, "lon": -97.3536, "proficiency": 0.17, "district": "Wichita", "city": "Wichita", "ncessch": "201299000326"}, {"name": "Brooks Magnet Middle School", "lat": 37.735, "lon": -97.2915, "proficiency": 0.17, "district": "Wichita", "city": "Wichita", "ncessch": "201299000327"}, {"name": "Curtis Middle School", "lat": 37.668595, "lon": -97.272064, "proficiency": 0.025, "district": "Wichita", "city": "Wichita", "ncessch": "201299000328"}, {"name": "Coleman Middle School", "lat": 37.7115, "lon": -97.2528, "proficiency": 0.075, "district": "Wichita", "city": "Wichita", "ncessch": "201299000329"}, {"name": "Hadley Middle School", "lat": 37.7041, "lon": -97.3956, "proficiency": 0.025, "district": "Wichita", "city": "Wichita", "ncessch": "201299000330"}, {"name": "Hamilton Middle School", "lat": 37.667, "lon": -97.3361, "proficiency": 0.025, "district": "Wichita", "city": "Wichita", "ncessch": "201299000331"}, {"name": "Horace Mann Dual Language Magnet", "lat": 37.7052, "lon": -97.3375, "proficiency": 0.15, "district": "Wichita", "city": "Wichita", "ncessch": "201299000333"}, {"name": "Mayberry Cultural and Fine Arts Magnet Middle", "lat": 37.682, "lon": -97.3816, "proficiency": 0.075, "district": "Wichita", "city": "Wichita", "ncessch": "201299000337"}, {"name": "Pleasant Valley Middle School", "lat": 37.7383, "lon": -97.3683, "proficiency": 0.025, "district": "Wichita", "city": "Wichita", "ncessch": "201299000339"}, {"name": "Robinson Middle School", "lat": 37.6913, "lon": -97.28, "proficiency": 0.32, "district": "Wichita", "city": "Wichita", "ncessch": "201299000340"}, {"name": "Wilbur Middle School", "lat": 37.6882, "lon": -97.4427, "proficiency": 0.12, "district": "Wichita", "city": "Wichita", "ncessch": "201299000342"}, {"name": "Truesdell Middle School", "lat": 37.649644, "lon": -97.361185, "proficiency": 0.03, "district": "Wichita", "city": "Wichita", "ncessch": "201299000343"}, {"name": "Stucky Middle School", "lat": 37.7643, "lon": -97.2876, "proficiency": 0.075, "district": "Wichita", "city": "Wichita", "ncessch": "201299001799"}, {"name": "Jardine Technology Middle Magnet", "lat": 37.6424, "lon": -97.2954, "proficiency": 0.075, "district": "Wichita", "city": "Wichita", "ncessch": "201299001800"}, {"name": "Gordon Parks Academy", "lat": 37.72937, "lon": -97.310201, "proficiency": 0.05, "district": "Wichita", "city": "Wichita", "ncessch": "201299001904"}, {"name": "Marshall Middle School", "lat": 37.710566, "lon": -97.352449, "proficiency": 0.075, "district": "Wichita", "city": "Wichita", "ncessch": "201299001908"}, {"name": "Mead Middle School", "lat": 37.658423, "lon": -97.30579, "proficiency": 0.025, "district": "Wichita", "city": "Wichita", "ncessch": "201299001919"}, {"name": "Christa McAuliffe Academy", "lat": 37.655149, "lon": -97.172874, "proficiency": 0.12, "district": "Wichita", "city": "Wichita", "ncessch": "201299002056"}, {"name": "Education Imagine Academy", "lat": 37.681961, "lon": -97.337767, "proficiency": 0.1, "district": "Wichita", "city": "Wichita", "ncessch": "201299002063"}, {"name": "Jefferson County North Elem/Middle", "lat": 39.4154, "lon": -95.3222, "proficiency": 0.3, "district": "Jefferson County North", "city": "Nortonville", "ncessch": "201302001239"}, {"name": "Winfield Middle School", "lat": 37.2489, "lon": -96.9681, "proficiency": 0.17, "district": "Winfield", "city": "Winfield", "ncessch": "201305001826"}, {"name": "Yates Center Elem", "lat": 37.873, "lon": -95.7346, "proficiency": 0.1, "district": "Woodson", "city": "Yates Center", "ncessch": "201311000769"}], "districts": [{"name": "Southeast Of Saline", "lat": 38.7092, "lon": -97.51, "proficiency": 0.15, "schoolCount": 1}, {"name": "Smoky Valley", "lat": 38.5752635, "lon": -97.67919599999999, "proficiency": 0.1825, "schoolCount": 2}, {"name": "Wamego", "lat": 39.216, "lon": -96.3168, "proficiency": 0.22, "schoolCount": 1}, {"name": "Rock Creek", "lat": 39.303209, "lon": -96.438823, "proficiency": 0.22, "schoolCount": 1}, {"name": "Hiawatha", "lat": 39.8505, "lon": -95.5239, "proficiency": 0.22, "schoolCount": 1}, {"name": "Smith Center", "lat": 39.78069, "lon": -98.774518, "proficiency": 0.1, "schoolCount": 1}, {"name": "Barnes", "lat": 39.788021, "lon": -96.9796555, "proficiency": 0.36, "schoolCount": 2}, {"name": "Triplains", "lat": 39.063922, "lon": -101.245948, "proficiency": -0.03, "schoolCount": 1}, {"name": "Central Heights", "lat": 38.463562, "lon": -95.191989, "proficiency": 0.345, "schoolCount": 1}, {"name": "Ottawa", "lat": 38.599050000000005, "lon": -95.2781, "proficiency": 0.07, "schoolCount": 2}, {"name": "Marysville", "lat": 39.8394, "lon": -96.6441, "proficiency": 0.15, "schoolCount": 1}, {"name": "Scott County", "lat": 38.4781, "lon": -100.9171, "proficiency": 0.22, "schoolCount": 1}, {"name": "Western Plains", "lat": 38.541424500000005, "lon": -99.812781, "proficiency": -0.03, "schoolCount": 2}, {"name": "Rawlins County", "lat": 39.807661, "lon": -101.037065, "proficiency": 0.1, "schoolCount": 1}, {"name": "Washington Co. Schools", "lat": 39.8227, "lon": -97.0545, "proficiency": 0.1, "schoolCount": 1}, {"name": "Rock Hills", "lat": 39.78866, "lon": -98.201937, "proficiency": 0.3, "schoolCount": 1}, {"name": "Republic County", "lat": 39.8178, "lon": -97.6266, "proficiency": 0.15, "schoolCount": 1}, {"name": "Thunder Ridge Schools", "lat": 39.761261, "lon": -99.114554, "proficiency": 0.3, "schoolCount": 1}, {"name": "Doniphan West Schools", "lat": 39.860011, "lon": -95.261138, "proficiency": 0.1, "schoolCount": 1}, {"name": "Central Plains", "lat": 38.673505500000005, "lon": -98.5081855, "proficiency": 0.2, "schoolCount": 2}, {"name": "Prairie Hills", "lat": 39.803156333333334, "lon": -95.95209233333333, "proficiency": 0.245, "schoolCount": 3}, {"name": "Riverside", "lat": 39.75743, "lon": -94.88398, "proficiency": 0.1, "schoolCount": 1}, {"name": "Nemaha Central", "lat": 39.836075, "lon": -96.071867, "proficiency": 0.345, "schoolCount": 1}, {"name": "Abilene", "lat": 38.9291, "lon": -97.2216, "proficiency": 0.22, "schoolCount": 1}, {"name": "Auburn Washburn", "lat": 38.958, "lon": -95.7527, "proficiency": 0.27, "schoolCount": 1}, {"name": "North Lyon County", "lat": 38.508532, "lon": -96.264433, "proficiency": 0.1, "schoolCount": 1}, {"name": "Wabaunsee", "lat": 39.072, "lon": -96.1682, "proficiency": 0.545, "schoolCount": 1}, {"name": "Northern Valley", "lat": 39.946284, "lon": -99.53451, "proficiency": 0.245, "schoolCount": 1}, {"name": "Labette County", "lat": 37.161910999999996, "lon": -95.3130122, "proficiency": 0.377, "schoolCount": 5}, {"name": "Andover", "lat": 37.706623, "lon": -97.13158, "proficiency": 0.38, "schoolCount": 3}, {"name": "Chaparral Schools", "lat": 37.218744, "lon": -98.041181, "proficiency": 0.12, "schoolCount": 1}, {"name": "Argonia Public Schools", "lat": 37.269878, "lon": -97.76084, "proficiency": 0.245, "schoolCount": 1}, {"name": "Arkansas City", "lat": 37.0791, "lon": -97.0342, "proficiency": 0.17, "schoolCount": 1}, {"name": "Northeast", "lat": 37.5447, "lon": -94.7058, "proficiency": 0.245, "schoolCount": 1}, {"name": "Ashland", "lat": 37.193795, "lon": -99.775434, "proficiency": 0.3, "schoolCount": 1}, {"name": "Atchison Public Schools", "lat": 39.565039, "lon": -95.119776, "proficiency": 0.07, "schoolCount": 2}, {"name": "Attica", "lat": 37.2463, "lon": -98.228, "proficiency": 0.1, "schoolCount": 1}, {"name": "Augusta", "lat": 37.682, "lon": -96.9796, "proficiency": 0.17, "schoolCount": 1}, {"name": "Baldwin City", "lat": 38.7856, "lon": -95.1833, "proficiency": 0.22, "schoolCount": 1}, {"name": "Basehor-Linwood", "lat": 39.09301, "lon": -94.94852, "proficiency": 0.32, "schoolCount": 1}, {"name": "Baxter Springs", "lat": 37.037124, "lon": -94.733298, "proficiency": 0.245, "schoolCount": 1}, {"name": "Beloit", "lat": 39.4777, "lon": -98.1058, "proficiency": 0.445, "schoolCount": 1}, {"name": "Belle Plaine", "lat": 37.3968, "lon": -97.2808, "proficiency": 0.05, "schoolCount": 1}, {"name": "Twin Valley", "lat": 39.02285, "lon": -97.73845, "proficiency": 0.1725, "schoolCount": 2}, {"name": "Otis-Bison", "lat": 38.5382285, "lon": -99.054093, "proficiency": 0.1075, "schoolCount": 2}, {"name": "Bonner Springs", "lat": 39.0615, "lon": -94.8957, "proficiency": 0.12, "schoolCount": 1}, {"name": "Brewster", "lat": 39.365516, "lon": -101.376399, "proficiency": 0.245, "schoolCount": 1}, {"name": "Bucklin", "lat": 37.5455, "lon": -99.6336, "proficiency": 0.1, "schoolCount": 1}, {"name": "Altoona-Midway", "lat": 37.670139, "lon": -95.652198, "proficiency": 0.245, "schoolCount": 1}, {"name": "Buhler", "lat": 38.0888, "lon": -97.8656, "proficiency": 0.17, "schoolCount": 1}, {"name": "Central", "lat": 37.319962, "lon": -96.753163, "proficiency": 0.1, "schoolCount": 1}, {"name": "Burlingame Public School", "lat": 38.757477, "lon": -95.837611, "proficiency": 0.1, "schoolCount": 1}, {"name": "Burlington", "lat": 38.20727, "lon": -95.743911, "proficiency": 0.17, "schoolCount": 1}, {"name": "Burrton", "lat": 38.0196, "lon": -97.6715, "proficiency": 0.1, "schoolCount": 1}, {"name": "Caldwell", "lat": 37.033153, "lon": -97.610407, "proficiency": 0.245, "schoolCount": 1}, {"name": "Caney Valley", "lat": 37.0183, "lon": -95.927, "proficiency": 0.245, "schoolCount": 1}, {"name": "Canton-Galva", "lat": 38.3816, "lon": -97.4326, "proficiency": 0.1, "schoolCount": 1}, {"name": "Waconda", "lat": 39.423116500000006, "lon": -98.506727, "proficiency": 0.135, "schoolCount": 2}, {"name": "Cedar Vale", "lat": 37.10603, "lon": -96.500872, "proficiency": 0.245, "schoolCount": 1}, {"name": "Vermillion", "lat": 39.7161145, "lon": -96.276013, "proficiency": 0.3, "schoolCount": 2}, {"name": "Chanute Public Schools", "lat": 37.6823, "lon": -95.4592, "proficiency": 0.12, "schoolCount": 1}, {"name": "Chapman", "lat": 38.9739, "lon": -97.0186, "proficiency": 0.17, "schoolCount": 1}, {"name": "Chase-Raymond", "lat": 38.356582, "lon": -98.34574, "proficiency": 0.245, "schoolCount": 1}, {"name": "Cheney", "lat": 37.6338, "lon": -97.7816, "proficiency": 0.42, "schoolCount": 1}, {"name": "Cherokee", "lat": 37.346094, "lon": -94.822565, "proficiency": 0.15, "schoolCount": 1}, {"name": "Cherryvale", "lat": 37.37695, "lon": -95.5104, "proficiency": 0.1475, "schoolCount": 2}, {"name": "Chetopa-St. Paul", "lat": 37.277101, "lon": -95.1274205, "proficiency": 0.2725, "schoolCount": 2}, {"name": "Cheylin", "lat": 39.747133, "lon": -101.532347, "proficiency": 0.245, "schoolCount": 1}, {"name": "Cimarron-Ensign", "lat": 37.8115, "lon": -100.3415, "proficiency": 0.05, "schoolCount": 1}, {"name": "North Jackson", "lat": 39.526329, "lon": -95.740801, "proficiency": 0.05, "schoolCount": 1}, {"name": "Clay County", "lat": 39.300799999999995, "lon": -97.0668, "proficiency": 0.135, "schoolCount": 2}, {"name": "Clearwater", "lat": 37.5031, "lon": -97.4962, "proficiency": 0.47, "schoolCount": 1}, {"name": "Clifton-Clyde", "lat": 39.5672, "lon": -97.2848, "proficiency": 0.3, "schoolCount": 1}, {"name": "Coffeyville", "lat": 37.037, "lon": -95.6317, "proficiency": 0.075, "schoolCount": 1}, {"name": "Colby Public Schools", "lat": 39.395627, "lon": -101.053161, "proficiency": 0.17, "schoolCount": 1}, {"name": "Comanche County", "lat": 37.1982, "lon": -99.4809, "proficiency": 0.3, "schoolCount": 1}, {"name": "Columbus", "lat": 37.1617, "lon": -94.8481, "proficiency": 0.245, "schoolCount": 1}, {"name": "Concordia", "lat": 39.567024, "lon": -97.66572, "proficiency": 0.17, "schoolCount": 1}, {"name": "Conway Springs", "lat": 37.3917, "lon": -97.6471, "proficiency": 0.05, "schoolCount": 1}, {"name": "Copeland", "lat": 37.539516, "lon": -100.630039, "proficiency": 0.1, "schoolCount": 1}, {"name": "Chase County", "lat": 38.372654, "lon": -96.54422, "proficiency": 0.1, "schoolCount": 1}, {"name": "Morris County", "lat": 38.659747, "lon": -96.488787, "proficiency": 0.42, "schoolCount": 1}, {"name": "Pike Valley", "lat": 39.7979, "lon": -97.777, "proficiency": 0.245, "schoolCount": 1}, {"name": "Cunningham", "lat": 37.649152, "lon": -98.432815, "proficiency": 0.245, "schoolCount": 1}, {"name": "Deerfield", "lat": 37.98124, "lon": -101.137798, "proficiency": 0.1, "schoolCount": 1}, {"name": "Derby", "lat": 37.5649325, "lon": -97.25161700000001, "proficiency": 0.245, "schoolCount": 2}, {"name": "De Soto", "lat": 38.989866666666664, "lon": -94.9019, "proficiency": 0.3867, "schoolCount": 3}, {"name": "Dexter", "lat": 37.182326, "lon": -96.716108, "proficiency": 0.1, "schoolCount": 1}, {"name": "Dighton", "lat": 38.480716, "lon": -100.460556, "proficiency": 0.245, "schoolCount": 1}, {"name": "Dodge City", "lat": 37.7669995, "lon": -100.0204945, "proficiency": 0.145, "schoolCount": 2}, {"name": "Douglass Public Schools", "lat": 37.5215, "lon": -97.0037, "proficiency": 0.15, "schoolCount": 1}, {"name": "Easton", "lat": 39.363921, "lon": -95.056001, "proficiency": 0.345, "schoolCount": 1}, {"name": "Atchison Co Comm Schools", "lat": 39.526294, "lon": -95.392121, "proficiency": 0.05, "schoolCount": 1}, {"name": "El Dorado", "lat": 37.854572, "lon": -96.845492, "proficiency": 0.12, "schoolCount": 1}, {"name": "Elk Valley", "lat": 37.375216, "lon": -96.078981, "proficiency": 0.245, "schoolCount": 1}, {"name": "Elkhart", "lat": 37.0082785, "lon": -101.904246, "proficiency": 0.15, "schoolCount": 2}, {"name": "Ell-Saline", "lat": 38.7724, "lon": -97.8601, "proficiency": 0.15, "schoolCount": 1}, {"name": "Ellinwood Public Schools", "lat": 38.3562, "lon": -98.5783, "proficiency": 0.495, "schoolCount": 1}, {"name": "Ellis", "lat": 38.929, "lon": -99.5594, "proficiency": 0.15, "schoolCount": 1}, {"name": "Ellsworth", "lat": 38.7365, "lon": -98.2285, "proficiency": 0.15, "schoolCount": 1}, {"name": "Emporia", "lat": 38.4257, "lon": -96.2248, "proficiency": 0.11, "schoolCount": 1}, {"name": "Erie-Galesburg", "lat": 37.470141, "lon": -95.352189, "proficiency": 0.05, "schoolCount": 1}, {"name": "Mission Valley", "lat": 38.886017, "lon": -96.001661, "proficiency": 0.345, "schoolCount": 1}, {"name": "Eudora", "lat": 38.917481, "lon": -95.096735, "proficiency": 0.17, "schoolCount": 1}, {"name": "Eureka", "lat": 37.8277, "lon": -96.28, "proficiency": 0.15, "schoolCount": 1}, {"name": "Fort Scott", "lat": 37.8282, "lon": -94.6908, "proficiency": 0.12, "schoolCount": 1}, {"name": "Fowler", "lat": 37.3853, "lon": -100.1961, "proficiency": 0.245, "schoolCount": 1}, {"name": "Remington-Whitewater", "lat": 37.9632, "lon": -97.1458, "proficiency": 0.3, "schoolCount": 1}, {"name": "Fredonia", "lat": 37.5277, "lon": -95.8238, "proficiency": 0.05, "schoolCount": 1}, {"name": "Frontenac Public Schools", "lat": 37.452954, "lon": -94.687355, "proficiency": 0.27, "schoolCount": 1}, {"name": "Fort Leavenworth", "lat": 39.345632, "lon": -94.931704, "proficiency": 0.52, "schoolCount": 1}, {"name": "Galena", "lat": 37.073929, "lon": -94.63361, "proficiency": 0.075, "schoolCount": 1}, {"name": "Garden City", "lat": 37.97702425, "lon": -100.855082, "proficiency": 0.1187, "schoolCount": 4}, {"name": "Gardner Edgerton", "lat": 38.817437000000005, "lon": -94.93468166666668, "proficiency": 0.2033, "schoolCount": 3}, {"name": "Garnett", "lat": 38.234899999999996, "lon": -95.37735, "proficiency": 0.145, "schoolCount": 2}, {"name": "Girard", "lat": 37.5148, "lon": -94.8439, "proficiency": 0.17, "schoolCount": 1}, {"name": "Southern Cloud", "lat": 39.35445, "lon": -97.6465, "proficiency": 0.1075, "schoolCount": 2}, {"name": "Goddard", "lat": 37.6585325, "lon": -97.54873900000001, "proficiency": 0.395, "schoolCount": 2}, {"name": "Goessel", "lat": 38.2471, "lon": -97.3497, "proficiency": 0.3, "schoolCount": 1}, {"name": "Goodland", "lat": 39.346426, "lon": -101.705895, "proficiency": 0.12, "schoolCount": 1}, {"name": "Great Bend", "lat": 38.3722, "lon": -98.7845, "proficiency": 0.17, "schoolCount": 1}, {"name": "Greeley County Schools", "lat": 38.4723, "lon": -101.7567, "proficiency": 0.1, "schoolCount": 1}, {"name": "Kiowa County", "lat": 37.599118, "lon": -99.291589, "proficiency": 0.2725, "schoolCount": 2}, {"name": "Grinnell Public Schools", "lat": 39.121671, "lon": -100.632227, "proficiency": 0.1, "schoolCount": 1}, {"name": "Halstead", "lat": 37.9988, "lon": -97.509, "proficiency": 0.05, "schoolCount": 1}, {"name": "Hamilton", "lat": 37.982854, "lon": -96.159096, "proficiency": -0.03, "schoolCount": 1}, {"name": "Southern Lyon County", "lat": 38.287082, "lon": -96.0633165, "proficiency": 0.3975, "schoolCount": 2}, {"name": "Haven Public Schools", "lat": 37.91750066666666, "lon": -97.80779466666667, "proficiency": 0.1533, "schoolCount": 3}, {"name": "Haviland", "lat": 37.6185, "lon": -99.1109, "proficiency": 0.75, "schoolCount": 1}, {"name": "Hays", "lat": 38.8887, "lon": -99.3231, "proficiency": 0.27, "schoolCount": 1}, {"name": "Haysville", "lat": 37.565718000000004, "lon": -97.3692405, "proficiency": 0.0975, "schoolCount": 2}, {"name": "Healy Public Schools", "lat": 38.604947, "lon": -100.613449, "proficiency": -0.03, "schoolCount": 1}, {"name": "Herington", "lat": 38.686268, "lon": -96.942463, "proficiency": 0.15, "schoolCount": 1}, {"name": "Hesston", "lat": 38.1384, "lon": -97.4261, "proficiency": 0.545, "schoolCount": 1}, {"name": "Graham County", "lat": 39.37034, "lon": -99.853443, "proficiency": 0.1, "schoolCount": 1}, {"name": "Durham-Hillsboro-Lehigh", "lat": 38.3524, "lon": -97.1993, "proficiency": 0.445, "schoolCount": 1}, {"name": "Hoisington", "lat": 38.5237, "lon": -98.7806, "proficiency": 0.32, "schoolCount": 1}, {"name": "Holcomb", "lat": 37.9928, "lon": -100.9886, "proficiency": 0.22, "schoolCount": 1}, {"name": "Holton", "lat": 39.47089, "lon": -95.739046, "proficiency": 0.27, "schoolCount": 1}, {"name": "Rural Vista", "lat": 38.7438355, "lon": -96.9026505, "proficiency": 0.1075, "schoolCount": 2}, {"name": "South Brown County", "lat": 39.6743, "lon": -95.4278, "proficiency": 0.15, "schoolCount": 1}, {"name": "West Elk", "lat": 37.461159, "lon": -96.254367, "proficiency": 0.15, "schoolCount": 1}, {"name": "Hoxie Community Schools", "lat": 39.3565, "lon": -100.4343, "proficiency": 0.15, "schoolCount": 1}, {"name": "Hugoton Public Schools", "lat": 37.169092, "lon": -101.3495725, "proficiency": 0.0225, "schoolCount": 2}, {"name": "Humboldt", "lat": 37.8108, "lon": -95.433, "proficiency": 0.445, "schoolCount": 1}, {"name": "Hutchinson Public Schools", "lat": 38.068045, "lon": -97.9249525, "proficiency": 0.045, "schoolCount": 2}, {"name": "Independence", "lat": 37.2282, "lon": -95.7101, "proficiency": 0.22, "schoolCount": 1}, {"name": "Ingalls", "lat": 37.828259, "lon": -100.450506, "proficiency": 0.1, "schoolCount": 1}, {"name": "Inman", "lat": 38.2279, "lon": -97.7751, "proficiency": 0.1, "schoolCount": 1}, {"name": "Iola", "lat": 37.9227, "lon": -95.3976, "proficiency": 0.075, "schoolCount": 1}, {"name": "Jayhawk", "lat": 38.1337, "lon": -94.8289, "proficiency": 0.15, "schoolCount": 1}, {"name": "Hodgeman County Schools", "lat": 38.0841, "lon": -99.8877, "proficiency": 0.1, "schoolCount": 1}, {"name": "Stanton County", "lat": 37.5756, "lon": -101.7541, "proficiency": 0.1, "schoolCount": 1}, {"name": "Geary County Schools", "lat": 39.057266, "lon": -96.83767850000001, "proficiency": 0.28, "schoolCount": 2}, {"name": "Kansas City", "lat": 39.112272, "lon": -94.672708, "proficiency": 0.0517, "schoolCount": 9}, {"name": "Kaw Valley", "lat": 39.15935, "lon": -96.00385, "proficiency": 0.2475, "schoolCount": 2}, {"name": "Crest", "lat": 38.0723, "lon": -95.361, "proficiency": 0.1, "schoolCount": 1}, {"name": "Kingman - Norwich", "lat": 37.559715, "lon": -97.9808785, "proficiency": 0.1475, "schoolCount": 2}, {"name": "Kinsley-Offerle", "lat": 37.921095, "lon": -99.413352, "proficiency": 0.1, "schoolCount": 1}, {"name": "South Barber", "lat": 37.027948, "lon": -98.481804, "proficiency": 0.245, "schoolCount": 1}, {"name": "Kismet-Plains", "lat": 37.228954, "lon": -100.647178, "proficiency": 0.05, "schoolCount": 1}, {"name": "LaCrosse", "lat": 38.526719, "lon": -99.30527, "proficiency": 0.1, "schoolCount": 1}, {"name": "Prairie View", "lat": 38.342977, "lon": -94.852384, "proficiency": 0.12, "schoolCount": 1}, {"name": "Lakin", "lat": 37.9411, "lon": -101.2667, "proficiency": 0.245, "schoolCount": 1}, {"name": "Fairfield", "lat": 37.869484, "lon": -98.323995, "proficiency": 0.1, "schoolCount": 1}, {"name": "Lansing", "lat": 39.242903, "lon": -94.894184, "proficiency": 0.32, "schoolCount": 1}, {"name": "Ft Larned", "lat": 38.183417, "lon": -99.109052, "proficiency": 0.245, "schoolCount": 1}, {"name": "Lawrence", "lat": 38.955473999999995, "lon": -95.2598222, "proficiency": 0.22, "schoolCount": 5}, {"name": "Leavenworth", "lat": 39.295452499999996, "lon": -94.9242595, "proficiency": 0.135, "schoolCount": 2}, {"name": "Bluestem", "lat": 37.6832, "lon": -96.7879, "proficiency": 0.05, "schoolCount": 1}, {"name": "Leoti", "lat": 38.483135, "lon": -101.368084, "proficiency": 0.05, "schoolCount": 1}, {"name": "LeRoy-Gridley", "lat": 38.0869, "lon": -95.6341, "proficiency": 0.245, "schoolCount": 1}, {"name": "Liberal", "lat": 37.0465735, "lon": -100.9268435, "proficiency": 0.025, "schoolCount": 2}, {"name": "Lincoln", "lat": 39.043254, "lon": -98.136598, "proficiency": 0.1, "schoolCount": 1}, {"name": "Little River", "lat": 38.398606, "lon": -98.015435, "proficiency": 0.1, "schoolCount": 1}, {"name": "Logan", "lat": 39.664867, "lon": -99.573943, "proficiency": 0.245, "schoolCount": 1}, {"name": "Centre", "lat": 38.523496, "lon": -96.952625, "proficiency": 0.1, "schoolCount": 1}, {"name": "Louisburg", "lat": 38.619733, "lon": -94.669204, "proficiency": 0.17, "schoolCount": 1}, {"name": "Lyndon", "lat": 38.608367, "lon": -95.678972, "proficiency": 0.3, "schoolCount": 1}, {"name": "Lyons", "lat": 38.333935, "lon": -98.198315, "proficiency": 0.05, "schoolCount": 1}, {"name": "Macksville", "lat": 37.961166, "lon": -98.96585, "proficiency": 0.1, "schoolCount": 1}, {"name": "Madison-Virgil", "lat": 38.124399, "lon": -96.137495, "proficiency": 0.1, "schoolCount": 1}, {"name": "Maize", "lat": 37.763020000000004, "lon": -97.46070433333334, "proficiency": 0.4333, "schoolCount": 3}, {"name": "Manhattan-Ogden", "lat": 39.215050000000005, "lon": -96.59015, "proficiency": 0.295, "schoolCount": 2}, {"name": "Marion-Florence", "lat": 38.347662, "lon": -97.01474, "proficiency": 0.495, "schoolCount": 1}, {"name": "Royal Valley", "lat": 39.3363, "lon": -95.7193, "proficiency": 0.245, "schoolCount": 1}, {"name": "McLouth", "lat": 39.1959, "lon": -95.2118, "proficiency": 0.05, "schoolCount": 1}, {"name": "McPherson", "lat": 38.3676, "lon": -97.6566, "proficiency": 0.17, "schoolCount": 1}, {"name": "Meade", "lat": 37.2881, "lon": -100.3364, "proficiency": 0.3, "schoolCount": 1}, {"name": "Barber County North", "lat": 37.292137, "lon": -98.584107, "proficiency": 0.245, "schoolCount": 1}, {"name": "Marais Des Cygnes Valley", "lat": 38.510918, "lon": -95.637281, "proficiency": 0.245, "schoolCount": 1}, {"name": "Jefferson West", "lat": 39.1926, "lon": -95.5606, "proficiency": 0.22, "schoolCount": 1}, {"name": "North Ottawa County", "lat": 39.126339, "lon": -97.698841, "proficiency": 0.245, "schoolCount": 1}, {"name": "Minneola", "lat": 37.438958, "lon": -100.012992, "proficiency": 0.495, "schoolCount": 1}, {"name": "Marmaton Valley", "lat": 37.9194, "lon": -95.171, "proficiency": 0.1, "schoolCount": 1}, {"name": "Moscow Public Schools", "lat": 37.321474, "lon": -101.204336, "proficiency": 0.245, "schoolCount": 1}, {"name": "Moundridge", "lat": 38.202178, "lon": -97.510762, "proficiency": 0.245, "schoolCount": 1}, {"name": "Mulvane", "lat": 37.4835, "lon": -97.2456, "proficiency": 0.17, "schoolCount": 1}, {"name": "Paradise", "lat": 39.1925, "lon": -99.0237, "proficiency": 0.245, "schoolCount": 1}, {"name": "Neodesha", "lat": 37.427709, "lon": -95.685019, "proficiency": 0.12, "schoolCount": 1}, {"name": "Ness City", "lat": 38.4551, "lon": -99.8973, "proficiency": 0.1, "schoolCount": 1}, {"name": "Newton", "lat": 38.05188966666667, "lon": -97.352185, "proficiency": 0.0367, "schoolCount": 3}, {"name": "Nickerson", "lat": 38.079089, "lon": -98.00018233333333, "proficiency": 0.145, "schoolCount": 3}, {"name": "Norton Community Schools", "lat": 39.836675, "lon": -99.894784, "proficiency": 0.15, "schoolCount": 1}, {"name": "Oakley", "lat": 39.1317, "lon": -100.8543, "proficiency": 0.05, "schoolCount": 1}, {"name": "Oberlin", "lat": 39.819953, "lon": -100.522372, "proficiency": 0.1, "schoolCount": 1}, {"name": "Olathe", "lat": 38.8868612, "lon": -94.8042919, "proficiency": 0.305, "schoolCount": 10}, {"name": "Onaga-Havensville-Wheaton", "lat": 39.4912, "lon": -96.1662, "proficiency": 0.3, "schoolCount": 1}, {"name": "Osage City", "lat": 38.630403, "lon": -95.826957, "proficiency": 0.37, "schoolCount": 1}, {"name": "Osawatomie", "lat": 38.497707, "lon": -94.947101, "proficiency": 0.025, "schoolCount": 1}, {"name": "Osborne County", "lat": 39.4404, "lon": -98.697, "proficiency": 0.3, "schoolCount": 1}, {"name": "Oskaloosa Public Schools", "lat": 39.2213, "lon": -95.314, "proficiency": 0.05, "schoolCount": 1}, {"name": "Oswego", "lat": 37.242362, "lon": -95.1200595, "proficiency": 0.1725, "schoolCount": 2}, {"name": "Santa Fe Trail", "lat": 38.821612, "lon": -95.68925, "proficiency": 0.15, "schoolCount": 1}, {"name": "Oxford", "lat": 37.279544, "lon": -97.165013, "proficiency": 0.3, "schoolCount": 1}, {"name": "Palco", "lat": 39.249821, "lon": -99.565203, "proficiency": 0.245, "schoolCount": 1}, {"name": "Paola", "lat": 38.5763, "lon": -94.8624, "proficiency": 0.32, "schoolCount": 1}, {"name": "Parsons", "lat": 37.3409, "lon": -95.2779, "proficiency": 0.22, "schoolCount": 1}, {"name": "Peabody-Burns", "lat": 38.1734, "lon": -97.1049, "proficiency": 0.245, "schoolCount": 1}, {"name": "Perry Public Schools", "lat": 39.078279, "lon": -95.383835, "proficiency": 0.15, "schoolCount": 1}, {"name": "Phillipsburg", "lat": 39.7554, "lon": -99.3195, "proficiency": 0.05, "schoolCount": 1}, {"name": "Piper-Kansas City", "lat": 39.1668, "lon": -94.8313, "proficiency": 0.17, "schoolCount": 1}, {"name": "Pittsburg", "lat": 37.4197, "lon": -94.7029, "proficiency": 0.37, "schoolCount": 1}, {"name": "Plainville", "lat": 39.2317, "lon": -99.2961, "proficiency": 0.1, "schoolCount": 1}, {"name": "Pleasanton", "lat": 38.1747, "lon": -94.7196, "proficiency": 0.05, "schoolCount": 1}, {"name": "West Franklin", "lat": 38.610083, "lon": -95.445039, "proficiency": 0.245, "schoolCount": 1}, {"name": "Pratt", "lat": 37.6436, "lon": -98.7422, "proficiency": 0.22, "schoolCount": 1}, {"name": "Pretty Prairie", "lat": 37.7815, "lon": -98.0171, "proficiency": 0.1, "schoolCount": 1}, {"name": "Quinter Public Schools", "lat": 39.06616, "lon": -100.23144, "proficiency": 0.1, "schoolCount": 1}, {"name": "Blue Valley", "lat": 38.9208393, "lon": -94.8790854, "proficiency": 0.283, "schoolCount": 10}, {"name": "Golden Plains", "lat": 39.466294, "lon": -100.74327, "proficiency": 0.1, "schoolCount": 1}, {"name": "Renwick", "lat": 37.74194725, "lon": -97.6031345, "proficiency": 0.4825, "schoolCount": 4}, {"name": "Riley County", "lat": 39.299667, "lon": -96.827217, "proficiency": 0.645, "schoolCount": 1}, {"name": "Riverton", "lat": 37.073, "lon": -94.7058, "proficiency": 0.05, "schoolCount": 1}, {"name": "Rolla", "lat": 37.1206, "lon": -101.6299, "proficiency": 0.245, "schoolCount": 1}, {"name": "Flinthills", "lat": 37.813328, "lon": -96.618697, "proficiency": 0.1, "schoolCount": 1}, {"name": "Rose Hill Public Schools", "lat": 37.555115, "lon": -97.13312, "proficiency": 0.17, "schoolCount": 1}, {"name": "Pawnee Heights", "lat": 38.198001, "lon": -99.400342, "proficiency": 0.245, "schoolCount": 1}, {"name": "Russell County", "lat": 38.889944, "lon": -98.857835, "proficiency": 0.05, "schoolCount": 1}, {"name": "Salina", "lat": 38.8267265, "lon": -97.600209, "proficiency": 0.1725, "schoolCount": 2}, {"name": "Satanta", "lat": 37.4399, "lon": -100.982, "proficiency": 0.1, "schoolCount": 1}, {"name": "Skyline Schools", "lat": 37.639823, "lon": -98.783756, "proficiency": 0.245, "schoolCount": 1}, {"name": "Seaman", "lat": 39.145714, "lon": -95.6626, "proficiency": 0.17, "schoolCount": 1}, {"name": "Chautauqua Co Community", "lat": 37.129592, "lon": -96.182947, "proficiency": 0.1, "schoolCount": 1}, {"name": "Sedgwick Public Schools", "lat": 37.9167, "lon": -97.4302, "proficiency": 0.15, "schoolCount": 1}, {"name": "Wallace County Schools", "lat": 38.9001, "lon": -101.752, "proficiency": 0.245, "schoolCount": 1}, {"name": "Shawnee Mission Pub Sch", "lat": 38.988299999999995, "lon": -94.68682, "proficiency": 0.252, "schoolCount": 5}, {"name": "Silver Lake", "lat": 39.1021, "lon": -95.8556, "proficiency": 0.42, "schoolCount": 1}, {"name": "Solomon", "lat": 38.9229, "lon": -97.3694, "proficiency": 0.3, "schoolCount": 1}, {"name": "South Haven", "lat": 37.048, "lon": -97.3979, "proficiency": 0.3, "schoolCount": 1}, {"name": "Spearville", "lat": 37.850008, "lon": -99.752812, "proficiency": 0.1, "schoolCount": 1}, {"name": "Spring Hill", "lat": 38.76777666666666, "lon": -94.81099066666667, "proficiency": 0.2883, "schoolCount": 3}, {"name": "St Francis Comm Sch", "lat": 39.774003, "lon": -101.79528, "proficiency": 0.3, "schoolCount": 1}, {"name": "St John-Hudson", "lat": 38.0042, "lon": -98.7593, "proficiency": 0.1, "schoolCount": 1}, {"name": "Stafford", "lat": 37.962551, "lon": -98.594214, "proficiency": 0.245, "schoolCount": 1}, {"name": "Sterling", "lat": 38.2157, "lon": -98.2031, "proficiency": 0.345, "schoolCount": 1}, {"name": "Stockton", "lat": 39.437722, "lon": -99.277952, "proficiency": 0.05, "schoolCount": 1}, {"name": "Sublette", "lat": 37.476539, "lon": -100.848306, "proficiency": 0.1, "schoolCount": 1}, {"name": "Sylvan Grove", "lat": 39.014533, "lon": -98.401168, "proficiency": 0.1, "schoolCount": 1}, {"name": "Syracuse", "lat": 37.984862, "lon": -101.751845, "proficiency": 0.05, "schoolCount": 1}, {"name": "Shawnee Heights", "lat": 38.9888, "lon": -95.5582, "proficiency": 0.19, "schoolCount": 1}, {"name": "Tonganoxie", "lat": 39.100349, "lon": -95.083186, "proficiency": 0.12, "schoolCount": 1}, {"name": "Topeka Public Schools", "lat": 39.037987375, "lon": -95.701121375, "proficiency": 0.1025, "schoolCount": 8}, {"name": "Circle", "lat": 37.7953, "lon": -97.111, "proficiency": 0.075, "schoolCount": 1}, {"name": "Troy Public Schools", "lat": 39.784381, "lon": -95.095561, "proficiency": 0.3, "schoolCount": 1}, {"name": "Turner-Kansas City", "lat": 39.0756, "lon": -94.7056, "proficiency": 0.025, "schoolCount": 1}, {"name": "Udall", "lat": 37.3844, "lon": -97.121, "proficiency": 0.1, "schoolCount": 1}, {"name": "Ulysses", "lat": 37.5814, "lon": -101.3639, "proficiency": 0.12, "schoolCount": 1}, {"name": "Uniontown", "lat": 37.8493, "lon": -94.972, "proficiency": 0.05, "schoolCount": 1}, {"name": "Valley Center Pub Sch", "lat": 37.844512, "lon": -97.370774, "proficiency": 0.22, "schoolCount": 1}, {"name": "Valley Falls", "lat": 39.3429, "lon": -95.4603, "proficiency": 0.15, "schoolCount": 1}, {"name": "Victoria", "lat": 38.857418, "lon": -99.144559, "proficiency": 0.1, "schoolCount": 1}, {"name": "Wakeeney", "lat": 39.030587, "lon": -99.881702, "proficiency": 0.1, "schoolCount": 1}, {"name": "Valley Heights", "lat": 39.6865, "lon": -96.7117, "proficiency": 0.245, "schoolCount": 1}, {"name": "Lebo-Waverly", "lat": 38.4065365, "lon": -95.7297725, "proficiency": 0.2725, "schoolCount": 2}, {"name": "Wellington", "lat": 37.270838, "lon": -97.393491, "proficiency": 0.025, "schoolCount": 1}, {"name": "Wellsville", "lat": 38.7172, "lon": -95.0848, "proficiency": 0.37, "schoolCount": 1}, {"name": "Weskan", "lat": 38.865524, "lon": -101.964182, "proficiency": -0.03, "schoolCount": 1}, {"name": "Wichita", "lat": 37.689714333333335, "lon": -97.32819595238095, "proficiency": 0.0988, "schoolCount": 21}, {"name": "Jefferson County North", "lat": 39.4154, "lon": -95.3222, "proficiency": 0.3, "schoolCount": 1}, {"name": "Winfield", "lat": 37.2489, "lon": -96.9681, "proficiency": 0.17, "schoolCount": 1}, {"name": "Woodson", "lat": 37.873, "lon": -95.7346, "proficiency": 0.1, "schoolCount": 1}], "cities": [{"name": "Gypsum", "lat": 38.7092, "lon": -97.51, "proficiency": 0.15, "schoolCount": 1}, {"name": "Lindsborg", "lat": 38.5752635, "lon": -97.67919599999999, "proficiency": 0.1825, "schoolCount": 2}, {"name": "Wamego", "lat": 39.216, "lon": -96.3168, "proficiency": 0.22, "schoolCount": 1}, {"name": "St. George", "lat": 39.303209, "lon": -96.438823, "proficiency": 0.22, "schoolCount": 1}, {"name": "Hiawatha", "lat": 39.8505, "lon": -95.5239, "proficiency": 0.22, "schoolCount": 1}, {"name": "Smith Center", "lat": 39.78069, "lon": -98.774518, "proficiency": 0.1, "schoolCount": 1}, {"name": "Hanover", "lat": 39.892542, "lon": -96.874011, "proficiency": -0.03, "schoolCount": 1}, {"name": "Linn", "lat": 39.6835, "lon": -97.0853, "proficiency": 0.75, "schoolCount": 1}, {"name": "Winona", "lat": 39.063922, "lon": -101.245948, "proficiency": -0.03, "schoolCount": 1}, {"name": "Richmond", "lat": 38.463562, "lon": -95.191989, "proficiency": 0.345, "schoolCount": 1}, {"name": "Ottawa", "lat": 38.599050000000005, "lon": -95.2781, "proficiency": 0.07, "schoolCount": 2}, {"name": "Marysville", "lat": 39.8394, "lon": -96.6441, "proficiency": 0.15, "schoolCount": 1}, {"name": "Scott City", "lat": 38.4781, "lon": -100.9171, "proficiency": 0.22, "schoolCount": 1}, {"name": "Ransom", "lat": 38.641016, "lon": -99.93163, "proficiency": -0.03, "schoolCount": 1}, {"name": "Bazine", "lat": 38.441833, "lon": -99.693932, "proficiency": -0.03, "schoolCount": 1}, {"name": "Atwood", "lat": 39.807661, "lon": -101.037065, "proficiency": 0.1, "schoolCount": 1}, {"name": "Washington", "lat": 39.8227, "lon": -97.0545, "proficiency": 0.1, "schoolCount": 1}, {"name": "Mankato", "lat": 39.78866, "lon": -98.201937, "proficiency": 0.3, "schoolCount": 1}, {"name": "Belleville", "lat": 39.8178, "lon": -97.6266, "proficiency": 0.15, "schoolCount": 1}, {"name": "AGRA", "lat": 39.761261, "lon": -99.114554, "proficiency": 0.3, "schoolCount": 1}, {"name": "Highland", "lat": 39.860011, "lon": -95.261138, "proficiency": 0.1, "schoolCount": 1}, {"name": "Wilson", "lat": 38.820723, "lon": -98.473065, "proficiency": 0.1, "schoolCount": 1}, {"name": "Claflin", "lat": 38.526288, "lon": -98.543306, "proficiency": 0.3, "schoolCount": 1}, {"name": "Sabetha", "lat": 39.897102, "lon": -95.790751, "proficiency": 0.245, "schoolCount": 1}, {"name": "Wetmore", "lat": 39.636238, "lon": -95.808568, "proficiency": 0.245, "schoolCount": 1}, {"name": "Axtell", "lat": 39.876129, "lon": -96.256958, "proficiency": 0.245, "schoolCount": 1}, {"name": "Elwood", "lat": 39.75743, "lon": -94.88398, "proficiency": 0.1, "schoolCount": 1}, {"name": "Seneca", "lat": 39.836075, "lon": -96.071867, "proficiency": 0.345, "schoolCount": 1}, {"name": "Abilene", "lat": 38.9291, "lon": -97.2216, "proficiency": 0.22, "schoolCount": 1}, {"name": "Topeka", "lat": 39.0407613, "lon": -95.7024271, "proficiency": 0.126, "schoolCount": 10}, {"name": "Americus", "lat": 38.508532, "lon": -96.264433, "proficiency": 0.1, "schoolCount": 1}, {"name": "Paxico", "lat": 39.072, "lon": -96.1682, "proficiency": 0.545, "schoolCount": 1}, {"name": "Long Island", "lat": 39.946284, "lon": -99.53451, "proficiency": 0.245, "schoolCount": 1}, {"name": "Altamont", "lat": 37.1916, "lon": -95.2923, "proficiency": 0.3, "schoolCount": 1}, {"name": "Bartlett", "lat": 37.0574, "lon": -95.2126, "proficiency": 0.245, "schoolCount": 1}, {"name": "Edna", "lat": 37.0604, "lon": -95.3614, "proficiency": 0.495, "schoolCount": 1}, {"name": "Parsons", "lat": 37.31827749999999, "lon": -95.2844305, "proficiency": 0.185, "schoolCount": 2}, {"name": "Mound Valley", "lat": 37.2045, "lon": -95.4078, "proficiency": 0.695, "schoolCount": 1}, {"name": "Andover", "lat": 37.706623, "lon": -97.13158, "proficiency": 0.38, "schoolCount": 3}, {"name": "Anthony", "lat": 37.218744, "lon": -98.041181, "proficiency": 0.12, "schoolCount": 1}, {"name": "Argonia", "lat": 37.269878, "lon": -97.76084, "proficiency": 0.245, "schoolCount": 1}, {"name": "Arkansas City", "lat": 37.0791, "lon": -97.0342, "proficiency": 0.17, "schoolCount": 1}, {"name": "Arma", "lat": 37.5447, "lon": -94.7058, "proficiency": 0.245, "schoolCount": 1}, {"name": "Ashland", "lat": 37.193795, "lon": -99.775434, "proficiency": 0.3, "schoolCount": 1}, {"name": "Atchison", "lat": 39.565039, "lon": -95.119776, "proficiency": 0.07, "schoolCount": 2}, {"name": "Attica", "lat": 37.2463, "lon": -98.228, "proficiency": 0.1, "schoolCount": 1}, {"name": "Augusta", "lat": 37.682, "lon": -96.9796, "proficiency": 0.17, "schoolCount": 1}, {"name": "Baldwin City", "lat": 38.7856, "lon": -95.1833, "proficiency": 0.22, "schoolCount": 1}, {"name": "Basehor", "lat": 39.09301, "lon": -94.94852, "proficiency": 0.32, "schoolCount": 1}, {"name": "Baxter Springs", "lat": 37.037124, "lon": -94.733298, "proficiency": 0.245, "schoolCount": 1}, {"name": "Beloit", "lat": 39.4777, "lon": -98.1058, "proficiency": 0.445, "schoolCount": 1}, {"name": "Belle Plaine", "lat": 37.3968, "lon": -97.2808, "proficiency": 0.05, "schoolCount": 1}, {"name": "Bennington", "lat": 39.0327, "lon": -97.5967, "proficiency": 0.1, "schoolCount": 1}, {"name": "Tescott", "lat": 39.013, "lon": -97.8802, "proficiency": 0.245, "schoolCount": 1}, {"name": "Otis", "lat": 38.5382, "lon": -99.054144, "proficiency": 0.245, "schoolCount": 1}, {"name": "OTIS", "lat": 38.538257, "lon": -99.054042, "proficiency": -0.03, "schoolCount": 1}, {"name": "Bonner Springs", "lat": 39.0615, "lon": -94.8957, "proficiency": 0.12, "schoolCount": 1}, {"name": "Brewster", "lat": 39.365516, "lon": -101.376399, "proficiency": 0.245, "schoolCount": 1}, {"name": "Bucklin", "lat": 37.5455, "lon": -99.6336, "proficiency": 0.1, "schoolCount": 1}, {"name": "Buffalo", "lat": 37.670139, "lon": -95.652198, "proficiency": 0.245, "schoolCount": 1}, {"name": "Hutchinson", "lat": 38.087862799999996, "lon": -97.955828, "proficiency": 0.145, "schoolCount": 5}, {"name": "Burden", "lat": 37.319962, "lon": -96.753163, "proficiency": 0.1, "schoolCount": 1}, {"name": "Burlingame", "lat": 38.757477, "lon": -95.837611, "proficiency": 0.1, "schoolCount": 1}, {"name": "Burlington", "lat": 38.20727, "lon": -95.743911, "proficiency": 0.17, "schoolCount": 1}, {"name": "Burrton", "lat": 38.0196, "lon": -97.6715, "proficiency": 0.1, "schoolCount": 1}, {"name": "Caldwell", "lat": 37.033153, "lon": -97.610407, "proficiency": 0.245, "schoolCount": 1}, {"name": "Caney", "lat": 37.0183, "lon": -95.927, "proficiency": 0.245, "schoolCount": 1}, {"name": "Canton", "lat": 38.3816, "lon": -97.4326, "proficiency": 0.1, "schoolCount": 1}, {"name": "Downs", "lat": 39.5082, "lon": -98.5449, "proficiency": 0.3, "schoolCount": 1}, {"name": "Tipton", "lat": 39.338033, "lon": -98.468554, "proficiency": -0.03, "schoolCount": 1}, {"name": "Cedar Vale", "lat": 37.10603, "lon": -96.500872, "proficiency": 0.245, "schoolCount": 1}, {"name": "Centralia", "lat": 39.7247, "lon": -96.1329, "proficiency": 0.3, "schoolCount": 1}, {"name": "Frankfort", "lat": 39.707529, "lon": -96.419126, "proficiency": 0.3, "schoolCount": 1}, {"name": "Chanute", "lat": 37.6823, "lon": -95.4592, "proficiency": 0.12, "schoolCount": 1}, {"name": "Chapman", "lat": 38.9739, "lon": -97.0186, "proficiency": 0.17, "schoolCount": 1}, {"name": "Chase", "lat": 38.356582, "lon": -98.34574, "proficiency": 0.245, "schoolCount": 1}, {"name": "Cheney", "lat": 37.6338, "lon": -97.7816, "proficiency": 0.42, "schoolCount": 1}, {"name": "Cherokee", "lat": 37.346094, "lon": -94.822565, "proficiency": 0.15, "schoolCount": 1}, {"name": "Cherryvale", "lat": 37.37695, "lon": -95.5104, "proficiency": 0.1475, "schoolCount": 2}, {"name": "Chetopa", "lat": 37.0387, "lon": -95.0891, "proficiency": 0.245, "schoolCount": 1}, {"name": "St. Paul", "lat": 37.515502, "lon": -95.165741, "proficiency": 0.3, "schoolCount": 1}, {"name": "Bird City", "lat": 39.747133, "lon": -101.532347, "proficiency": 0.245, "schoolCount": 1}, {"name": "Cimarron", "lat": 37.8115, "lon": -100.3415, "proficiency": 0.05, "schoolCount": 1}, {"name": "Holton", "lat": 39.4986095, "lon": -95.7399235, "proficiency": 0.16, "schoolCount": 2}, {"name": "Clay Center", "lat": 39.3886, "lon": -97.1172, "proficiency": 0.17, "schoolCount": 1}, {"name": "Wakefield", "lat": 39.213, "lon": -97.0164, "proficiency": 0.1, "schoolCount": 1}, {"name": "Clearwater", "lat": 37.5031, "lon": -97.4962, "proficiency": 0.47, "schoolCount": 1}, {"name": "Clifton", "lat": 39.5672, "lon": -97.2848, "proficiency": 0.3, "schoolCount": 1}, {"name": "Coffeyville", "lat": 37.037, "lon": -95.6317, "proficiency": 0.075, "schoolCount": 1}, {"name": "Colby", "lat": 39.395627, "lon": -101.053161, "proficiency": 0.17, "schoolCount": 1}, {"name": "Protection", "lat": 37.1982, "lon": -99.4809, "proficiency": 0.3, "schoolCount": 1}, {"name": "Columbus", "lat": 37.1617, "lon": -94.8481, "proficiency": 0.245, "schoolCount": 1}, {"name": "Concordia", "lat": 39.567024, "lon": -97.66572, "proficiency": 0.17, "schoolCount": 1}, {"name": "Conway Springs", "lat": 37.3917, "lon": -97.6471, "proficiency": 0.05, "schoolCount": 1}, {"name": "Copeland", "lat": 37.539516, "lon": -100.630039, "proficiency": 0.1, "schoolCount": 1}, {"name": "Cottonwood Falls", "lat": 38.372654, "lon": -96.54422, "proficiency": 0.1, "schoolCount": 1}, {"name": "Council Grove", "lat": 38.659747, "lon": -96.488787, "proficiency": 0.42, "schoolCount": 1}, {"name": "Scandia", "lat": 39.7979, "lon": -97.777, "proficiency": 0.245, "schoolCount": 1}, {"name": "Cunningham", "lat": 37.649152, "lon": -98.432815, "proficiency": 0.245, "schoolCount": 1}, {"name": "Deerfield", "lat": 37.98124, "lon": -101.137798, "proficiency": 0.1, "schoolCount": 1}, {"name": "Derby", "lat": 37.5649325, "lon": -97.25161700000001, "proficiency": 0.245, "schoolCount": 2}, {"name": "Shawnee", "lat": 39.0173, "lon": -94.8409, "proficiency": 0.47, "schoolCount": 1}, {"name": "De Soto", "lat": 38.9687, "lon": -94.9845, "proficiency": 0.42, "schoolCount": 1}, {"name": "Lenexa", "lat": 38.9836, "lon": -94.8803, "proficiency": 0.27, "schoolCount": 1}, {"name": "Dexter", "lat": 37.182326, "lon": -96.716108, "proficiency": 0.1, "schoolCount": 1}, {"name": "Dighton", "lat": 38.480716, "lon": -100.460556, "proficiency": 0.245, "schoolCount": 1}, {"name": "Dodge City", "lat": 37.7669995, "lon": -100.0204945, "proficiency": 0.145, "schoolCount": 2}, {"name": "Douglass", "lat": 37.5215, "lon": -97.0037, "proficiency": 0.15, "schoolCount": 1}, {"name": "Easton", "lat": 39.363921, "lon": -95.056001, "proficiency": 0.345, "schoolCount": 1}, {"name": "Effingham", "lat": 39.526294, "lon": -95.392121, "proficiency": 0.05, "schoolCount": 1}, {"name": "El Dorado", "lat": 37.854572, "lon": -96.845492, "proficiency": 0.12, "schoolCount": 1}, {"name": "Longton", "lat": 37.375216, "lon": -96.078981, "proficiency": 0.245, "schoolCount": 1}, {"name": "Elkhart", "lat": 37.007825, "lon": -101.904635, "proficiency": 0.15, "schoolCount": 1}, {"name": "Newton", "lat": 37.79110025, "lon": -98.490103, "proficiency": 0.065, "schoolCount": 4}, {"name": "Brookville", "lat": 38.7724, "lon": -97.8601, "proficiency": 0.15, "schoolCount": 1}, {"name": "Ellinwood", "lat": 38.3562, "lon": -98.5783, "proficiency": 0.495, "schoolCount": 1}, {"name": "Ellis", "lat": 38.929, "lon": -99.5594, "proficiency": 0.15, "schoolCount": 1}, {"name": "Ellsworth", "lat": 38.7365, "lon": -98.2285, "proficiency": 0.15, "schoolCount": 1}, {"name": "Emporia", "lat": 38.4257, "lon": -96.2248, "proficiency": 0.11, "schoolCount": 1}, {"name": "Galesburg", "lat": 37.470141, "lon": -95.352189, "proficiency": 0.05, "schoolCount": 1}, {"name": "Eskridge", "lat": 38.886017, "lon": -96.001661, "proficiency": 0.345, "schoolCount": 1}, {"name": "Eudora", "lat": 38.917481, "lon": -95.096735, "proficiency": 0.17, "schoolCount": 1}, {"name": "Eureka", "lat": 37.8277, "lon": -96.28, "proficiency": 0.15, "schoolCount": 1}, {"name": "Fort Scott", "lat": 37.8282, "lon": -94.6908, "proficiency": 0.12, "schoolCount": 1}, {"name": "Fowler", "lat": 37.3853, "lon": -100.1961, "proficiency": 0.245, "schoolCount": 1}, {"name": "Whitewater", "lat": 37.9632, "lon": -97.1458, "proficiency": 0.3, "schoolCount": 1}, {"name": "Fredonia", "lat": 37.5277, "lon": -95.8238, "proficiency": 0.05, "schoolCount": 1}, {"name": "Frontenac", "lat": 37.452954, "lon": -94.687355, "proficiency": 0.27, "schoolCount": 1}, {"name": "Fort Leavenworth", "lat": 39.345632, "lon": -94.931704, "proficiency": 0.52, "schoolCount": 1}, {"name": "Galena", "lat": 37.073929, "lon": -94.63361, "proficiency": 0.075, "schoolCount": 1}, {"name": "Garden City", "lat": 37.97702425, "lon": -100.855082, "proficiency": 0.1187, "schoolCount": 4}, {"name": "Gardner", "lat": 38.817437000000005, "lon": -94.93468166666668, "proficiency": 0.2033, "schoolCount": 3}, {"name": "Garnett", "lat": 38.2869, "lon": -95.2591, "proficiency": 0.32, "schoolCount": 1}, {"name": "Westphalia", "lat": 38.1829, "lon": -95.4956, "proficiency": -0.03, "schoolCount": 1}, {"name": "Girard", "lat": 37.5148, "lon": -94.8439, "proficiency": 0.17, "schoolCount": 1}, {"name": "Glasco", "lat": 39.3623, "lon": -97.8354, "proficiency": 0.245, "schoolCount": 1}, {"name": "Miltonvale", "lat": 39.3466, "lon": -97.4576, "proficiency": -0.03, "schoolCount": 1}, {"name": "Goddard", "lat": 37.6585325, "lon": -97.54873900000001, "proficiency": 0.395, "schoolCount": 2}, {"name": "Goessel", "lat": 38.2471, "lon": -97.3497, "proficiency": 0.3, "schoolCount": 1}, {"name": "Goodland", "lat": 39.346426, "lon": -101.705895, "proficiency": 0.12, "schoolCount": 1}, {"name": "Great Bend", "lat": 38.3722, "lon": -98.7845, "proficiency": 0.17, "schoolCount": 1}, {"name": "Tribune", "lat": 38.4723, "lon": -101.7567, "proficiency": 0.1, "schoolCount": 1}, {"name": "Greensburg", "lat": 37.599118, "lon": -99.291589, "proficiency": 0.2725, "schoolCount": 2}, {"name": "Grinnell", "lat": 39.121671, "lon": -100.632227, "proficiency": 0.1, "schoolCount": 1}, {"name": "Halstead", "lat": 37.9988, "lon": -97.509, "proficiency": 0.05, "schoolCount": 1}, {"name": "Hamilton", "lat": 37.982854, "lon": -96.159096, "proficiency": -0.03, "schoolCount": 1}, {"name": "Hartford", "lat": 38.3101, "lon": -95.9567, "proficiency": 0.3, "schoolCount": 1}, {"name": "Olpe", "lat": 38.264064, "lon": -96.169933, "proficiency": 0.495, "schoolCount": 1}, {"name": "Yoder", "lat": 37.9407, "lon": -97.8662, "proficiency": 0.245, "schoolCount": 1}, {"name": "Haven", "lat": 37.905901, "lon": -97.778592, "proficiency": 0.1075, "schoolCount": 2}, {"name": "Haviland", "lat": 37.6185, "lon": -99.1109, "proficiency": 0.75, "schoolCount": 1}, {"name": "Hays", "lat": 38.8887, "lon": -99.3231, "proficiency": 0.27, "schoolCount": 1}, {"name": "Haysville", "lat": 37.565718000000004, "lon": -97.3692405, "proficiency": 0.0975, "schoolCount": 2}, {"name": "Healy", "lat": 38.604947, "lon": -100.613449, "proficiency": -0.03, "schoolCount": 1}, {"name": "Herington", "lat": 38.686268, "lon": -96.942463, "proficiency": 0.15, "schoolCount": 1}, {"name": "Hesston", "lat": 38.1384, "lon": -97.4261, "proficiency": 0.545, "schoolCount": 1}, {"name": "Hill City", "lat": 39.37034, "lon": -99.853443, "proficiency": 0.1, "schoolCount": 1}, {"name": "Hillsboro", "lat": 38.3524, "lon": -97.1993, "proficiency": 0.445, "schoolCount": 1}, {"name": "Hoisington", "lat": 38.5237, "lon": -98.7806, "proficiency": 0.32, "schoolCount": 1}, {"name": "Holcomb", "lat": 37.9928, "lon": -100.9886, "proficiency": 0.22, "schoolCount": 1}, {"name": "Hope", "lat": 38.690429, "lon": -97.073382, "proficiency": -0.03, "schoolCount": 1}, {"name": "White City", "lat": 38.797242, "lon": -96.731919, "proficiency": 0.245, "schoolCount": 1}, {"name": "Everest", "lat": 39.6743, "lon": -95.4278, "proficiency": 0.15, "schoolCount": 1}, {"name": "Howard", "lat": 37.461159, "lon": -96.254367, "proficiency": 0.15, "schoolCount": 1}, {"name": "Hoxie", "lat": 39.3565, "lon": -100.4343, "proficiency": 0.15, "schoolCount": 1}, {"name": "Hugoton", "lat": 37.169092, "lon": -101.3495725, "proficiency": 0.0225, "schoolCount": 2}, {"name": "Humboldt", "lat": 37.8108, "lon": -95.433, "proficiency": 0.445, "schoolCount": 1}, {"name": "Independence", "lat": 37.2282, "lon": -95.7101, "proficiency": 0.22, "schoolCount": 1}, {"name": "Ingalls", "lat": 37.828259, "lon": -100.450506, "proficiency": 0.1, "schoolCount": 1}, {"name": "Inman", "lat": 38.2279, "lon": -97.7751, "proficiency": 0.1, "schoolCount": 1}, {"name": "Iola", "lat": 37.9227, "lon": -95.3976, "proficiency": 0.075, "schoolCount": 1}, {"name": "Mound City", "lat": 38.1337, "lon": -94.8289, "proficiency": 0.15, "schoolCount": 1}, {"name": "Jetmore", "lat": 38.0841, "lon": -99.8877, "proficiency": 0.1, "schoolCount": 1}, {"name": "Johnson", "lat": 37.5756, "lon": -101.7541, "proficiency": 0.1, "schoolCount": 1}, {"name": "Fort Riley", "lat": 39.086256, "lon": -96.795282, "proficiency": 0.37, "schoolCount": 1}, {"name": "Junction City", "lat": 39.028276, "lon": -96.880075, "proficiency": 0.19, "schoolCount": 1}, {"name": "Kansas City", "lat": 39.11389527272728, "lon": -94.69011563636363, "proficiency": 0.06, "schoolCount": 11}, {"name": "Rossville", "lat": 39.1324, "lon": -95.95, "proficiency": 0.15, "schoolCount": 1}, {"name": "St Marys", "lat": 39.1863, "lon": -96.0577, "proficiency": 0.345, "schoolCount": 1}, {"name": "Colony", "lat": 38.0723, "lon": -95.361, "proficiency": 0.1, "schoolCount": 1}, {"name": "Norwich", "lat": 37.4576, "lon": -97.8469, "proficiency": 0.245, "schoolCount": 1}, {"name": "Kingman", "lat": 37.66183, "lon": -98.114857, "proficiency": 0.05, "schoolCount": 1}, {"name": "Kinsley", "lat": 37.921095, "lon": -99.413352, "proficiency": 0.1, "schoolCount": 1}, {"name": "Kiowa", "lat": 37.027948, "lon": -98.481804, "proficiency": 0.245, "schoolCount": 1}, {"name": "Kismet", "lat": 37.228954, "lon": -100.647178, "proficiency": 0.05, "schoolCount": 1}, {"name": "La Crosse", "lat": 38.526719, "lon": -99.30527, "proficiency": 0.1, "schoolCount": 1}, {"name": "LaCygne", "lat": 38.342977, "lon": -94.852384, "proficiency": 0.12, "schoolCount": 1}, {"name": "Lakin", "lat": 37.9411, "lon": -101.2667, "proficiency": 0.245, "schoolCount": 1}, {"name": "Langdon", "lat": 37.869484, "lon": -98.323995, "proficiency": 0.1, "schoolCount": 1}, {"name": "Lansing", "lat": 39.242903, "lon": -94.894184, "proficiency": 0.32, "schoolCount": 1}, {"name": "Larned", "lat": 38.183417, "lon": -99.109052, "proficiency": 0.245, "schoolCount": 1}, {"name": "Lawrence", "lat": 38.955473999999995, "lon": -95.2598222, "proficiency": 0.22, "schoolCount": 5}, {"name": "Leavenworth", "lat": 39.295452499999996, "lon": -94.9242595, "proficiency": 0.135, "schoolCount": 2}, {"name": "Leon", "lat": 37.6832, "lon": -96.7879, "proficiency": 0.05, "schoolCount": 1}, {"name": "Leoti", "lat": 38.483135, "lon": -101.368084, "proficiency": 0.05, "schoolCount": 1}, {"name": "Gridley", "lat": 38.0869, "lon": -95.6341, "proficiency": 0.245, "schoolCount": 1}, {"name": "Liberal", "lat": 37.0465735, "lon": -100.9268435, "proficiency": 0.025, "schoolCount": 2}, {"name": "Lincoln", "lat": 39.043254, "lon": -98.136598, "proficiency": 0.1, "schoolCount": 1}, {"name": "Little River", "lat": 38.398606, "lon": -98.015435, "proficiency": 0.1, "schoolCount": 1}, {"name": "Logan", "lat": 39.664867, "lon": -99.573943, "proficiency": 0.245, "schoolCount": 1}, {"name": "Lost Springs", "lat": 38.523496, "lon": -96.952625, "proficiency": 0.1, "schoolCount": 1}, {"name": "Louisburg", "lat": 38.619733, "lon": -94.669204, "proficiency": 0.17, "schoolCount": 1}, {"name": "Lyndon", "lat": 38.608367, "lon": -95.678972, "proficiency": 0.3, "schoolCount": 1}, {"name": "Lyons", "lat": 38.333935, "lon": -98.198315, "proficiency": 0.05, "schoolCount": 1}, {"name": "Macksville", "lat": 37.961166, "lon": -98.96585, "proficiency": 0.1, "schoolCount": 1}, {"name": "Madison", "lat": 38.124399, "lon": -96.137495, "proficiency": 0.1, "schoolCount": 1}, {"name": "Wichita", "lat": 37.69227631818182, "lon": -97.3337830909091, "proficiency": 0.1066, "schoolCount": 22}, {"name": "Maize", "lat": 37.771491, "lon": -97.4655, "proficiency": 0.515, "schoolCount": 2}, {"name": "Manhattan", "lat": 39.215050000000005, "lon": -96.59015, "proficiency": 0.295, "schoolCount": 2}, {"name": "Marion", "lat": 38.347662, "lon": -97.01474, "proficiency": 0.495, "schoolCount": 1}, {"name": "Mayetta", "lat": 39.3363, "lon": -95.7193, "proficiency": 0.245, "schoolCount": 1}, {"name": "McLouth", "lat": 39.1959, "lon": -95.2118, "proficiency": 0.05, "schoolCount": 1}, {"name": "McPherson", "lat": 38.3676, "lon": -97.6566, "proficiency": 0.17, "schoolCount": 1}, {"name": "Meade", "lat": 37.2881, "lon": -100.3364, "proficiency": 0.3, "schoolCount": 1}, {"name": "Medicine Lodge", "lat": 37.292137, "lon": -98.584107, "proficiency": 0.245, "schoolCount": 1}, {"name": "Melvern", "lat": 38.510918, "lon": -95.637281, "proficiency": 0.245, "schoolCount": 1}, {"name": "Meriden", "lat": 39.1926, "lon": -95.5606, "proficiency": 0.22, "schoolCount": 1}, {"name": "Minneapolis", "lat": 39.126339, "lon": -97.698841, "proficiency": 0.245, "schoolCount": 1}, {"name": "Minneola", "lat": 37.438958, "lon": -100.012992, "proficiency": 0.495, "schoolCount": 1}, {"name": "Moran", "lat": 37.9194, "lon": -95.171, "proficiency": 0.1, "schoolCount": 1}, {"name": "Moscow", "lat": 37.321474, "lon": -101.204336, "proficiency": 0.245, "schoolCount": 1}, {"name": "Moundridge", "lat": 38.202178, "lon": -97.510762, "proficiency": 0.245, "schoolCount": 1}, {"name": "Mulvane", "lat": 37.4835, "lon": -97.2456, "proficiency": 0.17, "schoolCount": 1}, {"name": "Natoma", "lat": 39.1925, "lon": -99.0237, "proficiency": 0.245, "schoolCount": 1}, {"name": "Neodesha", "lat": 37.427709, "lon": -95.685019, "proficiency": 0.12, "schoolCount": 1}, {"name": "Ness City", "lat": 38.4551, "lon": -99.8973, "proficiency": 0.1, "schoolCount": 1}, {"name": "South Hutchinson", "lat": 38.022843, "lon": -97.936912, "proficiency": -0.03, "schoolCount": 1}, {"name": "Norton", "lat": 39.836675, "lon": -99.894784, "proficiency": 0.15, "schoolCount": 1}, {"name": "Oakley", "lat": 39.1317, "lon": -100.8543, "proficiency": 0.05, "schoolCount": 1}, {"name": "Oberlin", "lat": 39.819953, "lon": -100.522372, "proficiency": 0.1, "schoolCount": 1}, {"name": "Olathe", "lat": 38.881471181818185, "lon": -94.8027559090909, "proficiency": 0.3291, "schoolCount": 11}, {"name": "Onaga", "lat": 39.4912, "lon": -96.1662, "proficiency": 0.3, "schoolCount": 1}, {"name": "Osage City", "lat": 38.630403, "lon": -95.826957, "proficiency": 0.37, "schoolCount": 1}, {"name": "Osawatomie", "lat": 38.497707, "lon": -94.947101, "proficiency": 0.025, "schoolCount": 1}, {"name": "Osborne", "lat": 39.4404, "lon": -98.697, "proficiency": 0.3, "schoolCount": 1}, {"name": "Oskaloosa", "lat": 39.2213, "lon": -95.314, "proficiency": 0.05, "schoolCount": 1}, {"name": "Oswego", "lat": 37.242362, "lon": -95.1200595, "proficiency": 0.1725, "schoolCount": 2}, {"name": "Carbondale", "lat": 38.821612, "lon": -95.68925, "proficiency": 0.15, "schoolCount": 1}, {"name": "Oxford", "lat": 37.279544, "lon": -97.165013, "proficiency": 0.3, "schoolCount": 1}, {"name": "Palco", "lat": 39.249821, "lon": -99.565203, "proficiency": 0.245, "schoolCount": 1}, {"name": "Paola", "lat": 38.5763, "lon": -94.8624, "proficiency": 0.32, "schoolCount": 1}, {"name": "Peabody", "lat": 38.1734, "lon": -97.1049, "proficiency": 0.245, "schoolCount": 1}, {"name": "Perry", "lat": 39.078279, "lon": -95.383835, "proficiency": 0.15, "schoolCount": 1}, {"name": "Phillipsburg", "lat": 39.7554, "lon": -99.3195, "proficiency": 0.05, "schoolCount": 1}, {"name": "Pittsburg", "lat": 37.4197, "lon": -94.7029, "proficiency": 0.37, "schoolCount": 1}, {"name": "Plainville", "lat": 39.2317, "lon": -99.2961, "proficiency": 0.1, "schoolCount": 1}, {"name": "Pleasanton", "lat": 38.1747, "lon": -94.7196, "proficiency": 0.05, "schoolCount": 1}, {"name": "Pomona", "lat": 38.610083, "lon": -95.445039, "proficiency": 0.245, "schoolCount": 1}, {"name": "Pratt", "lat": 37.6417115, "lon": -98.762978, "proficiency": 0.2325, "schoolCount": 2}, {"name": "Pretty Prairie", "lat": 37.7815, "lon": -98.0171, "proficiency": 0.1, "schoolCount": 1}, {"name": "Quinter", "lat": 39.06616, "lon": -100.23144, "proficiency": 0.1, "schoolCount": 1}, {"name": "Randolph", "lat": 39.4337, "lon": -96.7602, "proficiency": 0.1, "schoolCount": 1}, {"name": "Rexford", "lat": 39.466294, "lon": -100.74327, "proficiency": 0.1, "schoolCount": 1}, {"name": "Andale", "lat": 37.7937, "lon": -97.6319, "proficiency": 0.345, "schoolCount": 1}, {"name": "Colwich", "lat": 37.7566945, "lon": -97.550919, "proficiency": 0.57, "schoolCount": 2}, {"name": "Garden Plain", "lat": 37.6607, "lon": -97.6788, "proficiency": 0.445, "schoolCount": 1}, {"name": "Riley", "lat": 39.299667, "lon": -96.827217, "proficiency": 0.645, "schoolCount": 1}, {"name": "Riverton", "lat": 37.073, "lon": -94.7058, "proficiency": 0.05, "schoolCount": 1}, {"name": "Rolla", "lat": 37.1206, "lon": -101.6299, "proficiency": 0.245, "schoolCount": 1}, {"name": "Rosalia", "lat": 37.813328, "lon": -96.618697, "proficiency": 0.1, "schoolCount": 1}, {"name": "Rose Hill", "lat": 37.555115, "lon": -97.13312, "proficiency": 0.17, "schoolCount": 1}, {"name": "Rozel", "lat": 38.198001, "lon": -99.400342, "proficiency": 0.245, "schoolCount": 1}, {"name": "Russell", "lat": 38.889944, "lon": -98.857835, "proficiency": 0.05, "schoolCount": 1}, {"name": "Salina", "lat": 38.8267265, "lon": -97.600209, "proficiency": 0.1725, "schoolCount": 2}, {"name": "Satanta", "lat": 37.4399, "lon": -100.982, "proficiency": 0.1, "schoolCount": 1}, {"name": "Sedan", "lat": 37.129592, "lon": -96.182947, "proficiency": 0.1, "schoolCount": 1}, {"name": "Sedgwick", "lat": 37.9167, "lon": -97.4302, "proficiency": 0.15, "schoolCount": 1}, {"name": "Sharon Springs", "lat": 38.9001, "lon": -101.752, "proficiency": 0.245, "schoolCount": 1}, {"name": "Shawnee Mission", "lat": 38.988299999999995, "lon": -94.68682, "proficiency": 0.252, "schoolCount": 5}, {"name": "Silver Lake", "lat": 39.1021, "lon": -95.8556, "proficiency": 0.42, "schoolCount": 1}, {"name": "Solomon", "lat": 38.9229, "lon": -97.3694, "proficiency": 0.3, "schoolCount": 1}, {"name": "South Haven", "lat": 37.048, "lon": -97.3979, "proficiency": 0.3, "schoolCount": 1}, {"name": "Spearville", "lat": 37.850008, "lon": -99.752812, "proficiency": 0.1, "schoolCount": 1}, {"name": "Spring Hill", "lat": 38.7378795, "lon": -94.822788, "proficiency": 0.1475, "schoolCount": 2}, {"name": "St Francis", "lat": 39.774003, "lon": -101.79528, "proficiency": 0.3, "schoolCount": 1}, {"name": "St. John", "lat": 38.0042, "lon": -98.7593, "proficiency": 0.1, "schoolCount": 1}, {"name": "Stafford", "lat": 37.962551, "lon": -98.594214, "proficiency": 0.245, "schoolCount": 1}, {"name": "Overland Park", "lat": 38.85637985714286, "lon": -94.68383285714286, "proficiency": 0.2914, "schoolCount": 7}, {"name": "Leawood", "lat": 38.890017, "lon": -94.62191200000001, "proficiency": 0.345, "schoolCount": 2}, {"name": "Sterling", "lat": 38.2157, "lon": -98.2031, "proficiency": 0.345, "schoolCount": 1}, {"name": "Stockton", "lat": 39.437722, "lon": -99.277952, "proficiency": 0.05, "schoolCount": 1}, {"name": "Sublette", "lat": 37.476539, "lon": -100.848306, "proficiency": 0.1, "schoolCount": 1}, {"name": "Sylvan Grove", "lat": 39.014533, "lon": -98.401168, "proficiency": 0.1, "schoolCount": 1}, {"name": "Syracuse", "lat": 37.984862, "lon": -101.751845, "proficiency": 0.05, "schoolCount": 1}, {"name": "Tecumseh", "lat": 38.9888, "lon": -95.5582, "proficiency": 0.19, "schoolCount": 1}, {"name": "Tonganoxie", "lat": 39.100349, "lon": -95.083186, "proficiency": 0.12, "schoolCount": 1}, {"name": "Benton", "lat": 37.7953, "lon": -97.111, "proficiency": 0.075, "schoolCount": 1}, {"name": "Troy", "lat": 39.784381, "lon": -95.095561, "proficiency": 0.3, "schoolCount": 1}, {"name": "Udall", "lat": 37.3844, "lon": -97.121, "proficiency": 0.1, "schoolCount": 1}, {"name": "Ulysses", "lat": 37.5814, "lon": -101.3639, "proficiency": 0.12, "schoolCount": 1}, {"name": "Uniontown", "lat": 37.8493, "lon": -94.972, "proficiency": 0.05, "schoolCount": 1}, {"name": "Valley Center", "lat": 37.844512, "lon": -97.370774, "proficiency": 0.22, "schoolCount": 1}, {"name": "Valley Falls", "lat": 39.3429, "lon": -95.4603, "proficiency": 0.15, "schoolCount": 1}, {"name": "Victoria", "lat": 38.857418, "lon": -99.144559, "proficiency": 0.1, "schoolCount": 1}, {"name": "WaKeeney", "lat": 39.030587, "lon": -99.881702, "proficiency": 0.1, "schoolCount": 1}, {"name": "Blue Rapids", "lat": 39.6865, "lon": -96.7117, "proficiency": 0.245, "schoolCount": 1}, {"name": "Lebo", "lat": 38.417373, "lon": -95.858545, "proficiency": 0.3, "schoolCount": 1}, {"name": "Waverly", "lat": 38.3957, "lon": -95.601, "proficiency": 0.245, "schoolCount": 1}, {"name": "Wellington", "lat": 37.270838, "lon": -97.393491, "proficiency": 0.025, "schoolCount": 1}, {"name": "Wellsville", "lat": 38.7172, "lon": -95.0848, "proficiency": 0.37, "schoolCount": 1}, {"name": "Weskan", "lat": 38.865524, "lon": -101.964182, "proficiency": -0.03, "schoolCount": 1}, {"name": "Nortonville", "lat": 39.4154, "lon": -95.3222, "proficiency": 0.3, "schoolCount": 1}, {"name": "Winfield", "lat": 37.2489, "lon": -96.9681, "proficiency": 0.17, "schoolCount": 1}, {"name": "Yates Center", "lat": 37.873, "lon": -95.7346, "proficiency": 0.1, "schoolCount": 1}]}