{"state": "KY", "stateName": "Kentucky", "year": 2020, "naep": {"text": "3 out of 4", "numerator": 3, "denominator": 4}, "schools": [{"name": "Adair Learning Academy", "lat": 37.08518, "lon": -85.30529, "proficiency": -0.03, "district": "Adair County", "city": "Columbia", "ncessch": "210003001913"}, {"name": "Adair County Middle School", "lat": 37.103987, "lon": -85.324729, "proficiency": 0.22, "district": "Adair County", "city": "Columbia", "ncessch": "210003001919"}, {"name": "James E Bazzell Middle School", "lat": 36.7532, "lon": -86.2147, "proficiency": 0.27, "district": "Allen County", "city": "Scottsville", "ncessch": "210007000009"}, {"name": "Muhlenberg North Middle", "lat": 37.22964, "lon": -87.165165, "proficiency": 0.22, "district": "Muhlenberg County", "city": "Greenville", "ncessch": "210008101081"}, {"name": "The Renaissance Center", "lat": 37.229067, "lon": -87.163566, "proficiency": -0.03, "district": "Muhlenberg County", "city": "Greenville", "ncessch": "210008101515"}, {"name": "Muhlenberg South Middle School", "lat": 37.198169, "lon": -87.173458, "proficiency": 0.37, "district": "Muhlenberg County", "city": "Greenville", "ncessch": "210008101517"}, {"name": "Anchorage Independent Public School", "lat": 38.265538, "lon": -85.543755, "proficiency": 0.745, "district": "Anchorage Independent", "city": "Anchorage", "ncessch": "210009000014"}, {"name": "Anderson County Middle School", "lat": 38.03848, "lon": -84.900698, "proficiency": 0.37, "district": "Anderson County", "city": "Lawrenceburg", "ncessch": "210012000017"}, {"name": "APEX Academy", "lat": 38.023441, "lon": -84.907923, "proficiency": 0.15, "district": "Anderson County", "city": "Lawrenceburg", "ncessch": "210012002371"}, {"name": "Ashland Middle School", "lat": 38.4564, "lon": -82.6504, "proficiency": 0.32, "district": "Ashland Independent", "city": "Ashland", "ncessch": "210015000023"}, {"name": "Augusta Independent School", "lat": 38.7739, "lon": -84.0033, "proficiency": 0.245, "district": "Augusta Independent", "city": "Augusta", "ncessch": "210018001968"}, {"name": "Ballard County Middle School", "lat": 37.06813, "lon": -88.987178, "proficiency": 0.15, "district": "Ballard County", "city": "Barlow", "ncessch": "210021000035"}, {"name": "Barbourville City School", "lat": 36.8712, "lon": -83.8932, "proficiency": 0.245, "district": "Barbourville Independent", "city": "Barbourville", "ncessch": "210024001969"}, {"name": "Bardstown Middle School", "lat": 37.8155, "lon": -85.4703, "proficiency": 0.27, "district": "Bardstown Independent", "city": "Bardstown", "ncessch": "210027000046"}, {"name": "Barren County Middle School", "lat": 36.9751, "lon": -85.9233, "proficiency": 0.26, "district": "Barren County", "city": "Glasgow", "ncessch": "210030000607"}, {"name": "College Street Campus", "lat": 36.99194, "lon": -85.910931, "proficiency": 0.245, "district": "Barren County", "city": "Glasgow", "ncessch": "210030001303"}, {"name": "BAVEL", "lat": 36.977094, "lon": -85.916305, "proficiency": 0.3, "district": "Barren County", "city": "Glasgow", "ncessch": "210030001970"}, {"name": "Bath County Middle School", "lat": 38.143061, "lon": -83.769852, "proficiency": 0.22, "district": "Bath County", "city": "Owingsville", "ncessch": "210033001606"}, {"name": "Beechwood High School", "lat": 39.049165, "lon": -84.555171, "proficiency": 0.42, "district": "Beechwood Independent", "city": "Fort Mitchell", "ncessch": "210036000060"}, {"name": "Guardian Angel", "lat": 39.028703, "lon": -84.552053, "proficiency": 0.245, "district": "Beechwood Independent", "city": "Fort Mitchell", "ncessch": "210036002409"}, {"name": "Frakes School Center", "lat": 36.640736, "lon": -83.931613, "proficiency": 0.245, "district": "Bell County", "city": "Frakes", "ncessch": "210039000067"}, {"name": "Lone Jack School Center", "lat": 36.789343, "lon": -83.747335, "proficiency": 0.495, "district": "Bell County", "city": "Fourmile", "ncessch": "210039000068"}, {"name": "Right Fork School Center", "lat": 36.794119, "lon": -83.586069, "proficiency": 0.1, "district": "Bell County", "city": "Stoney Fork", "ncessch": "210039000072"}, {"name": "Yellow Creek School Center", "lat": 36.612856, "lon": -83.758733, "proficiency": 0.15, "district": "Bell County", "city": "Middlesboro", "ncessch": "210039000074"}, {"name": "Bell Central School Center", "lat": 36.711, "lon": -83.69774, "proficiency": 0.445, "district": "Bell County", "city": "Pineville", "ncessch": "210039001881"}, {"name": "Page School Center", "lat": 36.729189, "lon": -83.640915, "proficiency": 0.345, "district": "Bell County", "city": "Pineville", "ncessch": "210039001882"}, {"name": "Bellevue High School", "lat": 39.102227, "lon": -84.482017, "proficiency": 0.15, "district": "Bellevue Independent", "city": "Bellevue", "ncessch": "210042000075"}, {"name": "Berea Community Middle School", "lat": 37.5787, "lon": -84.2942, "proficiency": 0.27, "district": "Berea Independent", "city": "Berea", "ncessch": "210048001658"}, {"name": "Rector A. Jones Middle School", "lat": 38.9889, "lon": -84.6165, "proficiency": 0.075, "district": "Boone County", "city": "Florence", "ncessch": "210051000080"}, {"name": "Conner Middle School", "lat": 39.0604, "lon": -84.6993, "proficiency": 0.42, "district": "Boone County", "city": "Hebron", "ncessch": "210051000083"}, {"name": "Ockerman Middle School", "lat": 38.982595, "lon": -84.655492, "proficiency": 0.32, "district": "Boone County", "city": "Florence", "ncessch": "210051000090"}, {"name": "Gray Middle School", "lat": 38.9302, "lon": -84.6799, "proficiency": 0.57, "district": "Boone County", "city": "Union", "ncessch": "210051000638"}, {"name": "Camp Ernst Middle School", "lat": 39.011839, "lon": -84.705485, "proficiency": 0.27, "district": "Boone County", "city": "Burlington", "ncessch": "210051001971"}, {"name": "RISE Academy", "lat": 39.00151, "lon": -84.629814, "proficiency": -0.03, "district": "Boone County", "city": "Florence", "ncessch": "210051002266"}, {"name": "Ballyshannon Middle School", "lat": 38.955906, "lon": -84.702782, "proficiency": 0.47, "district": "Boone County", "city": "Union", "ncessch": "210051002460"}, {"name": "Bourbon County Middle School", "lat": 38.1941, "lon": -84.2738, "proficiency": 0.22, "district": "Bourbon County", "city": "Paris", "ncessch": "210054000099"}, {"name": "Bowling Green Junior High", "lat": 36.9624, "lon": -86.459, "proficiency": 0.42, "district": "Bowling Green Independent", "city": "Bowling Green", "ncessch": "210057000104"}, {"name": "Bowling Green Learning Center", "lat": 36.987142, "lon": -86.463485, "proficiency": -0.03, "district": "Bowling Green Independent", "city": "Bowling Green", "ncessch": "210057001696"}, {"name": "Warren Regional Juvenile Detention Ctr", "lat": 36.9943, "lon": -86.4454, "proficiency": -0.03, "district": "Bowling Green Independent", "city": "Bowling Green", "ncessch": "210057001911"}, {"name": "Virtual Academy", "lat": 36.992024, "lon": -86.447555, "proficiency": 0.3, "district": "Bowling Green Independent", "city": "Bowling Green", "ncessch": "210057002516"}, {"name": "Boyd County Middle School", "lat": 38.42775, "lon": -82.700513, "proficiency": 0.17, "district": "Boyd County", "city": "Ashland", "ncessch": "210062000112"}, {"name": "Ramey-Estep High School", "lat": 38.291337, "lon": -82.770941, "proficiency": 0.245, "district": "Boyd County", "city": "Rush", "ncessch": "210062000640"}, {"name": "Boyle County Middle School", "lat": 37.6502, "lon": -84.801, "proficiency": 0.52, "district": "Boyle County", "city": "Danville", "ncessch": "210063000119"}, {"name": "Bracken County Middle School", "lat": 38.683976, "lon": -84.072647, "proficiency": 0.32, "district": "Bracken County", "city": "Brooksville", "ncessch": "210066001560"}, {"name": "Breathitt County High School", "lat": 37.5549, "lon": -83.3845, "proficiency": 0.12, "district": "Breathitt County", "city": "Jackson", "ncessch": "210069000129"}, {"name": "Breathitt Regional School", "lat": 37.5379, "lon": -83.416043, "proficiency": -0.03, "district": "Breathitt County", "city": "Jackson", "ncessch": "210069001623"}, {"name": "Breathitt County Day Treatment", "lat": 37.539031, "lon": -83.415631, "proficiency": -0.03, "district": "Breathitt County", "city": "Jackson", "ncessch": "210069001842"}, {"name": "Breckinridge County Middle School", "lat": 37.7561, "lon": -86.427, "proficiency": 0.37, "district": "Breckinridge County", "city": "Harned", "ncessch": "210072001304"}, {"name": "Hebron Middle School", "lat": 38.0485, "lon": -85.6699, "proficiency": 0.27, "district": "Bullitt County", "city": "Shepherdsville", "ncessch": "210075000147"}, {"name": "MT. Washington Middle School", "lat": 38.047898, "lon": -85.545066, "proficiency": 0.22, "district": "Bullitt County", "city": "Mount Washington", "ncessch": "210075000150"}, {"name": "Bernheim Middle School", "lat": 37.9175, "lon": -85.6853, "proficiency": 0.32, "district": "Bullitt County", "city": "Shepherdsville", "ncessch": "210075000414"}, {"name": "Bullitt Alternative Center", "lat": 38.001397, "lon": -85.699405, "proficiency": -0.03, "district": "Bullitt County", "city": "Shepherdsville", "ncessch": "210075000929"}, {"name": "Bullitt Lick Middle School", "lat": 37.998, "lon": -85.7205, "proficiency": 0.22, "district": "Bullitt County", "city": "Shepherdsville", "ncessch": "210075001410"}, {"name": "Zoneton Middle School", "lat": 38.0693, "lon": -85.6635, "proficiency": 0.22, "district": "Bullitt County", "city": "Shepherdsville", "ncessch": "210075001973"}, {"name": "Eastside Middle School", "lat": 38.027548, "lon": -85.603488, "proficiency": 0.32, "district": "Bullitt County", "city": "Mount Washington", "ncessch": "210075001975"}, {"name": "Spring Meadows", "lat": 38.04284, "lon": -85.531701, "proficiency": -0.03, "district": "Bullitt County", "city": "Mt Washington", "ncessch": "210075002169"}, {"name": "Burgin Independent School", "lat": 37.752133, "lon": -84.762522, "proficiency": 0.245, "district": "Burgin Independent", "city": "Burgin", "ncessch": "210078002407"}, {"name": "Butler County Middle School", "lat": 37.2315, "lon": -86.6825, "proficiency": 0.12, "district": "Butler County", "city": "Morgantown", "ncessch": "210081001697"}, {"name": "Caldwell County Middle School", "lat": 37.1379, "lon": -87.8928, "proficiency": 0.32, "district": "Caldwell County", "city": "Princeton", "ncessch": "210084000167"}, {"name": "Calloway County Middle School", "lat": 36.6195, "lon": -88.3427, "proficiency": 0.37, "district": "Calloway County", "city": "Murray", "ncessch": "210087001411"}, {"name": "Calloway County Day Treatment", "lat": 36.6161, "lon": -88.3344, "proficiency": -0.03, "district": "Calloway County", "city": "Murray", "ncessch": "210087002366"}, {"name": "Campbell County Middle School", "lat": 38.966112, "lon": -84.392224, "proficiency": 0.34, "district": "Campbell County", "city": "Alexandria", "ncessch": "210090001306"}, {"name": "Alexandria Educational Center", "lat": 38.963867, "lon": -84.390243, "proficiency": -0.03, "district": "Campbell County", "city": "Alexandria", "ncessch": "210090001398"}, {"name": "Campbellsville Middle School", "lat": 37.338431, "lon": -85.349059, "proficiency": 0.15, "district": "Campbellsville Independent", "city": "Campbellsville", "ncessch": "210093000184"}, {"name": "Campbellsville Eagle Academy", "lat": 37.338848, "lon": -85.348037, "proficiency": -0.03, "district": "Campbellsville Independent", "city": "Campbellsville", "ncessch": "210093001653"}, {"name": "Carlisle County Middle School", "lat": 36.833019, "lon": -88.932501, "proficiency": 0.15, "district": "Carlisle County", "city": "Bardwell", "ncessch": "210096000185"}, {"name": "Carroll County Middle School", "lat": 38.6781, "lon": -85.1805, "proficiency": 0.12, "district": "Carroll County", "city": "Carrollton", "ncessch": "210099000191"}, {"name": "West Carter Middle School", "lat": 38.3109, "lon": -83.1486, "proficiency": 0.27, "district": "Carter County", "city": "Olive Hill", "ncessch": "210102001661"}, {"name": "East Carter Middle School", "lat": 38.3362, "lon": -82.9384, "proficiency": 0.32, "district": "Carter County", "city": "Grayson", "ncessch": "210102001698"}, {"name": "Casey County Middle School", "lat": 37.3254, "lon": -84.9073, "proficiency": 0.32, "district": "Casey County", "city": "Liberty", "ncessch": "210105001579"}, {"name": "Caverna Middle School", "lat": 37.152326, "lon": -85.932176, "proficiency": 0.05, "district": "Caverna Independent", "city": "Horse Cave", "ncessch": "210111001914"}, {"name": "Christian County Middle School", "lat": 36.87684, "lon": -87.491327, "proficiency": 0.17, "district": "Christian County", "city": "Hopkinsville", "ncessch": "210115000221"}, {"name": "Hopkinsville Middle School", "lat": 36.8422, "lon": -87.5078, "proficiency": 0.37, "district": "Christian County", "city": "Hopkinsville", "ncessch": "210115000225"}, {"name": "Bluegrass Learning Academy", "lat": 36.818233, "lon": -87.503416, "proficiency": 0.245, "district": "Christian County", "city": "Hopkinsville", "ncessch": "210115001402"}, {"name": "Cumberland Hall School", "lat": 36.7382, "lon": -87.4683, "proficiency": -0.03, "district": "Christian County", "city": "Hopkinsville", "ncessch": "210115001912"}, {"name": "Phoenix Academy", "lat": 37.97728, "lon": -84.194347, "proficiency": -0.03, "district": "Clark County", "city": "Winchester", "ncessch": "210120001624"}, {"name": "Robert D. Campbell Jr. High", "lat": 37.979046, "lon": -84.192892, "proficiency": 0.24, "district": "Clark County", "city": "Winchester", "ncessch": "210120002402"}, {"name": "Clay County Middle School", "lat": 37.1579, "lon": -83.7654, "proficiency": 0.22, "district": "Clay County", "city": "Manchester", "ncessch": "210123001699"}, {"name": "Horse Creek Learning Center", "lat": 37.1579, "lon": -83.7654, "proficiency": -0.03, "district": "Clay County", "city": "Manchester", "ncessch": "210123001846"}, {"name": "Clinton County Middle School", "lat": 36.717247, "lon": -85.13883, "proficiency": 0.27, "district": "Clinton County", "city": "Albany", "ncessch": "210126000444"}, {"name": "Foothills Academy", "lat": 36.751005, "lon": -85.209242, "proficiency": 0.245, "district": "Clinton County", "city": "Albany", "ncessch": "210126002162"}, {"name": "Cloverport Independent School", "lat": 37.834021, "lon": -86.631951, "proficiency": 0.3, "district": "Cloverport Independent", "city": "Cloverport", "ncessch": "210129002502"}, {"name": "Corbin Middle School", "lat": 36.951129, "lon": -84.084823, "proficiency": 0.62, "district": "Corbin Independent", "city": "Corbin", "ncessch": "210132001414"}, {"name": "Corbin Educational Center", "lat": 36.940663, "lon": -84.094121, "proficiency": -0.03, "district": "Corbin Independent", "city": "Corbin", "ncessch": "210132001622"}, {"name": "Corbin School of Innovation", "lat": 36.941945, "lon": -84.09636, "proficiency": 0.1, "district": "Corbin Independent", "city": "Corbin", "ncessch": "210132002367"}, {"name": "Transformational Learning Center", "lat": 39.085862, "lon": -84.539413, "proficiency": -0.03, "district": "Covington Independent", "city": "Covington", "ncessch": "210135001783"}, {"name": "Holmes Middle School", "lat": 39.06117, "lon": -84.501726, "proficiency": 0.075, "district": "Covington Independent", "city": "Covington", "ncessch": "210135001944"}, {"name": "Crittenden County Middle School", "lat": 37.330539, "lon": -88.091198, "proficiency": 0.22, "district": "Crittenden County", "city": "Marion", "ncessch": "210138000280"}, {"name": "Cumberland County Middle School", "lat": 36.7985, "lon": -85.361, "proficiency": 0.22, "district": "Cumberland County", "city": "Burkesville", "ncessch": "210141001561"}, {"name": "John W. Bate Middle School", "lat": 37.6416, "lon": -84.7653, "proficiency": 0.22, "district": "Danville Independent", "city": "Danville", "ncessch": "210144000290"}, {"name": "Anchor Academy", "lat": 37.649578, "lon": -84.768202, "proficiency": -0.03, "district": "Danville Independent", "city": "Danville", "ncessch": "210144002500"}, {"name": "F T Burns Middle School", "lat": 37.725908, "lon": -87.133126, "proficiency": 0.27, "district": "Daviess County", "city": "Owensboro", "ncessch": "210147000296"}, {"name": "Daviess County Middle School", "lat": 37.762264, "lon": -87.060157, "proficiency": 0.37, "district": "Daviess County", "city": "Owensboro", "ncessch": "210147000298"}, {"name": "Owensboro Day Treatment", "lat": 37.749112, "lon": -87.058827, "proficiency": -0.03, "district": "Daviess County", "city": "Owensboro", "ncessch": "210147000312"}, {"name": "College View Middle School", "lat": 37.714236, "lon": -87.075443, "proficiency": 0.22, "district": "Daviess County", "city": "Owensboro", "ncessch": "210147000961"}, {"name": "The Center for Academic Improvement", "lat": 37.737893, "lon": -87.143682, "proficiency": -0.03, "district": "Daviess County", "city": "Owensboro", "ncessch": "210147002470"}, {"name": "Dawson Springs Jr/Sr High School", "lat": 37.167198, "lon": -87.687445, "proficiency": 0.15, "district": "Dawson Springs Independent", "city": "Dawson Springs", "ncessch": "210150002203"}, {"name": "Dayton High School", "lat": 39.1169, "lon": -84.4703, "proficiency": 0.32, "district": "Dayton Independent", "city": "Dayton", "ncessch": "210153000316"}, {"name": "Regional School Programs", "lat": 39.018106, "lon": -84.434319, "proficiency": -0.03, "district": "Dayton Independent", "city": "Cold Spring", "ncessch": "210153002413"}, {"name": "East Bernstadt Elementary School", "lat": 37.189788, "lon": -84.113968, "proficiency": 0.495, "district": "East Bernstadt Independent", "city": "East Bernstadt", "ncessch": "210159000318"}, {"name": "Edmonson County Middle School", "lat": 37.193048, "lon": -86.251533, "proficiency": 0.37, "district": "Edmonson County", "city": "Brownsville", "ncessch": "210162000321"}, {"name": "Talton K Stone Middle School", "lat": 37.7033, "lon": -85.8611, "proficiency": 0.27, "district": "Elizabethtown Independent", "city": "Elizabethtown", "ncessch": "210165000326"}, {"name": "Valley View Education Center", "lat": 37.6855, "lon": -85.8492, "proficiency": -0.03, "district": "Elizabethtown Independent", "city": "Elizabethtown", "ncessch": "210165002355"}, {"name": "Elliott County Middle School", "lat": 38.085257, "lon": -83.129217, "proficiency": 0.05, "district": "Elliott County", "city": "Sandy Hook", "ncessch": "210168002504"}, {"name": "Eminence High School", "lat": 38.37281, "lon": -85.18261, "proficiency": 0.22, "district": "Eminence Independent", "city": "Eminence", "ncessch": "210171000332"}, {"name": "Tichenor Middle School", "lat": 39.018878, "lon": -84.607156, "proficiency": 0.22, "district": "Erlanger-Elsmere Independent", "city": "Erlanger", "ncessch": "210174000339"}, {"name": "Bartlett Educational Center", "lat": 39.0185, "lon": -84.6068, "proficiency": -0.03, "district": "Erlanger-Elsmere Independent", "city": "Erlanger", "ncessch": "210174002313"}, {"name": "Estill County Middle School", "lat": 37.737772, "lon": -83.989411, "proficiency": 0.17, "district": "Estill County", "city": "Irvine", "ncessch": "210176000341"}, {"name": "Fairview High School", "lat": 38.479935, "lon": -82.674993, "proficiency": 0.05, "district": "Fairview Independent", "city": "Ashland", "ncessch": "210180000348"}, {"name": "Beaumont Middle School", "lat": 38.0283, "lon": -84.5578, "proficiency": 0.37, "district": "Fayette County", "city": "Lexington", "ncessch": "210186000353"}, {"name": "Scapa At Bluegrass", "lat": 38.026627, "lon": -84.525716, "proficiency": 0.645, "district": "Fayette County", "city": "Lexington", "ncessch": "210186000354"}, {"name": "Crawford Middle School", "lat": 38.0518, "lon": -84.4312, "proficiency": 0.12, "district": "Fayette County", "city": "Lexington", "ncessch": "210186000357"}, {"name": "Bryan Station Middle School", "lat": 38.0663, "lon": -84.4534, "proficiency": 0.22, "district": "Fayette County", "city": "Lexington", "ncessch": "210186000358"}, {"name": "Leestown Middle School", "lat": 38.0713, "lon": -84.5343, "proficiency": 0.27, "district": "Fayette County", "city": "Lexington", "ncessch": "210186000369"}, {"name": "Lexington Trad Magnet School", "lat": 38.0499, "lon": -84.4911, "proficiency": 0.12, "district": "Fayette County", "city": "Lexington", "ncessch": "210186000370"}, {"name": "Morton Middle School", "lat": 38.0239, "lon": -84.4905, "proficiency": 0.32, "district": "Fayette County", "city": "Lexington", "ncessch": "210186000374"}, {"name": "Tates Creek Middle School", "lat": 37.9854, "lon": -84.4818, "proficiency": 0.32, "district": "Fayette County", "city": "Lexington", "ncessch": "210186000382"}, {"name": "Jessie M Clark Middle School", "lat": 37.9988, "lon": -84.5481, "proficiency": 0.37, "district": "Fayette County", "city": "Lexington", "ncessch": "210186000391"}, {"name": "Winburn Middle School", "lat": 38.0872, "lon": -84.4779, "proficiency": 0.22, "district": "Fayette County", "city": "Lexington", "ncessch": "210186000393"}, {"name": "Southern Middle School", "lat": 37.9791, "lon": -84.5119, "proficiency": 0.22, "district": "Fayette County", "city": "Lexington", "ncessch": "210186000394"}, {"name": "Audrey Grevious Center", "lat": 38.047169, "lon": -84.527688, "proficiency": -0.03, "district": "Fayette County", "city": "Lexington", "ncessch": "210186001480"}, {"name": "Martin L King Acad for Excellence Alt", "lat": 38.025859, "lon": -84.448761, "proficiency": 0.245, "district": "Fayette County", "city": "Lexington", "ncessch": "210186001848"}, {"name": "Edythe Jones Hayes Middle School", "lat": 37.9798, "lon": -84.4109, "proficiency": 0.5, "district": "Fayette County", "city": "Lexington", "ncessch": "210186001957"}, {"name": "Fayette County Learning Center", "lat": 38.071, "lon": -84.5066, "proficiency": 0.245, "district": "Fayette County", "city": "Lexington", "ncessch": "210186002251"}, {"name": "The Stables", "lat": 38.165888, "lon": -84.52885, "proficiency": 0.245, "district": "Fayette County", "city": "Lexington", "ncessch": "210186002320"}, {"name": "Carter G. Woodson Academy", "lat": 38.039091, "lon": -84.434964, "proficiency": 0.1, "district": "Fayette County", "city": "Lexington", "ncessch": "210186002323"}, {"name": "Family Care Center", "lat": 38.046401, "lon": -84.525607, "proficiency": -0.03, "district": "Fayette County", "city": "Lexington", "ncessch": "210186002325"}, {"name": "FCPS Virtual Academy", "lat": 38.036475, "lon": -84.484836, "proficiency": -0.03, "district": "Fayette County", "city": "Lexington", "ncessch": "210186002506"}, {"name": "Simons Middle School", "lat": 38.4262, "lon": -83.7365, "proficiency": 0.27, "district": "Fleming County", "city": "Flemingsburg", "ncessch": "210192000397"}, {"name": "Allen Elementary School", "lat": 37.631891, "lon": -82.712839, "proficiency": 0.15, "district": "Floyd County", "city": "Allen", "ncessch": "210195000403"}, {"name": "Betsy Layne Elementary School", "lat": 37.554374, "lon": -82.633351, "proficiency": 0.075, "district": "Floyd County", "city": "Betsy Layne", "ncessch": "210195000407"}, {"name": "John M. Stumbo Elementary School", "lat": 37.476029, "lon": -82.656097, "proficiency": 0.245, "district": "Floyd County", "city": "Grethel", "ncessch": "210195000415"}, {"name": "James D. Adams Middle School", "lat": 37.66921, "lon": -82.743471, "proficiency": 0.17, "district": "Floyd County", "city": "Prestonsburg", "ncessch": "210195001670"}, {"name": "South Floyd Elementary School", "lat": 37.383014, "lon": -82.73487, "proficiency": 0.245, "district": "Floyd County", "city": "Hi Hat", "ncessch": "210195002446"}, {"name": "Duff-Allen Central Elementary", "lat": 37.507194, "lon": -82.815995, "proficiency": 0.12, "district": "Floyd County", "city": "Eastern", "ncessch": "210195002452"}, {"name": "Second Street School", "lat": 38.195753, "lon": -84.881814, "proficiency": 0.15, "district": "Frankfort Independent", "city": "Frankfort", "ncessch": "210198000432"}, {"name": "Bondurant Middle School", "lat": 38.164743, "lon": -84.90706, "proficiency": 0.22, "district": "Franklin County", "city": "Frankfort", "ncessch": "210201000435"}, {"name": "Elkhorn Middle School", "lat": 38.2098, "lon": -84.8281, "proficiency": 0.12, "district": "Franklin County", "city": "Frankfort", "ncessch": "210201000438"}, {"name": "The Academy", "lat": 38.173211, "lon": -84.818639, "proficiency": -0.03, "district": "Franklin County", "city": "Frankfort", "ncessch": "210201001917"}, {"name": "Future Forward Education & Career Center", "lat": 38.112298, "lon": -84.546204, "proficiency": -0.03, "district": "Franklin County", "city": "Lexington", "ncessch": "210201002518"}, {"name": "Highlands Middle School", "lat": 39.0851, "lon": -84.4506, "proficiency": 0.52, "district": "Fort Thomas Independent", "city": "Fort Thomas", "ncessch": "210204001400"}, {"name": "Fulton Independent School", "lat": 36.509649, "lon": -88.890339, "proficiency": 0.1, "district": "Fulton Independent", "city": "Fulton", "ncessch": "210207002205"}, {"name": "Fulton County Middle School", "lat": 36.567056, "lon": -89.156336, "proficiency": 0.15, "district": "Fulton County", "city": "Hickman", "ncessch": "210210002480"}, {"name": "Gallatin County Middle School", "lat": 38.785336, "lon": -84.891525, "proficiency": 0.32, "district": "Gallatin County", "city": "Warsaw", "ncessch": "210213001609"}, {"name": "Garrard Middle School", "lat": 37.6227, "lon": -84.5835, "proficiency": 0.17, "district": "Garrard County", "city": "Lancaster", "ncessch": "210216001672"}, {"name": "Glasgow Middle School", "lat": 37.01079, "lon": -85.885932, "proficiency": 0.27, "district": "Glasgow Independent", "city": "Glasgow", "ncessch": "210222000402"}, {"name": "Grant County Middle School", "lat": 38.667307, "lon": -84.580651, "proficiency": 0.22, "district": "Grant County", "city": "Dry Ridge", "ncessch": "210225000469"}, {"name": "Graves County Middle School", "lat": 36.762704, "lon": -88.65094, "proficiency": 0.41, "district": "Graves County", "city": "Mayfield", "ncessch": "210228001436"}, {"name": "Mayfield Youth Development Center", "lat": 36.714268, "lon": -88.676473, "proficiency": -0.03, "district": "Graves County", "city": "Mayfield", "ncessch": "210228001754"}, {"name": "Grayson County Middle School", "lat": 37.482977, "lon": -86.282403, "proficiency": 0.2, "district": "Grayson County", "city": "Leitchfield", "ncessch": "210230000487"}, {"name": "Green County Middle School", "lat": 37.2543, "lon": -85.4879, "proficiency": 0.42, "district": "Green County", "city": "Greensburg", "ncessch": "210234001526"}, {"name": "Wurtland Middle School", "lat": 38.5486, "lon": -82.775, "proficiency": 0.17, "district": "Greenup County", "city": "Wurtland", "ncessch": "210240001610"}, {"name": "Mckell Middle School", "lat": 38.7217, "lon": -82.9472, "proficiency": 0.17, "district": "Greenup County", "city": "South Shore", "ncessch": "210240001611"}, {"name": "Hancock County Middle School", "lat": 37.9177, "lon": -86.8047, "proficiency": 0.37, "district": "Hancock County", "city": "Lewisport", "ncessch": "210246000508"}, {"name": "East Hardin Middle School", "lat": 37.671021, "lon": -85.860022, "proficiency": 0.32, "district": "Hardin County", "city": "Elizabethtown", "ncessch": "210249000512"}, {"name": "James T Alton Middle School", "lat": 37.805056, "lon": -85.988208, "proficiency": 0.37, "district": "Hardin County", "city": "Vine Grove", "ncessch": "210249000518"}, {"name": "North Middle School", "lat": 37.818408, "lon": -85.952213, "proficiency": 0.22, "district": "Hardin County", "city": "Radcliff", "ncessch": "210249000520"}, {"name": "West Hardin Middle School", "lat": 37.616167, "lon": -86.01808, "proficiency": 0.32, "district": "Hardin County", "city": "Cecilia", "ncessch": "210249000525"}, {"name": "Hardin County Day Treatment Center", "lat": 37.70671, "lon": -85.883486, "proficiency": -0.03, "district": "Hardin County", "city": "Elizabethtown", "ncessch": "210249000656"}, {"name": "Bluegrass Middle School", "lat": 37.757049, "lon": -85.901759, "proficiency": 0.22, "district": "Hardin County", "city": "Elizabethtown", "ncessch": "210249001673"}, {"name": "College View Campus", "lat": 37.688591, "lon": -85.886451, "proficiency": 0.245, "district": "Hardin County", "city": "Elizabethtown", "ncessch": "210249002439"}, {"name": "Harlan High School", "lat": 36.8469, "lon": -83.3185, "proficiency": 0.245, "district": "Harlan Independent", "city": "Harlan", "ncessch": "210252000552"}, {"name": "Cumberland Elementary School", "lat": 36.971481, "lon": -82.976309, "proficiency": 0.05, "district": "Harlan County", "city": "Cumberland", "ncessch": "210254000091"}, {"name": "Black Mountain Elementary School", "lat": 36.857751, "lon": -83.168931, "proficiency": 0.05, "district": "Harlan County", "city": "Evarts", "ncessch": "210254000532"}, {"name": "Cawood Elementary School", "lat": 36.784261, "lon": -83.229837, "proficiency": 0.1, "district": "Harlan County", "city": "Cawood", "ncessch": "210254000534"}, {"name": "Evarts Elementary School", "lat": 36.868773, "lon": -83.193249, "proficiency": 0.3, "district": "Harlan County", "city": "Evarts", "ncessch": "210254000539"}, {"name": "Green Hills Elementary School", "lat": 36.899761, "lon": -83.347729, "proficiency": 0.245, "district": "Harlan County", "city": "Bledsoe", "ncessch": "210254000540"}, {"name": "James A. Cawood Elementary", "lat": 36.809979, "lon": -83.318125, "proficiency": 0.245, "district": "Harlan County", "city": "Harlan", "ncessch": "210254000541"}, {"name": "Rosspoint Elementary School", "lat": 36.883337, "lon": -83.289977, "proficiency": 0.245, "district": "Harlan County", "city": "Baxter", "ncessch": "210254000545"}, {"name": "Wallins Elementary School", "lat": 36.821997, "lon": -83.411556, "proficiency": 0.345, "district": "Harlan County", "city": "Wallins", "ncessch": "210254000549"}, {"name": "Harrison County Middle School", "lat": 38.379966, "lon": -84.288146, "proficiency": 0.22, "district": "Harrison County", "city": "Cynthiana", "ncessch": "210258000556"}, {"name": "Bonnieville Elementary School", "lat": 37.3813, "lon": -85.9026, "proficiency": 0.05, "district": "Hart County", "city": "Bonnieville", "ncessch": "210264000562"}, {"name": "Cub Run Elementary School", "lat": 37.3028, "lon": -86.061645, "proficiency": 0.3, "district": "Hart County", "city": "Cub Run", "ncessch": "210264000563"}, {"name": "Legrande Elementary School", "lat": 37.1714, "lon": -85.7952, "proficiency": 0.1, "district": "Hart County", "city": "Horse Cave", "ncessch": "210264000565"}, {"name": "Memorial Elementary School", "lat": 37.272, "lon": -85.7738, "proficiency": 0.15, "district": "Hart County", "city": "Hardyville", "ncessch": "210264000566"}, {"name": "Munfordville Elementary School", "lat": 37.2682, "lon": -85.8933, "proficiency": 0.245, "district": "Hart County", "city": "Munfordville", "ncessch": "210264000567"}, {"name": "Hazard Middle School", "lat": 37.263361, "lon": -83.19277, "proficiency": 0.22, "district": "Hazard Independent", "city": "Hazard", "ncessch": "210267000569"}, {"name": "Henderson County North Middle School", "lat": 37.8324, "lon": -87.5698, "proficiency": 0.37, "district": "Henderson County", "city": "Henderson", "ncessch": "210271000578"}, {"name": "Henderson County South Middle School", "lat": 37.8255, "lon": -87.5949, "proficiency": 0.57, "district": "Henderson County", "city": "Henderson", "ncessch": "210271000585"}, {"name": "The Central Academy", "lat": 37.834494, "lon": -87.58345, "proficiency": 0.245, "district": "Henderson County", "city": "Henderson", "ncessch": "210271002457"}, {"name": "Henry County Middle School", "lat": 38.419919, "lon": -85.167986, "proficiency": 0.27, "district": "Henry County", "city": "New Castle", "ncessch": "210276000591"}, {"name": "Hickman County High School", "lat": 36.670905, "lon": -88.991566, "proficiency": 0.445, "district": "Hickman County", "city": "Clinton", "ncessch": "210279000594"}, {"name": "Browning Springs Middle School", "lat": 37.330918, "lon": -87.508611, "proficiency": 0.22, "district": "Hopkins County", "city": "Madisonville", "ncessch": "210286000601"}, {"name": "James Madison Middle School", "lat": 37.33282, "lon": -87.472781, "proficiency": 0.27, "district": "Hopkins County", "city": "Madisonville", "ncessch": "210286000681"}, {"name": "West Hopkins School", "lat": 37.306234, "lon": -87.705418, "proficiency": 0.15, "district": "Hopkins County", "city": "Nebo", "ncessch": "210286001472"}, {"name": "South Hopkins Middle School", "lat": 37.216037, "lon": -87.466071, "proficiency": 0.32, "district": "Hopkins County", "city": "Nortonville", "ncessch": "210286001499"}, {"name": "Hopkins County Day Treatment", "lat": 37.326771, "lon": -87.500979, "proficiency": -0.03, "district": "Hopkins County", "city": "Madisonville", "ncessch": "210286001586"}, {"name": "Jackson City School", "lat": 37.553052, "lon": -83.379541, "proficiency": 0.1, "district": "Jackson Independent", "city": "Jackson", "ncessch": "210291001719"}, {"name": "Jackson County Middle School", "lat": 37.42232, "lon": -83.948006, "proficiency": 0.17, "district": "Jackson County", "city": "McKee", "ncessch": "210294001674"}, {"name": "Barnabus Home Middle School", "lat": 37.31934, "lon": -83.974811, "proficiency": -0.03, "district": "Jackson County", "city": "Annville", "ncessch": "210294002375"}, {"name": "Barret Traditional Middle", "lat": 38.249444, "lon": -85.696053, "proficiency": 0.37, "district": "Jefferson County", "city": "Louisville", "ncessch": "210299000641"}, {"name": "Newburg Middle", "lat": 38.1803, "lon": -85.6678, "proficiency": 0.12, "district": "Jefferson County", "city": "Louisville", "ncessch": "210299000642"}, {"name": "Westport Middle", "lat": 38.2758, "lon": -85.6, "proficiency": 0.17, "district": "Jefferson County", "city": "Louisville", "ncessch": "210299000670"}, {"name": "Thomas Jefferson Middle", "lat": 38.169, "lon": -85.6794, "proficiency": 0.075, "district": "Jefferson County", "city": "Louisville", "ncessch": "210299000682"}, {"name": "Crosby Middle", "lat": 38.240052, "lon": -85.555377, "proficiency": 0.27, "district": "Jefferson County", "city": "Louisville", "ncessch": "210299000703"}, {"name": "Lassiter Middle", "lat": 38.131, "lon": -85.7863, "proficiency": 0.12, "district": "Jefferson County", "city": "Louisville", "ncessch": "210299000711"}, {"name": "Kammerer Middle", "lat": 38.2839, "lon": -85.6193, "proficiency": 0.22, "district": "Jefferson County", "city": "Louisville", "ncessch": "210299000724"}, {"name": "Knight Middle", "lat": 38.1052, "lon": -85.6913, "proficiency": 0.075, "district": "Jefferson County", "city": "Louisville", "ncessch": "210299000725"}, {"name": "Conway Middle", "lat": 38.1594, "lon": -85.8684, "proficiency": 0.025, "district": "Jefferson County", "city": "Louisville", "ncessch": "210299000726"}, {"name": "Carrithers Middle", "lat": 38.1815, "lon": -85.5749, "proficiency": 0.075, "district": "Jefferson County", "city": "Louisville", "ncessch": "210299000728"}, {"name": "Binet School", "lat": 38.2077, "lon": -85.6562, "proficiency": -0.03, "district": "Jefferson County", "city": "Louisville", "ncessch": "210299000732"}, {"name": "Highland Middle", "lat": 38.2233, "lon": -85.7065, "proficiency": 0.075, "district": "Jefferson County", "city": "Louisville", "ncessch": "210299000750"}, {"name": "Meyzeek Middle", "lat": 38.2418, "lon": -85.747, "proficiency": 0.42, "district": "Jefferson County", "city": "Louisville", "ncessch": "210299000754"}, {"name": "Jefferson County Traditional Middle", "lat": 38.240136, "lon": -85.727263, "proficiency": 0.27, "district": "Jefferson County", "city": "Louisville", "ncessch": "210299000760"}, {"name": "Noe Middle", "lat": 38.223516, "lon": -85.758289, "proficiency": 0.44, "district": "Jefferson County", "city": "Louisville", "ncessch": "210299000763"}, {"name": "Johnson Traditional Middle", "lat": 38.235297, "lon": -85.795662, "proficiency": 0.075, "district": "Jefferson County", "city": "Louisville", "ncessch": "210299000769"}, {"name": "The Academy @ Shawnee", "lat": 38.262092, "lon": -85.815312, "proficiency": 0.1, "district": "Jefferson County", "city": "Louisville", "ncessch": "210299000777"}, {"name": "Frederick Law Olmsted Academy North", "lat": 38.187101, "lon": -85.774441, "proficiency": 0.025, "district": "Jefferson County", "city": "Louisville", "ncessch": "210299000781"}, {"name": "Western Middle School for the Arts", "lat": 38.261, "lon": -85.7866, "proficiency": 0.075, "district": "Jefferson County", "city": "Louisville", "ncessch": "210299000785"}, {"name": "Churchill Park School", "lat": 38.2061, "lon": -85.7523, "proficiency": -0.03, "district": "Jefferson County", "city": "Louisville", "ncessch": "210299000789"}, {"name": "Jefferson Regional Juvenile Detention Ce", "lat": 38.254126, "lon": -85.763433, "proficiency": -0.03, "district": "Jefferson County", "city": "Louisville", "ncessch": "210299001082"}, {"name": "Frederick Law Olmsted Academy South", "lat": 38.1723, "lon": -85.779, "proficiency": 0.025, "district": "Jefferson County", "city": "Louisville", "ncessch": "210299001425"}, {"name": "Stuart Academy", "lat": 38.1085, "lon": -85.8446, "proficiency": 0.025, "district": "Jefferson County", "city": "Louisville", "ncessch": "210299001427"}, {"name": "Boys & Girls Haven", "lat": 38.211302, "lon": -85.66928, "proficiency": -0.03, "district": "Jefferson County", "city": "Louisville", "ncessch": "210299001475"}, {"name": "Mary Jo and William MacDonald Maryhurst", "lat": 38.2648, "lon": -85.5616, "proficiency": 0.245, "district": "Jefferson County", "city": "Louisville", "ncessch": "210299001492"}, {"name": "Waller-Williams Environmental", "lat": 38.1775, "lon": -85.8429, "proficiency": 0.1, "district": "Jefferson County", "city": "Louisville", "ncessch": "210299001529"}, {"name": "Farnsley Middle", "lat": 38.184641, "lon": -85.85825, "proficiency": 0.12, "district": "Jefferson County", "city": "Louisville", "ncessch": "210299001530"}, {"name": "Georgia Chaffee Teenage Parent Program", "lat": 38.1162, "lon": -85.7492, "proficiency": -0.03, "district": "Jefferson County", "city": "Fairdale", "ncessch": "210299001612"}, {"name": "St Joseph Children's Home", "lat": 38.25622, "lon": -85.689779, "proficiency": -0.03, "district": "Jefferson County", "city": "Louisville", "ncessch": "210299001633"}, {"name": "Liberty High", "lat": 38.17973, "lon": -85.705974, "proficiency": -0.03, "district": "Jefferson County", "city": "Louisville", "ncessch": "210299001634"}, {"name": "Home of the Innocents School", "lat": 38.2523, "lon": -85.7322, "proficiency": -0.03, "district": "Jefferson County", "city": "Louisville", "ncessch": "210299001946"}, {"name": "Marion C. Moore School", "lat": 38.1397, "lon": -85.6386, "proficiency": 0.075, "district": "Jefferson County", "city": "Louisville", "ncessch": "210299002026"}, {"name": "J. Graham Brown School", "lat": 38.2504, "lon": -85.753, "proficiency": 0.645, "district": "Jefferson County", "city": "Louisville", "ncessch": "210299002027"}, {"name": "The Phoenix School of Discovery", "lat": 38.256066, "lon": -85.604752, "proficiency": 0.05, "district": "Jefferson County", "city": "Louisville", "ncessch": "210299002121"}, {"name": "Newcomer Academy", "lat": 38.2042, "lon": -85.6434, "proficiency": 0.025, "district": "Jefferson County", "city": "Louisville", "ncessch": "210299002180"}, {"name": "Ramsey Middle", "lat": 38.149353, "lon": -85.546225, "proficiency": 0.12, "district": "Jefferson County", "city": "Louisville", "ncessch": "210299002190"}, {"name": "Brooklawn", "lat": 38.2085, "lon": -85.674431, "proficiency": 0.1, "district": "Jefferson County", "city": "Louisville", "ncessch": "210299002399"}, {"name": "Minor Daniels Academy", "lat": 38.1978, "lon": -85.6731, "proficiency": 0.245, "district": "Jefferson County", "city": "Louisville", "ncessch": "210299002412"}, {"name": "W.E.B. DuBois Academy", "lat": 38.17126, "lon": -85.700191, "proficiency": 0.025, "district": "Jefferson County", "city": "Louisville", "ncessch": "210299002458"}, {"name": "Jenkins Independent School", "lat": 37.16211, "lon": -82.644372, "proficiency": 0.05, "district": "Jenkins Independent", "city": "Jenkins", "ncessch": "210300001642"}, {"name": "East Jessamine Middle School", "lat": 37.886, "lon": -84.5438, "proficiency": 0.17, "district": "Jessamine County", "city": "Nicholasville", "ncessch": "210303000797"}, {"name": "West Jessamine Middle School", "lat": 37.8843, "lon": -84.6068, "proficiency": 0.28, "district": "Jessamine County", "city": "Nicholasville", "ncessch": "210303001110"}, {"name": "The Providence School", "lat": 37.859047, "lon": -84.665594, "proficiency": 0.245, "district": "Jessamine County", "city": "Wilmore", "ncessch": "210303001900"}, {"name": "Ashgrove Academy", "lat": 37.945454, "lon": -84.532471, "proficiency": -0.03, "district": "Jessamine County", "city": "Nicholasville", "ncessch": "210303002442"}, {"name": "Johnson County Middle School", "lat": 37.820252, "lon": -82.81552, "proficiency": 0.27, "district": "Johnson County", "city": "Paintsville", "ncessch": "210306000800"}, {"name": "Turkey Foot Middle School", "lat": 39.013544, "lon": -84.581117, "proficiency": 0.32, "district": "Kenton County", "city": "Edgewood", "ncessch": "210309000820"}, {"name": "Twenhofel Middle School", "lat": 38.914963, "lon": -84.527766, "proficiency": 0.42, "district": "Kenton County", "city": "Independence", "ncessch": "210309000821"}, {"name": "Woodland Middle School", "lat": 38.995765, "lon": -84.508536, "proficiency": 0.32, "district": "Kenton County", "city": "Taylor Mill", "ncessch": "210309001588"}, {"name": "Summit View Academy", "lat": 38.959631, "lon": -84.539527, "proficiency": 0.32, "district": "Kenton County", "city": "Independence", "ncessch": "210309002420"}, {"name": "Beaver Creek Elementary School", "lat": 37.3512, "lon": -82.8112, "proficiency": 0.3, "district": "Knott County", "city": "Topmost", "ncessch": "210312000826"}, {"name": "Carr Creek Elementary School", "lat": 37.2427, "lon": -82.9493, "proficiency": 0.15, "district": "Knott County", "city": "Littcarr", "ncessch": "210312000830"}, {"name": "Emmalena Elementary School", "lat": 37.336, "lon": -83.0771, "proficiency": 0.1, "district": "Knott County", "city": "Emmalena", "ncessch": "210312000834"}, {"name": "Hindman Elementary School", "lat": 37.330745, "lon": -82.994867, "proficiency": 0.15, "district": "Knott County", "city": "Hindman", "ncessch": "210312000835"}, {"name": "Jones Fork Elementary School", "lat": 37.417921, "lon": -82.878593, "proficiency": 0.245, "district": "Knott County", "city": "Mousie", "ncessch": "210312000836"}, {"name": "Cordia School", "lat": 37.276509, "lon": -83.109722, "proficiency": 0.245, "district": "Knott County", "city": "Hazard", "ncessch": "210312002233"}, {"name": "Lynn Camp Schools", "lat": 36.946829, "lon": -84.037347, "proficiency": 0.05, "district": "Knox County", "city": "Corbin", "ncessch": "210315000850"}, {"name": "Knox Appalachian School", "lat": 36.869926, "lon": -83.846458, "proficiency": -0.03, "district": "Knox County", "city": "Barbourville", "ncessch": "210315001997"}, {"name": "Knox County Middle School", "lat": 36.8683, "lon": -83.8909, "proficiency": 0.17, "district": "Knox County", "city": "Barbourville", "ncessch": "210315002029"}, {"name": "Knox County Day Treatment", "lat": 36.86749, "lon": -83.892099, "proficiency": -0.03, "district": "Knox County", "city": "Barbourville", "ncessch": "210315002357"}, {"name": "LaRue County Middle School", "lat": 37.555835, "lon": -85.73348, "proficiency": 0.22, "district": "LaRue County", "city": "Hodgenville", "ncessch": "210318000854"}, {"name": "The Life Connection", "lat": 37.473665, "lon": -85.79705, "proficiency": 0.245, "district": "LaRue County", "city": "Sonora", "ncessch": "210318002216"}, {"name": "South Laurel Middle School", "lat": 37.104199, "lon": -84.073609, "proficiency": 0.32, "district": "Laurel County", "city": "London", "ncessch": "210321000858"}, {"name": "North Laurel Middle School", "lat": 37.132342, "lon": -84.051988, "proficiency": 0.42, "district": "Laurel County", "city": "London", "ncessch": "210321001589"}, {"name": "Laurel County Day Treatment", "lat": 37.085719, "lon": -83.922333, "proficiency": 0.245, "district": "Laurel County", "city": "London", "ncessch": "210321001677"}, {"name": "Blaine Elementary School", "lat": 38.031578, "lon": -82.846255, "proficiency": 0.3, "district": "Lawrence County", "city": "Blaine", "ncessch": "210324000870"}, {"name": "Fallsburg Elementary School", "lat": 38.180078, "lon": -82.679744, "proficiency": 0.1, "district": "Lawrence County", "city": "Louisa", "ncessch": "210324000871"}, {"name": "Louisa Middle School", "lat": 38.093999, "lon": -82.606361, "proficiency": 0.22, "district": "Lawrence County", "city": "Louisa", "ncessch": "210324000872"}, {"name": "Lee County Middle High School", "lat": 37.581619, "lon": -83.708357, "proficiency": 0.17, "district": "Lee County", "city": "Beattyville", "ncessch": "210327002434"}, {"name": "Hayes Lewis Elementary School", "lat": 37.07908, "lon": -83.23443, "proficiency": 0.3, "district": "Leslie County", "city": "Yeaddiss", "ncessch": "210333000882"}, {"name": "Mountain View Elementary", "lat": 37.164315, "lon": -83.400473, "proficiency": 0.15, "district": "Leslie County", "city": "Hyden", "ncessch": "210333000883"}, {"name": "W B Muncy Elementary School", "lat": 37.1832, "lon": -83.303, "proficiency": 0.495, "district": "Leslie County", "city": "Wooton", "ncessch": "210333000886"}, {"name": "Stinnett Elementary School", "lat": 37.06691, "lon": -83.408287, "proficiency": 0.345, "district": "Leslie County", "city": "Hoskinston", "ncessch": "210333000887"}, {"name": "Arlie Boggs Elementary School", "lat": 37.054199, "lon": -82.796823, "proficiency": 0.1, "district": "Letcher County", "city": "Eolia", "ncessch": "210336000892"}, {"name": "Fleming Neon Middle School", "lat": 37.1921, "lon": -82.712, "proficiency": 0.075, "district": "Letcher County", "city": "Neon", "ncessch": "210336000894"}, {"name": "Cowan Elementary School", "lat": 37.0942, "lon": -82.8427, "proficiency": 0.3, "district": "Letcher County", "city": "Whitesburg", "ncessch": "210336000900"}, {"name": "Whitesburg Middle School", "lat": 37.119399, "lon": -82.83619, "proficiency": 0.445, "district": "Letcher County", "city": "Whitesburg", "ncessch": "210336000904"}, {"name": "Lewis County Middle School", "lat": 38.597, "lon": -83.3443, "proficiency": 0.27, "district": "Lewis County", "city": "Vanceburg", "ncessch": "210339001503"}, {"name": "Lincoln County Middle School", "lat": 37.513934, "lon": -84.652987, "proficiency": 0.12, "district": "Lincoln County", "city": "Stanford", "ncessch": "210348000478"}, {"name": "Livingston County Middle School", "lat": 37.233242, "lon": -88.377748, "proficiency": 0.42, "district": "Livingston County", "city": "Burna", "ncessch": "210351001484"}, {"name": "Adairville Elementary School", "lat": 36.673483, "lon": -86.854714, "proficiency": 0.445, "district": "Logan County", "city": "Adairville", "ncessch": "210354001542"}, {"name": "Auburn Elementary School", "lat": 36.864271, "lon": -86.714392, "proficiency": 0.42, "district": "Logan County", "city": "Auburn", "ncessch": "210354001543"}, {"name": "Chandlers Elementary School", "lat": 36.920282, "lon": -86.824474, "proficiency": 0.345, "district": "Logan County", "city": "Russellville", "ncessch": "210354001544"}, {"name": "Lewisburg Elementary School", "lat": 36.985329, "lon": -86.947266, "proficiency": 0.545, "district": "Logan County", "city": "Lewisburg", "ncessch": "210354001545"}, {"name": "Olmstead Elementary School", "lat": 36.753569, "lon": -87.010547, "proficiency": 0.495, "district": "Logan County", "city": "Olmstead", "ncessch": "210354001546"}, {"name": "Ludlow High School", "lat": 39.091704, "lon": -84.553494, "proficiency": 0.15, "district": "Ludlow Independent", "city": "Ludlow", "ncessch": "210363000939"}, {"name": "Lyon County Middle School", "lat": 37.09528, "lon": -88.078661, "proficiency": 0.57, "district": "Lyon County", "city": "Eddyville", "ncessch": "210369001950"}, {"name": "Madison Middle School", "lat": 37.745169, "lon": -84.295623, "proficiency": 0.17, "district": "Madison County", "city": "Richmond", "ncessch": "210372000250"}, {"name": "Clark Moores Middle School", "lat": 37.728986, "lon": -84.27102, "proficiency": 0.17, "district": "Madison County", "city": "Richmond", "ncessch": "210372000944"}, {"name": "Foley Middle School", "lat": 37.588252, "lon": -84.288326, "proficiency": 0.22, "district": "Madison County", "city": "Berea", "ncessch": "210372000953"}, {"name": "Madison County Day Treatment", "lat": 37.757216, "lon": -84.299413, "proficiency": -0.03, "district": "Madison County", "city": "Richmond", "ncessch": "210372001678"}, {"name": "B. Michael Caudill Middle School", "lat": 37.774112, "lon": -84.291282, "proficiency": 0.37, "district": "Madison County", "city": "Richmond", "ncessch": "210372002217"}, {"name": "Farristown Middle School", "lat": 37.616886, "lon": -84.299103, "proficiency": 0.47, "district": "Madison County", "city": "Berea", "ncessch": "210372002311"}, {"name": "Bellevue Transitional School", "lat": 37.757216, "lon": -84.299413, "proficiency": -0.03, "district": "Madison County", "city": "Richmond", "ncessch": "210372002484"}, {"name": "Herald Whitaker Middle School", "lat": 37.738395, "lon": -83.072583, "proficiency": 0.075, "district": "Magoffin County", "city": "Salyersville", "ncessch": "210375001618"}, {"name": "Marion County Knight Academy", "lat": 37.578233, "lon": -85.234836, "proficiency": 0.22, "district": "Marion County", "city": "Lebanon", "ncessch": "210378002443"}, {"name": "North Marshall Middle School", "lat": 36.958841, "lon": -88.362853, "proficiency": 0.27, "district": "Marshall County", "city": "Calvert City", "ncessch": "210381000977"}, {"name": "South Marshall Middle", "lat": 36.821406, "lon": -88.365172, "proficiency": 0.32, "district": "Marshall County", "city": "Benton", "ncessch": "210381002428"}, {"name": "MC Academy", "lat": 36.912233, "lon": -88.332346, "proficiency": 0.245, "district": "Marshall County", "city": "Benton", "ncessch": "210381002474"}, {"name": "Martin County Middle School", "lat": 37.845239, "lon": -82.426102, "proficiency": 0.22, "district": "Martin County", "city": "Warfield", "ncessch": "210384002386"}, {"name": "Mason County Middle School", "lat": 38.6324, "lon": -83.7883, "proficiency": 0.22, "district": "Mason County", "city": "Maysville", "ncessch": "210387000991"}, {"name": "Mayfield Middle School", "lat": 36.7331, "lon": -88.6358, "proficiency": 0.27, "district": "Mayfield Independent", "city": "Mayfield", "ncessch": "210390000996"}, {"name": "Heath Middle School", "lat": 37.078909, "lon": -88.794525, "proficiency": 0.37, "district": "McCracken County", "city": "West Paducah", "ncessch": "210396001006"}, {"name": "Lone Oak Middle School", "lat": 37.03715, "lon": -88.66775, "proficiency": 0.32, "district": "McCracken County", "city": "Paducah", "ncessch": "210396001010"}, {"name": "Reidland Middle School", "lat": 37.017301, "lon": -88.535064, "proficiency": 0.32, "district": "McCracken County", "city": "Paducah", "ncessch": "210396001013"}, {"name": "McCracken Open Campus School", "lat": 37.079181, "lon": -88.793558, "proficiency": -0.03, "district": "McCracken County", "city": "West Paducah", "ncessch": "210396001801"}, {"name": "McCracken Regional School", "lat": 37.0898, "lon": -88.6717, "proficiency": -0.03, "district": "McCracken County", "city": "Paducah", "ncessch": "210396001862"}, {"name": "McCreary County Middle School", "lat": 36.706682, "lon": -84.463627, "proficiency": 0.22, "district": "McCreary County", "city": "Stearns", "ncessch": "210399002002"}, {"name": "McLean County Middle School", "lat": 37.5486, "lon": -87.2305, "proficiency": 0.22, "district": "McLean County", "city": "Calhoun", "ncessch": "210402001140"}, {"name": "Stuart Pepper Middle School", "lat": 37.9851, "lon": -86.1649, "proficiency": 0.37, "district": "Meade County", "city": "Brandenburg", "ncessch": "210405001029"}, {"name": "Kenneth D. King Middle School", "lat": 37.777922, "lon": -84.855959, "proficiency": 0.12, "district": "Mercer County", "city": "Harrodsburg", "ncessch": "210411000482"}, {"name": "Metcalfe County Middle School", "lat": 36.98154, "lon": -85.633125, "proficiency": 0.17, "district": "Metcalfe County", "city": "Edmonton", "ncessch": "210414000729"}, {"name": "Middlesboro Middle School", "lat": 36.607768, "lon": -83.747036, "proficiency": 0.27, "district": "Middlesboro Independent", "city": "Middlesboro", "ncessch": "210417001049"}, {"name": "Middlesboro Alternative School", "lat": 36.609704, "lon": -83.714276, "proficiency": -0.03, "district": "Middlesboro Independent", "city": "Middlesboro", "ncessch": "210417001680"}, {"name": "Monroe Co Middle", "lat": 36.6944, "lon": -85.7, "proficiency": 0.17, "district": "Monroe County", "city": "Tompkinsville", "ncessch": "210420001053"}, {"name": "McNabb Middle School", "lat": 38.042032, "lon": -83.939801, "proficiency": 0.17, "district": "Montgomery County", "city": "Mt Sterling", "ncessch": "210425001538"}, {"name": "Gateway Children's Services", "lat": 38.057121, "lon": -83.942176, "proficiency": -0.03, "district": "Montgomery County", "city": "Mt Sterling", "ncessch": "210425001868"}, {"name": "The Sterling School", "lat": 38.044809, "lon": -83.941371, "proficiency": -0.03, "district": "Montgomery County", "city": "Mt Sterling", "ncessch": "210425002317"}, {"name": "Morgan County Middle School", "lat": 37.8933, "lon": -83.2837, "proficiency": 0.17, "district": "Morgan County", "city": "West Liberty", "ncessch": "210429001067"}, {"name": "Murray Middle School", "lat": 36.609939, "lon": -88.309971, "proficiency": 0.57, "district": "Murray Independent", "city": "Murray", "ncessch": "210438001085"}, {"name": "Bloomfield Middle School", "lat": 37.9144, "lon": -85.3079, "proficiency": 0.22, "district": "Nelson County", "city": "Bloomfield", "ncessch": "210441001087"}, {"name": "Boston School", "lat": 37.7928, "lon": -85.659, "proficiency": 0.445, "district": "Nelson County", "city": "Boston", "ncessch": "210441001089"}, {"name": "Old Kentucky Home Middle School", "lat": 37.8316, "lon": -85.4276, "proficiency": 0.12, "district": "Nelson County", "city": "Bardstown", "ncessch": "210441001095"}, {"name": "The New Haven School", "lat": 37.6552, "lon": -85.5871, "proficiency": 0.05, "district": "Nelson County", "city": "New Haven", "ncessch": "210441001937"}, {"name": "The Academy at Horizons", "lat": 37.831084, "lon": -85.428991, "proficiency": 0.245, "district": "Nelson County", "city": "Bardstown", "ncessch": "210441002212"}, {"name": "Newport High School", "lat": 39.096, "lon": -84.4838, "proficiency": 0.12, "district": "Newport Independent", "city": "Newport", "ncessch": "210444001103"}, {"name": "Newport School of Innovation", "lat": 39.09305, "lon": -84.48671, "proficiency": -0.03, "district": "Newport Independent", "city": "Newport", "ncessch": "210444002493"}, {"name": "Nicholas County High School", "lat": 38.317272, "lon": -84.037844, "proficiency": 0.32, "district": "Nicholas County", "city": "Carlisle", "ncessch": "210447001107"}, {"name": "Ohio County Middle School", "lat": 37.428137, "lon": -86.883334, "proficiency": 0.37, "district": "Ohio County", "city": "Hartford", "ncessch": "210450001114"}, {"name": "Ohio County Alternative Learning Program", "lat": 37.447664, "lon": -86.902637, "proficiency": 0.245, "district": "Ohio County", "city": "Hartford", "ncessch": "210450002353"}, {"name": "Ohio County Day Treatment", "lat": 37.447664, "lon": -86.902637, "proficiency": -0.03, "district": "Ohio County", "city": "Hartford", "ncessch": "210450002361"}, {"name": "Oldham County Middle School", "lat": 38.385962, "lon": -85.441402, "proficiency": 0.37, "district": "Oldham County", "city": "Lagrange", "ncessch": "210453001126"}, {"name": "South Oldham Middle School", "lat": 38.330866, "lon": -85.467008, "proficiency": 0.47, "district": "Oldham County", "city": "Crestwood", "ncessch": "210453001433"}, {"name": "North Oldham Middle School", "lat": 38.3954, "lon": -85.586793, "proficiency": 0.47, "district": "Oldham County", "city": "Goshen", "ncessch": "210453001552"}, {"name": "East Oldham Middle School", "lat": 38.360533, "lon": -85.375847, "proficiency": 0.47, "district": "Oldham County", "city": "Crestwood", "ncessch": "210453002009"}, {"name": "Maurice Bowling Middle School", "lat": 38.530523, "lon": -84.805535, "proficiency": 0.22, "district": "Owen County", "city": "Owenton", "ncessch": "210456001539"}, {"name": "Owensboro Innovation Middle School", "lat": 37.745234, "lon": -87.124427, "proficiency": 0.17, "district": "Owensboro Independent", "city": "Owensboro", "ncessch": "210459002304"}, {"name": "Owensboro Middle School", "lat": 37.7486, "lon": -87.1246, "proficiency": 0.32, "district": "Owensboro Independent", "city": "Owensboro", "ncessch": "210459002305"}, {"name": "Owsley County High School", "lat": 37.476868, "lon": -83.665159, "proficiency": 0.15, "district": "Owsley County", "city": "Booneville", "ncessch": "210462001143"}, {"name": "Paducah Middle School", "lat": 37.066888, "lon": -88.637184, "proficiency": 0.17, "district": "Paducah Independent", "city": "Paducah", "ncessch": "210465001144"}, {"name": "Paintsville High School", "lat": 37.815545, "lon": -82.804776, "proficiency": 0.245, "district": "Paintsville Independent", "city": "Paintsville", "ncessch": "210468001156"}, {"name": "Paris Middle School", "lat": 38.212686, "lon": -84.255246, "proficiency": 0.075, "district": "Paris Independent", "city": "Paris", "ncessch": "210471001159"}, {"name": "Phillip Sharp Middle School", "lat": 38.7435, "lon": -84.366, "proficiency": 0.12, "district": "Pendleton County", "city": "Butler", "ncessch": "210474001646"}, {"name": "Buckhorn School", "lat": 37.346783, "lon": -83.472701, "proficiency": 0.245, "district": "Perry County", "city": "Buckhorn", "ncessch": "210477001166"}, {"name": "Leatherwood Elementary School", "lat": 37.047423, "lon": -83.130357, "proficiency": 0.245, "district": "Perry County", "city": "Leatherwood", "ncessch": "210477001170"}, {"name": "Robert W Combs Elementary School", "lat": 37.202405, "lon": -83.105434, "proficiency": 0.245, "district": "Perry County", "city": "Happy", "ncessch": "210477001174"}, {"name": "Robinson Elementary School", "lat": 37.367463, "lon": -83.150144, "proficiency": 0.245, "district": "Perry County", "city": "Ary", "ncessch": "210477001175"}, {"name": "Viper Elementary School", "lat": 37.161919, "lon": -83.13159, "proficiency": 0.3, "district": "Perry County", "city": "Viper", "ncessch": "210477001177"}, {"name": "East Perry County Elementary School", "lat": 37.294926, "lon": -83.198047, "proficiency": 0.22, "district": "Perry County", "city": "Hazard", "ncessch": "210477002354"}, {"name": "Perry County Alternative School", "lat": 37.275453, "lon": -83.23056, "proficiency": -0.03, "district": "Perry County", "city": "Hazard", "ncessch": "210477002387"}, {"name": "West Perry Elementary School", "lat": 37.275453, "lon": -83.23056, "proficiency": 0.17, "district": "Perry County", "city": "Hazard", "ncessch": "210477002453"}, {"name": "Dorton Elementary School", "lat": 37.2781, "lon": -82.5781, "proficiency": 0.3, "district": "Pike County", "city": "Dorton", "ncessch": "210480001183"}, {"name": "Elkhorn City Elementary School", "lat": 37.2983, "lon": -82.3567, "proficiency": 0.245, "district": "Pike County", "city": "Elkhorn City", "ncessch": "210480001185"}, {"name": "Johns Creek Elementary School", "lat": 37.564583, "lon": -82.454052, "proficiency": 0.27, "district": "Pike County", "city": "Pikeville", "ncessch": "210480001195"}, {"name": "Kimper Elementary School", "lat": 37.5164, "lon": -82.3627, "proficiency": 0.75, "district": "Pike County", "city": "Kimper", "ncessch": "210480001197"}, {"name": "Mullins Elementary School", "lat": 37.515448, "lon": -82.505018, "proficiency": 0.27, "district": "Pike County", "city": "Pikeville", "ncessch": "210480001202"}, {"name": "Phelps High School", "lat": 37.5026, "lon": -82.1809, "proficiency": 0.075, "district": "Pike County", "city": "Phelps", "ncessch": "210480001204"}, {"name": "Feds Creek Elementary School", "lat": 37.4012, "lon": -82.2446, "proficiency": 0.1, "district": "Pike County", "city": "Fedscreek", "ncessch": "210480002012"}, {"name": "Belfry Middle School", "lat": 37.622527, "lon": -82.268574, "proficiency": 0.32, "district": "Pike County", "city": "Belfry", "ncessch": "210480002013"}, {"name": "Millard School", "lat": 37.386961, "lon": -82.438667, "proficiency": 0.37, "district": "Pike County", "city": "Pikeville", "ncessch": "210480002240"}, {"name": "Northpoint Academy", "lat": 37.5377, "lon": -82.5809, "proficiency": -0.03, "district": "Pike County", "city": "Pikeville", "ncessch": "210480002256"}, {"name": "Valley Elementary School", "lat": 37.381419, "lon": -82.539585, "proficiency": 0.37, "district": "Pike County", "city": "Pikeville", "ncessch": "210480002296"}, {"name": "Pike County Day Treatment", "lat": 37.537819, "lon": -82.580967, "proficiency": -0.03, "district": "Pike County", "city": "Pikeville", "ncessch": "210480002444"}, {"name": "Pikeville High School", "lat": 37.4881, "lon": -82.543, "proficiency": 0.67, "district": "Pikeville Independent", "city": "Pikeville", "ncessch": "210483001214"}, {"name": "Pineville Independent School", "lat": 36.763373, "lon": -83.698191, "proficiency": 0.15, "district": "Pineville Independent", "city": "Pineville", "ncessch": "210486002393"}, {"name": "Powell County Middle School", "lat": 37.8463, "lon": -83.8737, "proficiency": 0.12, "district": "Powell County", "city": "Stanton", "ncessch": "210489001218"}, {"name": "Powell County Academy", "lat": 37.853792, "lon": -83.861349, "proficiency": -0.03, "district": "Powell County", "city": "Stanton", "ncessch": "210489002360"}, {"name": "Eagle Academy", "lat": 37.082877, "lon": -84.602153, "proficiency": 0.245, "district": "Pulaski County", "city": "Somerset", "ncessch": "210495001554"}, {"name": "Southern Middle School", "lat": 37.0337, "lon": -84.6204, "proficiency": 0.52, "district": "Pulaski County", "city": "Somerset", "ncessch": "210495001572"}, {"name": "Northern Middle School", "lat": 37.115533, "lon": -84.603525, "proficiency": 0.22, "district": "Pulaski County", "city": "Somerset", "ncessch": "210495001573"}, {"name": "Raceland-Worthington Middle School", "lat": 38.541929, "lon": -82.737437, "proficiency": 0.27, "district": "Raceland-Worthington Independent", "city": "Raceland", "ncessch": "210498001241"}, {"name": "Raceland-Worthington Schools Campus A", "lat": 38.48, "lon": -82.6389, "proficiency": -0.03, "district": "Raceland-Worthington Independent", "city": "Ashland", "ncessch": "210498001465"}, {"name": "Raceland-Worthington Schools Campus B", "lat": 38.474538, "lon": -82.667184, "proficiency": -0.03, "district": "Raceland-Worthington Independent", "city": "Ashland", "ncessch": "210498002015"}, {"name": "Robertson County School", "lat": 38.528901, "lon": -84.011958, "proficiency": 0.15, "district": "Robertson County", "city": "Mount Olivet", "ncessch": "210504001246"}, {"name": "Rockcastle County Middle School", "lat": 37.357144, "lon": -84.357187, "proficiency": 0.12, "district": "Rockcastle County", "city": "Mount Vernon", "ncessch": "210507000782"}, {"name": "Rowan County Middle School", "lat": 38.207802, "lon": -83.477996, "proficiency": 0.32, "district": "Rowan County", "city": "Morehead", "ncessch": "210510001478"}, {"name": "Bluegrass Discovery Academy Middle", "lat": 38.1786, "lon": -83.4418, "proficiency": -0.03, "district": "Rowan County", "city": "Morehead", "ncessch": "210510002336"}, {"name": "Russell Middle School", "lat": 38.511129, "lon": -82.70457, "proficiency": 0.27, "district": "Russell Independent", "city": "Russell", "ncessch": "210513001273"}, {"name": "Russell County Middle School", "lat": 37.0339, "lon": -85.074, "proficiency": 0.32, "district": "Russell County", "city": "Russell Springs", "ncessch": "210516001599"}, {"name": "Russellville Middle School", "lat": 36.830792, "lon": -86.903628, "proficiency": 0.22, "district": "Russellville Independent", "city": "Russellville", "ncessch": "210519002490"}, {"name": "Science Hill Elementary School", "lat": 37.177891, "lon": -84.625818, "proficiency": 0.345, "district": "Science Hill Independent", "city": "Science Hill", "ncessch": "210522001277"}, {"name": "Georgetown Middle School", "lat": 38.1997, "lon": -84.5575, "proficiency": 0.17, "district": "Scott County", "city": "Georgetown", "ncessch": "210526001280"}, {"name": "Scott County Middle School", "lat": 38.2311, "lon": -84.5712, "proficiency": 0.42, "district": "Scott County", "city": "Georgetown", "ncessch": "210526001285"}, {"name": "Royal Spring Middle School", "lat": 38.240896, "lon": -84.560822, "proficiency": 0.32, "district": "Scott County", "city": "Georgetown", "ncessch": "210526002017"}, {"name": "Phoenix Horizon Community", "lat": 38.231593, "lon": -84.572715, "proficiency": 0.245, "district": "Scott County", "city": "Georgetown", "ncessch": "210526002432"}, {"name": "Shelby County West Middle School", "lat": 38.236543, "lon": -85.238966, "proficiency": 0.22, "district": "Shelby County", "city": "Shelbyville", "ncessch": "210532001291"}, {"name": "Shelby County East Middle School", "lat": 38.217737, "lon": -85.179117, "proficiency": 0.37, "district": "Shelby County", "city": "Shelbyville", "ncessch": "210532001294"}, {"name": "Marnel C. Moorman School", "lat": 38.222663, "lon": -85.274809, "proficiency": 0.22, "district": "Shelby County", "city": "Shelbyville", "ncessch": "210532002491"}, {"name": "Franklin-Simpson Middle School", "lat": 36.716383, "lon": -86.579858, "proficiency": 0.32, "district": "Simpson County", "city": "Franklin", "ncessch": "210540001300"}, {"name": "Meece Middle School", "lat": 37.099349, "lon": -84.594114, "proficiency": 0.42, "district": "Somerset Independent", "city": "Somerset", "ncessch": "210543001311"}, {"name": "Southgate Public School", "lat": 39.072762, "lon": -84.473747, "proficiency": 0.1, "district": "Southgate Independent", "city": "Southgate", "ncessch": "210546001313"}, {"name": "Spencer County Middle School", "lat": 38.0264, "lon": -85.3644, "proficiency": 0.27, "district": "Spencer County", "city": "Taylorsville", "ncessch": "210549001871"}, {"name": "Hillview Academy", "lat": 38.033016, "lon": -85.343823, "proficiency": -0.03, "district": "Spencer County", "city": "Taylorsville", "ncessch": "210549002051"}, {"name": "Taylor County Middle School", "lat": 37.350852, "lon": -85.334273, "proficiency": 0.22, "district": "Taylor County", "city": "Campbellsville", "ncessch": "210552001319"}, {"name": "Todd County Middle School", "lat": 36.8096, "lon": -87.1625, "proficiency": 0.12, "district": "Todd County", "city": "Elkton", "ncessch": "210555001324"}, {"name": "Horizons High School", "lat": 36.798431, "lon": -87.159911, "proficiency": -0.03, "district": "Todd County", "city": "Elkton", "ncessch": "210555002034"}, {"name": "Trigg County Middle School", "lat": 36.8688, "lon": -87.8252, "proficiency": 0.17, "district": "Trigg County", "city": "Cadiz", "ncessch": "210558001328"}, {"name": "Trimble County JR/SR High School", "lat": 38.608209, "lon": -85.322978, "proficiency": 0.12, "district": "Trimble County", "city": "Bedford", "ncessch": "210561002475"}, {"name": "Union County Middle School", "lat": 37.627703, "lon": -87.941268, "proficiency": 0.17, "district": "Union County", "city": "Morganfield", "ncessch": "210564001602"}, {"name": "Union County Learning Academy", "lat": 37.629768, "lon": -87.944509, "proficiency": -0.03, "district": "Union County", "city": "Morganfield", "ncessch": "210564001872"}, {"name": "Walton-Verona Middle School", "lat": 38.8636, "lon": -84.6185, "proficiency": 0.27, "district": "Walton-Verona Independent", "city": "Walton", "ncessch": "210570002191"}, {"name": "Warren County Day Treatment", "lat": 37.007082, "lon": -86.454933, "proficiency": -0.03, "district": "Warren County", "city": "Bowling Green", "ncessch": "210573001540"}, {"name": "Drakes Creek Middle School", "lat": 36.925902, "lon": -86.417707, "proficiency": 0.54, "district": "Warren County", "city": "Bowling Green", "ncessch": "210573001603"}, {"name": "Henry F. Moss Middle School", "lat": 36.964021, "lon": -86.48881, "proficiency": 0.12, "district": "Warren County", "city": "Bowling Green", "ncessch": "210573001604"}, {"name": "Warren East Middle School", "lat": 37.03816, "lon": -86.33784, "proficiency": 0.22, "district": "Warren County", "city": "Bowling Green", "ncessch": "210573001605"}, {"name": "South Warren Middle School", "lat": 36.895928, "lon": -86.516292, "proficiency": 0.55, "district": "Warren County", "city": "Bowling Green", "ncessch": "210573002298"}, {"name": "Beacon Academy", "lat": 37.007082, "lon": -86.454933, "proficiency": -0.03, "district": "Warren County", "city": "Bowling Green", "ncessch": "210573002410"}, {"name": "Jackson Academy", "lat": 37.007082, "lon": -86.454933, "proficiency": -0.03, "district": "Warren County", "city": "Bowling Green", "ncessch": "210573002492"}, {"name": "North Washington Elementary School", "lat": 37.803604, "lon": -85.112921, "proficiency": 0.42, "district": "Washington County", "city": "Willisburg", "ncessch": "210576001873"}, {"name": "Washington County Middle School", "lat": 37.691476, "lon": -85.219626, "proficiency": 0.445, "district": "Washington County", "city": "Springfield", "ncessch": "210576002047"}, {"name": "Wayne County Middle School", "lat": 36.826661, "lon": -84.864017, "proficiency": 0.22, "district": "Wayne County", "city": "Monticello", "ncessch": "210579002020"}, {"name": "Otter Creek Academy", "lat": 36.78347, "lon": -84.977611, "proficiency": -0.03, "district": "Wayne County", "city": "Monticello", "ncessch": "210579002250"}, {"name": "Wayne County Learning Academy", "lat": 36.824051, "lon": -84.862215, "proficiency": -0.03, "district": "Wayne County", "city": "Monticello", "ncessch": "210579002403"}, {"name": "Webster County Middle School", "lat": 37.49755, "lon": -87.712486, "proficiency": 0.22, "district": "Webster County", "city": "Dixon", "ncessch": "210582002348"}, {"name": "Whitley County Alternative School", "lat": 36.779723, "lon": -84.155641, "proficiency": 0.245, "district": "Whitley County", "city": "Williamsburg", "ncessch": "210588001262"}, {"name": "Whitley County Middle School", "lat": 36.779723, "lon": -84.155641, "proficiency": 0.32, "district": "Whitley County", "city": "Williamsburg", "ncessch": "210588001387"}, {"name": "Williamsburg City School", "lat": 36.736, "lon": -84.1688, "proficiency": 0.245, "district": "Williamsburg Independent", "city": "Williamsburg", "ncessch": "210591001939"}, {"name": "Williamstown Jr. High", "lat": 38.646721, "lon": -84.565924, "proficiency": 0.245, "district": "Williamstown Independent", "city": "Williamstown", "ncessch": "210594001393"}, {"name": "Wolfe County Middle School", "lat": 37.737634, "lon": -83.551132, "proficiency": 0.17, "district": "Wolfe County", "city": "Campton", "ncessch": "210597001693"}, {"name": "Dessie Scott School", "lat": 37.762286, "lon": -83.60975, "proficiency": -0.03, "district": "Wolfe County", "city": "Campton", "ncessch": "210597002380"}, {"name": "Woodford County Middle School", "lat": 38.0399, "lon": -84.7468, "proficiency": 0.39, "district": "Woodford County", "city": "Versailles", "ncessch": "210600001405"}, {"name": "Safe Harbor Academy", "lat": 38.0484, "lon": -84.7309, "proficiency": -0.03, "district": "Woodford County", "city": "Versailles", "ncessch": "210600001840"}], "districts": [{"name": "Adair County", "lat": 37.0945835, "lon": -85.3150095, "proficiency": 0.095, "schoolCount": 2}, {"name": "Allen County", "lat": 36.7532, "lon": -86.2147, "proficiency": 0.27, "schoolCount": 1}, {"name": "Muhlenberg County", "lat": 37.21895866666667, "lon": -87.16739633333333, "proficiency": 0.1867, "schoolCount": 3}, {"name": "Anchorage Independent", "lat": 38.265538, "lon": -85.543755, "proficiency": 0.745, "schoolCount": 1}, {"name": "Anderson County", "lat": 38.0309605, "lon": -84.90431050000001, "proficiency": 0.26, "schoolCount": 2}, {"name": "Ashland Independent", "lat": 38.4564, "lon": -82.6504, "proficiency": 0.32, "schoolCount": 1}, {"name": "Augusta Independent", "lat": 38.7739, "lon": -84.0033, "proficiency": 0.245, "schoolCount": 1}, {"name": "Ballard County", "lat": 37.06813, "lon": -88.987178, "proficiency": 0.15, "schoolCount": 1}, {"name": "Barbourville Independent", "lat": 36.8712, "lon": -83.8932, "proficiency": 0.245, "schoolCount": 1}, {"name": "Bardstown Independent", "lat": 37.8155, "lon": -85.4703, "proficiency": 0.27, "schoolCount": 1}, {"name": "Barren County", "lat": 36.981378, "lon": -85.91684533333334, "proficiency": 0.2683, "schoolCount": 3}, {"name": "Bath County", "lat": 38.143061, "lon": -83.769852, "proficiency": 0.22, "schoolCount": 1}, {"name": "Beechwood Independent", "lat": 39.038934, "lon": -84.553612, "proficiency": 0.3325, "schoolCount": 2}, {"name": "Bell County", "lat": 36.71287383333333, "lon": -83.7270675, "proficiency": 0.2967, "schoolCount": 6}, {"name": "Bellevue Independent", "lat": 39.102227, "lon": -84.482017, "proficiency": 0.15, "schoolCount": 1}, {"name": "Berea Independent", "lat": 37.5787, "lon": -84.2942, "proficiency": 0.27, "schoolCount": 1}, {"name": "Boone County", "lat": 38.99019285714286, "lon": -84.66989614285714, "proficiency": 0.2993, "schoolCount": 7}, {"name": "Bourbon County", "lat": 38.1941, "lon": -84.2738, "proficiency": 0.22, "schoolCount": 1}, {"name": "Bowling Green Independent", "lat": 36.9839665, "lon": -86.45386, "proficiency": 0.165, "schoolCount": 4}, {"name": "Boyd County", "lat": 38.3595435, "lon": -82.735727, "proficiency": 0.2075, "schoolCount": 2}, {"name": "Boyle County", "lat": 37.6502, "lon": -84.801, "proficiency": 0.52, "schoolCount": 1}, {"name": "Bracken County", "lat": 38.683976, "lon": -84.072647, "proficiency": 0.32, "schoolCount": 1}, {"name": "Breathitt County", "lat": 37.54394366666667, "lon": -83.40539133333334, "proficiency": 0.02, "schoolCount": 3}, {"name": "Breckinridge County", "lat": 37.7561, "lon": -86.427, "proficiency": 0.37, "schoolCount": 1}, {"name": "Bullitt County", "lat": 38.019122875, "lon": -85.6398575, "proficiency": 0.1888, "schoolCount": 8}, {"name": "Burgin Independent", "lat": 37.752133, "lon": -84.762522, "proficiency": 0.245, "schoolCount": 1}, {"name": "Butler County", "lat": 37.2315, "lon": -86.6825, "proficiency": 0.12, "schoolCount": 1}, {"name": "Caldwell County", "lat": 37.1379, "lon": -87.8928, "proficiency": 0.32, "schoolCount": 1}, {"name": "Calloway County", "lat": 36.6178, "lon": -88.33855, "proficiency": 0.17, "schoolCount": 2}, {"name": "Campbell County", "lat": 38.9649895, "lon": -84.3912335, "proficiency": 0.155, "schoolCount": 2}, {"name": "Campbellsville Independent", "lat": 37.3386395, "lon": -85.348548, "proficiency": 0.06, "schoolCount": 2}, {"name": "Carlisle County", "lat": 36.833019, "lon": -88.932501, "proficiency": 0.15, "schoolCount": 1}, {"name": "Carroll County", "lat": 38.6781, "lon": -85.1805, "proficiency": 0.12, "schoolCount": 1}, {"name": "Carter County", "lat": 38.32355, "lon": -83.0435, "proficiency": 0.295, "schoolCount": 2}, {"name": "Casey County", "lat": 37.3254, "lon": -84.9073, "proficiency": 0.32, "schoolCount": 1}, {"name": "Caverna Independent", "lat": 37.152326, "lon": -85.932176, "proficiency": 0.05, "schoolCount": 1}, {"name": "Christian County", "lat": 36.81886825, "lon": -87.49271075, "proficiency": 0.1888, "schoolCount": 4}, {"name": "Clark County", "lat": 37.978162999999995, "lon": -84.1936195, "proficiency": 0.105, "schoolCount": 2}, {"name": "Clay County", "lat": 37.1579, "lon": -83.7654, "proficiency": 0.095, "schoolCount": 2}, {"name": "Clinton County", "lat": 36.734126, "lon": -85.174036, "proficiency": 0.2575, "schoolCount": 2}, {"name": "Cloverport Independent", "lat": 37.834021, "lon": -86.631951, "proficiency": 0.3, "schoolCount": 1}, {"name": "Corbin Independent", "lat": 36.944579, "lon": -84.091768, "proficiency": 0.23, "schoolCount": 3}, {"name": "Covington Independent", "lat": 39.073516, "lon": -84.5205695, "proficiency": 0.0225, "schoolCount": 2}, {"name": "Crittenden County", "lat": 37.330539, "lon": -88.091198, "proficiency": 0.22, "schoolCount": 1}, {"name": "Cumberland County", "lat": 36.7985, "lon": -85.361, "proficiency": 0.22, "schoolCount": 1}, {"name": "Danville Independent", "lat": 37.645589, "lon": -84.766751, "proficiency": 0.095, "schoolCount": 2}, {"name": "Daviess County", "lat": 37.7378826, "lon": -87.094247, "proficiency": 0.16, "schoolCount": 5}, {"name": "Dawson Springs Independent", "lat": 37.167198, "lon": -87.687445, "proficiency": 0.15, "schoolCount": 1}, {"name": "Dayton Independent", "lat": 39.067503, "lon": -84.4523095, "proficiency": 0.145, "schoolCount": 2}, {"name": "East Bernstadt Independent", "lat": 37.189788, "lon": -84.113968, "proficiency": 0.495, "schoolCount": 1}, {"name": "Edmonson County", "lat": 37.193048, "lon": -86.251533, "proficiency": 0.37, "schoolCount": 1}, {"name": "Elizabethtown Independent", "lat": 37.6944, "lon": -85.85515, "proficiency": 0.12, "schoolCount": 2}, {"name": "Elliott County", "lat": 38.085257, "lon": -83.129217, "proficiency": 0.05, "schoolCount": 1}, {"name": "Eminence Independent", "lat": 38.37281, "lon": -85.18261, "proficiency": 0.22, "schoolCount": 1}, {"name": "Erlanger-Elsmere Independent", "lat": 39.018689, "lon": -84.606978, "proficiency": 0.095, "schoolCount": 2}, {"name": "Estill County", "lat": 37.737772, "lon": -83.989411, "proficiency": 0.17, "schoolCount": 1}, {"name": "Fairview Independent", "lat": 38.479935, "lon": -82.674993, "proficiency": 0.05, "schoolCount": 1}, {"name": "Fayette County", "lat": 38.04106894736842, "lon": -84.49325905263159, "proficiency": 0.2337, "schoolCount": 19}, {"name": "Fleming County", "lat": 38.4262, "lon": -83.7365, "proficiency": 0.27, "schoolCount": 1}, {"name": "Floyd County", "lat": 37.536952, "lon": -82.71610383333334, "proficiency": 0.1675, "schoolCount": 6}, {"name": "Frankfort Independent", "lat": 38.195753, "lon": -84.881814, "proficiency": 0.15, "schoolCount": 1}, {"name": "Franklin County", "lat": 38.165013, "lon": -84.77500075, "proficiency": 0.07, "schoolCount": 4}, {"name": "Fort Thomas Independent", "lat": 39.0851, "lon": -84.4506, "proficiency": 0.52, "schoolCount": 1}, {"name": "Fulton Independent", "lat": 36.509649, "lon": -88.890339, "proficiency": 0.1, "schoolCount": 1}, {"name": "Fulton County", "lat": 36.567056, "lon": -89.156336, "proficiency": 0.15, "schoolCount": 1}, {"name": "Gallatin County", "lat": 38.785336, "lon": -84.891525, "proficiency": 0.32, "schoolCount": 1}, {"name": "Garrard County", "lat": 37.6227, "lon": -84.5835, "proficiency": 0.17, "schoolCount": 1}, {"name": "Glasgow Independent", "lat": 37.01079, "lon": -85.885932, "proficiency": 0.27, "schoolCount": 1}, {"name": "Grant County", "lat": 38.667307, "lon": -84.580651, "proficiency": 0.22, "schoolCount": 1}, {"name": "Graves County", "lat": 36.738485999999995, "lon": -88.6637065, "proficiency": 0.19, "schoolCount": 2}, {"name": "Grayson County", "lat": 37.482977, "lon": -86.282403, "proficiency": 0.2, "schoolCount": 1}, {"name": "Green County", "lat": 37.2543, "lon": -85.4879, "proficiency": 0.42, "schoolCount": 1}, {"name": "Greenup County", "lat": 38.635149999999996, "lon": -82.8611, "proficiency": 0.17, "schoolCount": 2}, {"name": "Hancock County", "lat": 37.9177, "lon": -86.8047, "proficiency": 0.37, "schoolCount": 1}, {"name": "Hardin County", "lat": 37.723285999999995, "lon": -85.92717414285714, "proficiency": 0.2379, "schoolCount": 7}, {"name": "Harlan Independent", "lat": 36.8469, "lon": -83.3185, "proficiency": 0.245, "schoolCount": 1}, {"name": "Harlan County", "lat": 36.8621675, "lon": -83.241964125, "proficiency": 0.1975, "schoolCount": 8}, {"name": "Harrison County", "lat": 38.379966, "lon": -84.288146, "proficiency": 0.22, "schoolCount": 1}, {"name": "Hart County", "lat": 37.27914, "lon": -85.88530899999999, "proficiency": 0.169, "schoolCount": 5}, {"name": "Hazard Independent", "lat": 37.263361, "lon": -83.19277, "proficiency": 0.22, "schoolCount": 1}, {"name": "Henderson County", "lat": 37.830797999999994, "lon": -87.58271666666667, "proficiency": 0.395, "schoolCount": 3}, {"name": "Henry County", "lat": 38.419919, "lon": -85.167986, "proficiency": 0.27, "schoolCount": 1}, {"name": "Hickman County", "lat": 36.670905, "lon": -88.991566, "proficiency": 0.445, "schoolCount": 1}, {"name": "Hopkins County", "lat": 37.302555999999996, "lon": -87.530772, "proficiency": 0.186, "schoolCount": 5}, {"name": "Jackson Independent", "lat": 37.553052, "lon": -83.379541, "proficiency": 0.1, "schoolCount": 1}, {"name": "Jackson County", "lat": 37.37083, "lon": -83.9614085, "proficiency": 0.07, "schoolCount": 2}, {"name": "Jefferson County", "lat": 38.20560348717949, "lon": -85.70995671794873, "proficiency": 0.1169, "schoolCount": 39}, {"name": "Jenkins Independent", "lat": 37.16211, "lon": -82.644372, "proficiency": 0.05, "schoolCount": 1}, {"name": "Jessamine County", "lat": 37.89370025, "lon": -84.58716625, "proficiency": 0.1663, "schoolCount": 4}, {"name": "Johnson County", "lat": 37.820252, "lon": -82.81552, "proficiency": 0.27, "schoolCount": 1}, {"name": "Kenton County", "lat": 38.97097575, "lon": -84.5392365, "proficiency": 0.345, "schoolCount": 4}, {"name": "Knott County", "lat": 37.32584583333333, "lon": -82.97013033333333, "proficiency": 0.1983, "schoolCount": 6}, {"name": "Knox County", "lat": 36.88813625, "lon": -83.916701, "proficiency": 0.04, "schoolCount": 4}, {"name": "LaRue County", "lat": 37.51475, "lon": -85.765265, "proficiency": 0.2325, "schoolCount": 2}, {"name": "Laurel County", "lat": 37.10742, "lon": -84.01597666666667, "proficiency": 0.3283, "schoolCount": 3}, {"name": "Lawrence County", "lat": 38.101885, "lon": -82.71078666666666, "proficiency": 0.2067, "schoolCount": 3}, {"name": "Lee County", "lat": 37.581619, "lon": -83.708357, "proficiency": 0.17, "schoolCount": 1}, {"name": "Leslie County", "lat": 37.12337625, "lon": -83.3365475, "proficiency": 0.3225, "schoolCount": 4}, {"name": "Letcher County", "lat": 37.1149745, "lon": -82.79692825000001, "proficiency": 0.23, "schoolCount": 4}, {"name": "Lewis County", "lat": 38.597, "lon": -83.3443, "proficiency": 0.27, "schoolCount": 1}, {"name": "Lincoln County", "lat": 37.513934, "lon": -84.652987, "proficiency": 0.12, "schoolCount": 1}, {"name": "Livingston County", "lat": 37.233242, "lon": -88.377748, "proficiency": 0.42, "schoolCount": 1}, {"name": "Logan County", "lat": 36.8393868, "lon": -86.8702786, "proficiency": 0.45, "schoolCount": 5}, {"name": "Ludlow Independent", "lat": 39.091704, "lon": -84.553494, "proficiency": 0.15, "schoolCount": 1}, {"name": "Lyon County", "lat": 37.09528, "lon": -88.078661, "proficiency": 0.57, "schoolCount": 1}, {"name": "Madison County", "lat": 37.709691, "lon": -84.29202571428571, "proficiency": 0.1914, "schoolCount": 7}, {"name": "Magoffin County", "lat": 37.738395, "lon": -83.072583, "proficiency": 0.075, "schoolCount": 1}, {"name": "Marion County", "lat": 37.578233, "lon": -85.234836, "proficiency": 0.22, "schoolCount": 1}, {"name": "Marshall County", "lat": 36.89749333333334, "lon": -88.353457, "proficiency": 0.2783, "schoolCount": 3}, {"name": "Martin County", "lat": 37.845239, "lon": -82.426102, "proficiency": 0.22, "schoolCount": 1}, {"name": "Mason County", "lat": 38.6324, "lon": -83.7883, "proficiency": 0.22, "schoolCount": 1}, {"name": "Mayfield Independent", "lat": 36.7331, "lon": -88.6358, "proficiency": 0.27, "schoolCount": 1}, {"name": "McCracken County", "lat": 37.0604682, "lon": -88.69251940000001, "proficiency": 0.19, "schoolCount": 5}, {"name": "McCreary County", "lat": 36.706682, "lon": -84.463627, "proficiency": 0.22, "schoolCount": 1}, {"name": "McLean County", "lat": 37.5486, "lon": -87.2305, "proficiency": 0.22, "schoolCount": 1}, {"name": "Meade County", "lat": 37.9851, "lon": -86.1649, "proficiency": 0.37, "schoolCount": 1}, {"name": "Mercer County", "lat": 37.777922, "lon": -84.855959, "proficiency": 0.12, "schoolCount": 1}, {"name": "Metcalfe County", "lat": 36.98154, "lon": -85.633125, "proficiency": 0.17, "schoolCount": 1}, {"name": "Middlesboro Independent", "lat": 36.608736, "lon": -83.730656, "proficiency": 0.12, "schoolCount": 2}, {"name": "Monroe County", "lat": 36.6944, "lon": -85.7, "proficiency": 0.17, "schoolCount": 1}, {"name": "Montgomery County", "lat": 38.04798733333333, "lon": -83.94111600000001, "proficiency": 0.0367, "schoolCount": 3}, {"name": "Morgan County", "lat": 37.8933, "lon": -83.2837, "proficiency": 0.17, "schoolCount": 1}, {"name": "Murray Independent", "lat": 36.609939, "lon": -88.309971, "proficiency": 0.57, "schoolCount": 1}, {"name": "Nelson County", "lat": 37.8050168, "lon": -85.4821182, "proficiency": 0.216, "schoolCount": 5}, {"name": "Newport Independent", "lat": 39.094525, "lon": -84.485255, "proficiency": 0.045, "schoolCount": 2}, {"name": "Nicholas County", "lat": 38.317272, "lon": -84.037844, "proficiency": 0.32, "schoolCount": 1}, {"name": "Ohio County", "lat": 37.441155, "lon": -86.89620266666667, "proficiency": 0.195, "schoolCount": 3}, {"name": "Oldham County", "lat": 38.36819025, "lon": -85.46776249999999, "proficiency": 0.445, "schoolCount": 4}, {"name": "Owen County", "lat": 38.530523, "lon": -84.805535, "proficiency": 0.22, "schoolCount": 1}, {"name": "Owensboro Independent", "lat": 37.746917, "lon": -87.1245135, "proficiency": 0.245, "schoolCount": 2}, {"name": "Owsley County", "lat": 37.476868, "lon": -83.665159, "proficiency": 0.15, "schoolCount": 1}, {"name": "Paducah Independent", "lat": 37.066888, "lon": -88.637184, "proficiency": 0.17, "schoolCount": 1}, {"name": "Paintsville Independent", "lat": 37.815545, "lon": -82.804776, "proficiency": 0.245, "schoolCount": 1}, {"name": "Paris Independent", "lat": 38.212686, "lon": -84.255246, "proficiency": 0.075, "schoolCount": 1}, {"name": "Pendleton County", "lat": 38.7435, "lon": -84.366, "proficiency": 0.12, "schoolCount": 1}, {"name": "Perry County", "lat": 37.246478124999996, "lon": -83.206174125, "proficiency": 0.205, "schoolCount": 8}, {"name": "Pike County", "lat": 37.46192141666666, "lon": -82.42423025000001, "proficiency": 0.2508, "schoolCount": 12}, {"name": "Pikeville Independent", "lat": 37.4881, "lon": -82.543, "proficiency": 0.67, "schoolCount": 1}, {"name": "Pineville Independent", "lat": 36.763373, "lon": -83.698191, "proficiency": 0.15, "schoolCount": 1}, {"name": "Powell County", "lat": 37.850046, "lon": -83.8675245, "proficiency": 0.045, "schoolCount": 2}, {"name": "Pulaski County", "lat": 37.07737, "lon": -84.60869266666667, "proficiency": 0.3283, "schoolCount": 3}, {"name": "Raceland-Worthington Independent", "lat": 38.49882233333333, "lon": -82.68117366666667, "proficiency": 0.07, "schoolCount": 3}, {"name": "Robertson County", "lat": 38.528901, "lon": -84.011958, "proficiency": 0.15, "schoolCount": 1}, {"name": "Rockcastle County", "lat": 37.357144, "lon": -84.357187, "proficiency": 0.12, "schoolCount": 1}, {"name": "Rowan County", "lat": 38.193201, "lon": -83.45989800000001, "proficiency": 0.145, "schoolCount": 2}, {"name": "Russell Independent", "lat": 38.511129, "lon": -82.70457, "proficiency": 0.27, "schoolCount": 1}, {"name": "Russell County", "lat": 37.0339, "lon": -85.074, "proficiency": 0.32, "schoolCount": 1}, {"name": "Russellville Independent", "lat": 36.830792, "lon": -86.903628, "proficiency": 0.22, "schoolCount": 1}, {"name": "Science Hill Independent", "lat": 37.177891, "lon": -84.625818, "proficiency": 0.345, "schoolCount": 1}, {"name": "Scott County", "lat": 38.22582225, "lon": -84.56555925, "proficiency": 0.2888, "schoolCount": 4}, {"name": "Shelby County", "lat": 38.22564766666667, "lon": -85.23096400000001, "proficiency": 0.27, "schoolCount": 3}, {"name": "Simpson County", "lat": 36.716383, "lon": -86.579858, "proficiency": 0.32, "schoolCount": 1}, {"name": "Somerset Independent", "lat": 37.099349, "lon": -84.594114, "proficiency": 0.42, "schoolCount": 1}, {"name": "Southgate Independent", "lat": 39.072762, "lon": -84.473747, "proficiency": 0.1, "schoolCount": 1}, {"name": "Spencer County", "lat": 38.029708, "lon": -85.3541115, "proficiency": 0.12, "schoolCount": 2}, {"name": "Taylor County", "lat": 37.350852, "lon": -85.334273, "proficiency": 0.22, "schoolCount": 1}, {"name": "Todd County", "lat": 36.804015500000006, "lon": -87.1612055, "proficiency": 0.045, "schoolCount": 2}, {"name": "Trigg County", "lat": 36.8688, "lon": -87.8252, "proficiency": 0.17, "schoolCount": 1}, {"name": "Trimble County", "lat": 38.608209, "lon": -85.322978, "proficiency": 0.12, "schoolCount": 1}, {"name": "Union County", "lat": 37.6287355, "lon": -87.9428885, "proficiency": 0.07, "schoolCount": 2}, {"name": "Walton-Verona Independent", "lat": 38.8636, "lon": -84.6185, "proficiency": 0.27, "schoolCount": 1}, {"name": "Warren County", "lat": 36.97789385714286, "lon": -86.44649257142858, "proficiency": 0.1914, "schoolCount": 7}, {"name": "Washington County", "lat": 37.74754, "lon": -85.1662735, "proficiency": 0.4325, "schoolCount": 2}, {"name": "Wayne County", "lat": 36.811394, "lon": -84.901281, "proficiency": 0.0533, "schoolCount": 3}, {"name": "Webster County", "lat": 37.49755, "lon": -87.712486, "proficiency": 0.22, "schoolCount": 1}, {"name": "Whitley County", "lat": 36.779723, "lon": -84.155641, "proficiency": 0.2825, "schoolCount": 2}, {"name": "Williamsburg Independent", "lat": 36.736, "lon": -84.1688, "proficiency": 0.245, "schoolCount": 1}, {"name": "Williamstown Independent", "lat": 38.646721, "lon": -84.565924, "proficiency": 0.245, "schoolCount": 1}, {"name": "Wolfe County", "lat": 37.74996, "lon": -83.58044100000001, "proficiency": 0.07, "schoolCount": 2}, {"name": "Woodford County", "lat": 38.04415, "lon": -84.73885, "proficiency": 0.18, "schoolCount": 2}], "cities": [{"name": "Columbia", "lat": 37.0945835, "lon": -85.3150095, "proficiency": 0.095, "schoolCount": 2}, {"name": "Scottsville", "lat": 36.7532, "lon": -86.2147, "proficiency": 0.27, "schoolCount": 1}, {"name": "Greenville", "lat": 37.21895866666667, "lon": -87.16739633333333, "proficiency": 0.1867, "schoolCount": 3}, {"name": "Anchorage", "lat": 38.265538, "lon": -85.543755, "proficiency": 0.745, "schoolCount": 1}, {"name": "Lawrenceburg", "lat": 38.0309605, "lon": -84.90431050000001, "proficiency": 0.26, "schoolCount": 2}, {"name": "Ashland", "lat": 38.4637246, "lon": -82.666398, "proficiency": 0.096, "schoolCount": 5}, {"name": "Augusta", "lat": 38.7739, "lon": -84.0033, "proficiency": 0.245, "schoolCount": 1}, {"name": "Barlow", "lat": 37.06813, "lon": -88.987178, "proficiency": 0.15, "schoolCount": 1}, {"name": "Barbourville", "lat": 36.869229, "lon": -83.88066425, "proficiency": 0.0887, "schoolCount": 4}, {"name": "Bardstown", "lat": 37.826061333333335, "lon": -85.442297, "proficiency": 0.2117, "schoolCount": 3}, {"name": "Glasgow", "lat": 36.988731, "lon": -85.909117, "proficiency": 0.2687, "schoolCount": 4}, {"name": "Owingsville", "lat": 38.143061, "lon": -83.769852, "proficiency": 0.22, "schoolCount": 1}, {"name": "Fort Mitchell", "lat": 39.038934, "lon": -84.553612, "proficiency": 0.3325, "schoolCount": 2}, {"name": "Frakes", "lat": 36.640736, "lon": -83.931613, "proficiency": 0.245, "schoolCount": 1}, {"name": "Fourmile", "lat": 36.789343, "lon": -83.747335, "proficiency": 0.495, "schoolCount": 1}, {"name": "Stoney Fork", "lat": 36.794119, "lon": -83.586069, "proficiency": 0.1, "schoolCount": 1}, {"name": "Middlesboro", "lat": 36.610109333333334, "lon": -83.740015, "proficiency": 0.13, "schoolCount": 3}, {"name": "Pineville", "lat": 36.73452066666667, "lon": -83.67894866666667, "proficiency": 0.3133, "schoolCount": 3}, {"name": "Bellevue", "lat": 39.102227, "lon": -84.482017, "proficiency": 0.15, "schoolCount": 1}, {"name": "Berea", "lat": 37.59461266666667, "lon": -84.29387633333333, "proficiency": 0.32, "schoolCount": 3}, {"name": "Florence", "lat": 38.99100166666667, "lon": -84.63393533333333, "proficiency": 0.1217, "schoolCount": 3}, {"name": "Hebron", "lat": 39.0604, "lon": -84.6993, "proficiency": 0.42, "schoolCount": 1}, {"name": "Union", "lat": 38.943053, "lon": -84.691341, "proficiency": 0.52, "schoolCount": 2}, {"name": "Burlington", "lat": 39.011839, "lon": -84.705485, "proficiency": 0.27, "schoolCount": 1}, {"name": "Paris", "lat": 38.203393, "lon": -84.264523, "proficiency": 0.1475, "schoolCount": 2}, {"name": "Bowling Green", "lat": 36.98010209090909, "lon": -86.44917163636363, "proficiency": 0.1818, "schoolCount": 11}, {"name": "Rush", "lat": 38.291337, "lon": -82.770941, "proficiency": 0.245, "schoolCount": 1}, {"name": "Danville", "lat": 37.64712599999999, "lon": -84.77816733333333, "proficiency": 0.2367, "schoolCount": 3}, {"name": "Brooksville", "lat": 38.683976, "lon": -84.072647, "proficiency": 0.32, "schoolCount": 1}, {"name": "Jackson", "lat": 37.54622075, "lon": -83.39892875000001, "proficiency": 0.04, "schoolCount": 4}, {"name": "Harned", "lat": 37.7561, "lon": -86.427, "proficiency": 0.37, "schoolCount": 1}, {"name": "Shepherdsville", "lat": 38.0069394, "lon": -85.687721, "proficiency": 0.2, "schoolCount": 5}, {"name": "Mount Washington", "lat": 38.037723, "lon": -85.574277, "proficiency": 0.27, "schoolCount": 2}, {"name": "Mt Washington", "lat": 38.04284, "lon": -85.531701, "proficiency": -0.03, "schoolCount": 1}, {"name": "Burgin", "lat": 37.752133, "lon": -84.762522, "proficiency": 0.245, "schoolCount": 1}, {"name": "Morgantown", "lat": 37.2315, "lon": -86.6825, "proficiency": 0.12, "schoolCount": 1}, {"name": "Princeton", "lat": 37.1379, "lon": -87.8928, "proficiency": 0.32, "schoolCount": 1}, {"name": "Murray", "lat": 36.61517966666667, "lon": -88.32902366666667, "proficiency": 0.3033, "schoolCount": 3}, {"name": "Alexandria", "lat": 38.9649895, "lon": -84.3912335, "proficiency": 0.155, "schoolCount": 2}, {"name": "Campbellsville", "lat": 37.342710333333336, "lon": -85.34378966666667, "proficiency": 0.1133, "schoolCount": 3}, {"name": "Bardwell", "lat": 36.833019, "lon": -88.932501, "proficiency": 0.15, "schoolCount": 1}, {"name": "Carrollton", "lat": 38.6781, "lon": -85.1805, "proficiency": 0.12, "schoolCount": 1}, {"name": "Olive Hill", "lat": 38.3109, "lon": -83.1486, "proficiency": 0.27, "schoolCount": 1}, {"name": "Grayson", "lat": 38.3362, "lon": -82.9384, "proficiency": 0.32, "schoolCount": 1}, {"name": "Liberty", "lat": 37.3254, "lon": -84.9073, "proficiency": 0.32, "schoolCount": 1}, {"name": "Horse Cave", "lat": 37.161863, "lon": -85.863688, "proficiency": 0.075, "schoolCount": 2}, {"name": "Hopkinsville", "lat": 36.81886825, "lon": -87.49271075, "proficiency": 0.1888, "schoolCount": 4}, {"name": "Winchester", "lat": 37.978162999999995, "lon": -84.1936195, "proficiency": 0.105, "schoolCount": 2}, {"name": "Manchester", "lat": 37.1579, "lon": -83.7654, "proficiency": 0.095, "schoolCount": 2}, {"name": "Albany", "lat": 36.734126, "lon": -85.174036, "proficiency": 0.2575, "schoolCount": 2}, {"name": "Cloverport", "lat": 37.834021, "lon": -86.631951, "proficiency": 0.3, "schoolCount": 1}, {"name": "Corbin", "lat": 36.9451415, "lon": -84.07816275, "proficiency": 0.185, "schoolCount": 4}, {"name": "Covington", "lat": 39.073516, "lon": -84.5205695, "proficiency": 0.0225, "schoolCount": 2}, {"name": "Marion", "lat": 37.330539, "lon": -88.091198, "proficiency": 0.22, "schoolCount": 1}, {"name": "Burkesville", "lat": 36.7985, "lon": -85.361, "proficiency": 0.22, "schoolCount": 1}, {"name": "Owensboro", "lat": 37.740463857142856, "lon": -87.10289457142858, "proficiency": 0.1843, "schoolCount": 7}, {"name": "Dawson Springs", "lat": 37.167198, "lon": -87.687445, "proficiency": 0.15, "schoolCount": 1}, {"name": "Dayton", "lat": 39.1169, "lon": -84.4703, "proficiency": 0.32, "schoolCount": 1}, {"name": "Cold Spring", "lat": 39.018106, "lon": -84.434319, "proficiency": -0.03, "schoolCount": 1}, {"name": "East Bernstadt", "lat": 37.189788, "lon": -84.113968, "proficiency": 0.495, "schoolCount": 1}, {"name": "Brownsville", "lat": 37.193048, "lon": -86.251533, "proficiency": 0.37, "schoolCount": 1}, {"name": "Elizabethtown", "lat": 37.702028500000004, "lon": -85.87366966666667, "proficiency": 0.1658, "schoolCount": 6}, {"name": "Sandy Hook", "lat": 38.085257, "lon": -83.129217, "proficiency": 0.05, "schoolCount": 1}, {"name": "Eminence", "lat": 38.37281, "lon": -85.18261, "proficiency": 0.22, "schoolCount": 1}, {"name": "Erlanger", "lat": 39.018689, "lon": -84.606978, "proficiency": 0.095, "schoolCount": 2}, {"name": "Irvine", "lat": 37.737772, "lon": -83.989411, "proficiency": 0.17, "schoolCount": 1}, {"name": "Lexington", "lat": 38.0446304, "lon": -84.4959063, "proficiency": 0.2205, "schoolCount": 20}, {"name": "Flemingsburg", "lat": 38.4262, "lon": -83.7365, "proficiency": 0.27, "schoolCount": 1}, {"name": "Allen", "lat": 37.631891, "lon": -82.712839, "proficiency": 0.15, "schoolCount": 1}, {"name": "Betsy Layne", "lat": 37.554374, "lon": -82.633351, "proficiency": 0.075, "schoolCount": 1}, {"name": "Grethel", "lat": 37.476029, "lon": -82.656097, "proficiency": 0.245, "schoolCount": 1}, {"name": "Prestonsburg", "lat": 37.66921, "lon": -82.743471, "proficiency": 0.17, "schoolCount": 1}, {"name": "Hi Hat", "lat": 37.383014, "lon": -82.73487, "proficiency": 0.245, "schoolCount": 1}, {"name": "Eastern", "lat": 37.507194, "lon": -82.815995, "proficiency": 0.12, "schoolCount": 1}, {"name": "Frankfort", "lat": 38.185876750000006, "lon": -84.85890325, "proficiency": 0.115, "schoolCount": 4}, {"name": "Fort Thomas", "lat": 39.0851, "lon": -84.4506, "proficiency": 0.52, "schoolCount": 1}, {"name": "Fulton", "lat": 36.509649, "lon": -88.890339, "proficiency": 0.1, "schoolCount": 1}, {"name": "Hickman", "lat": 36.567056, "lon": -89.156336, "proficiency": 0.15, "schoolCount": 1}, {"name": "Warsaw", "lat": 38.785336, "lon": -84.891525, "proficiency": 0.32, "schoolCount": 1}, {"name": "Lancaster", "lat": 37.6227, "lon": -84.5835, "proficiency": 0.17, "schoolCount": 1}, {"name": "Dry Ridge", "lat": 38.667307, "lon": -84.580651, "proficiency": 0.22, "schoolCount": 1}, {"name": "Mayfield", "lat": 36.73669066666667, "lon": -88.65440433333333, "proficiency": 0.2167, "schoolCount": 3}, {"name": "Leitchfield", "lat": 37.482977, "lon": -86.282403, "proficiency": 0.2, "schoolCount": 1}, {"name": "Greensburg", "lat": 37.2543, "lon": -85.4879, "proficiency": 0.42, "schoolCount": 1}, {"name": "Wurtland", "lat": 38.5486, "lon": -82.775, "proficiency": 0.17, "schoolCount": 1}, {"name": "South Shore", "lat": 38.7217, "lon": -82.9472, "proficiency": 0.17, "schoolCount": 1}, {"name": "Lewisport", "lat": 37.9177, "lon": -86.8047, "proficiency": 0.37, "schoolCount": 1}, {"name": "Vine Grove", "lat": 37.805056, "lon": -85.988208, "proficiency": 0.37, "schoolCount": 1}, {"name": "Radcliff", "lat": 37.818408, "lon": -85.952213, "proficiency": 0.22, "schoolCount": 1}, {"name": "Cecilia", "lat": 37.616167, "lon": -86.01808, "proficiency": 0.32, "schoolCount": 1}, {"name": "Harlan", "lat": 36.8284395, "lon": -83.31831249999999, "proficiency": 0.245, "schoolCount": 2}, {"name": "Cumberland", "lat": 36.971481, "lon": -82.976309, "proficiency": 0.05, "schoolCount": 1}, {"name": "Evarts", "lat": 36.863262, "lon": -83.18109, "proficiency": 0.175, "schoolCount": 2}, {"name": "Cawood", "lat": 36.784261, "lon": -83.229837, "proficiency": 0.1, "schoolCount": 1}, {"name": "Bledsoe", "lat": 36.899761, "lon": -83.347729, "proficiency": 0.245, "schoolCount": 1}, {"name": "Baxter", "lat": 36.883337, "lon": -83.289977, "proficiency": 0.245, "schoolCount": 1}, {"name": "Wallins", "lat": 36.821997, "lon": -83.411556, "proficiency": 0.345, "schoolCount": 1}, {"name": "Cynthiana", "lat": 38.379966, "lon": -84.288146, "proficiency": 0.22, "schoolCount": 1}, {"name": "Bonnieville", "lat": 37.3813, "lon": -85.9026, "proficiency": 0.05, "schoolCount": 1}, {"name": "Cub Run", "lat": 37.3028, "lon": -86.061645, "proficiency": 0.3, "schoolCount": 1}, {"name": "Hardyville", "lat": 37.272, "lon": -85.7738, "proficiency": 0.15, "schoolCount": 1}, {"name": "Munfordville", "lat": 37.2682, "lon": -85.8933, "proficiency": 0.245, "schoolCount": 1}, {"name": "Hazard", "lat": 37.27714039999999, "lon": -83.1923318, "proficiency": 0.165, "schoolCount": 5}, {"name": "Henderson", "lat": 37.830797999999994, "lon": -87.58271666666667, "proficiency": 0.395, "schoolCount": 3}, {"name": "New Castle", "lat": 38.419919, "lon": -85.167986, "proficiency": 0.27, "schoolCount": 1}, {"name": "Clinton", "lat": 36.670905, "lon": -88.991566, "proficiency": 0.445, "schoolCount": 1}, {"name": "Madisonville", "lat": 37.33016966666667, "lon": -87.49412366666667, "proficiency": 0.1533, "schoolCount": 3}, {"name": "Nebo", "lat": 37.306234, "lon": -87.705418, "proficiency": 0.15, "schoolCount": 1}, {"name": "Nortonville", "lat": 37.216037, "lon": -87.466071, "proficiency": 0.32, "schoolCount": 1}, {"name": "McKee", "lat": 37.42232, "lon": -83.948006, "proficiency": 0.17, "schoolCount": 1}, {"name": "Annville", "lat": 37.31934, "lon": -83.974811, "proficiency": -0.03, "schoolCount": 1}, {"name": "Louisville", "lat": 38.20795621052632, "lon": -85.708924, "proficiency": 0.1208, "schoolCount": 38}, {"name": "Fairdale", "lat": 38.1162, "lon": -85.7492, "proficiency": -0.03, "schoolCount": 1}, {"name": "Jenkins", "lat": 37.16211, "lon": -82.644372, "proficiency": 0.05, "schoolCount": 1}, {"name": "Nicholasville", "lat": 37.90525133333333, "lon": -84.56102366666667, "proficiency": 0.14, "schoolCount": 3}, {"name": "Wilmore", "lat": 37.859047, "lon": -84.665594, "proficiency": 0.245, "schoolCount": 1}, {"name": "Paintsville", "lat": 37.8178985, "lon": -82.810148, "proficiency": 0.2575, "schoolCount": 2}, {"name": "Edgewood", "lat": 39.013544, "lon": -84.581117, "proficiency": 0.32, "schoolCount": 1}, {"name": "Independence", "lat": 38.937297, "lon": -84.5336465, "proficiency": 0.37, "schoolCount": 2}, {"name": "Taylor Mill", "lat": 38.995765, "lon": -84.508536, "proficiency": 0.32, "schoolCount": 1}, {"name": "Topmost", "lat": 37.3512, "lon": -82.8112, "proficiency": 0.3, "schoolCount": 1}, {"name": "Littcarr", "lat": 37.2427, "lon": -82.9493, "proficiency": 0.15, "schoolCount": 1}, {"name": "Emmalena", "lat": 37.336, "lon": -83.0771, "proficiency": 0.1, "schoolCount": 1}, {"name": "Hindman", "lat": 37.330745, "lon": -82.994867, "proficiency": 0.15, "schoolCount": 1}, {"name": "Mousie", "lat": 37.417921, "lon": -82.878593, "proficiency": 0.245, "schoolCount": 1}, {"name": "Hodgenville", "lat": 37.555835, "lon": -85.73348, "proficiency": 0.22, "schoolCount": 1}, {"name": "Sonora", "lat": 37.473665, "lon": -85.79705, "proficiency": 0.245, "schoolCount": 1}, {"name": "London", "lat": 37.10742, "lon": -84.01597666666667, "proficiency": 0.3283, "schoolCount": 3}, {"name": "Blaine", "lat": 38.031578, "lon": -82.846255, "proficiency": 0.3, "schoolCount": 1}, {"name": "Louisa", "lat": 38.1370385, "lon": -82.64305250000001, "proficiency": 0.16, "schoolCount": 2}, {"name": "Beattyville", "lat": 37.581619, "lon": -83.708357, "proficiency": 0.17, "schoolCount": 1}, {"name": "Yeaddiss", "lat": 37.07908, "lon": -83.23443, "proficiency": 0.3, "schoolCount": 1}, {"name": "Hyden", "lat": 37.164315, "lon": -83.400473, "proficiency": 0.15, "schoolCount": 1}, {"name": "Wooton", "lat": 37.1832, "lon": -83.303, "proficiency": 0.495, "schoolCount": 1}, {"name": "Hoskinston", "lat": 37.06691, "lon": -83.408287, "proficiency": 0.345, "schoolCount": 1}, {"name": "Eolia", "lat": 37.054199, "lon": -82.796823, "proficiency": 0.1, "schoolCount": 1}, {"name": "Neon", "lat": 37.1921, "lon": -82.712, "proficiency": 0.075, "schoolCount": 1}, {"name": "Whitesburg", "lat": 37.1067995, "lon": -82.839445, "proficiency": 0.3725, "schoolCount": 2}, {"name": "Vanceburg", "lat": 38.597, "lon": -83.3443, "proficiency": 0.27, "schoolCount": 1}, {"name": "Stanford", "lat": 37.513934, "lon": -84.652987, "proficiency": 0.12, "schoolCount": 1}, {"name": "Burna", "lat": 37.233242, "lon": -88.377748, "proficiency": 0.42, "schoolCount": 1}, {"name": "Adairville", "lat": 36.673483, "lon": -86.854714, "proficiency": 0.445, "schoolCount": 1}, {"name": "Auburn", "lat": 36.864271, "lon": -86.714392, "proficiency": 0.42, "schoolCount": 1}, {"name": "Russellville", "lat": 36.875537, "lon": -86.86405099999999, "proficiency": 0.2825, "schoolCount": 2}, {"name": "Lewisburg", "lat": 36.985329, "lon": -86.947266, "proficiency": 0.545, "schoolCount": 1}, {"name": "Olmstead", "lat": 36.753569, "lon": -87.010547, "proficiency": 0.495, "schoolCount": 1}, {"name": "Ludlow", "lat": 39.091704, "lon": -84.553494, "proficiency": 0.15, "schoolCount": 1}, {"name": "Eddyville", "lat": 37.09528, "lon": -88.078661, "proficiency": 0.57, "schoolCount": 1}, {"name": "Richmond", "lat": 37.7525398, "lon": -84.2913502, "proficiency": 0.13, "schoolCount": 5}, {"name": "Salyersville", "lat": 37.738395, "lon": -83.072583, "proficiency": 0.075, "schoolCount": 1}, {"name": "Lebanon", "lat": 37.578233, "lon": -85.234836, "proficiency": 0.22, "schoolCount": 1}, {"name": "Calvert City", "lat": 36.958841, "lon": -88.362853, "proficiency": 0.27, "schoolCount": 1}, {"name": "Benton", "lat": 36.866819500000005, "lon": -88.348759, "proficiency": 0.2825, "schoolCount": 2}, {"name": "Warfield", "lat": 37.845239, "lon": -82.426102, "proficiency": 0.22, "schoolCount": 1}, {"name": "Maysville", "lat": 38.6324, "lon": -83.7883, "proficiency": 0.22, "schoolCount": 1}, {"name": "West Paducah", "lat": 37.079045, "lon": -88.79404149999999, "proficiency": 0.17, "schoolCount": 2}, {"name": "Paducah", "lat": 37.05278475, "lon": -88.6279245, "proficiency": 0.195, "schoolCount": 4}, {"name": "Stearns", "lat": 36.706682, "lon": -84.463627, "proficiency": 0.22, "schoolCount": 1}, {"name": "Calhoun", "lat": 37.5486, "lon": -87.2305, "proficiency": 0.22, "schoolCount": 1}, {"name": "Brandenburg", "lat": 37.9851, "lon": -86.1649, "proficiency": 0.37, "schoolCount": 1}, {"name": "Harrodsburg", "lat": 37.777922, "lon": -84.855959, "proficiency": 0.12, "schoolCount": 1}, {"name": "Edmonton", "lat": 36.98154, "lon": -85.633125, "proficiency": 0.17, "schoolCount": 1}, {"name": "Tompkinsville", "lat": 36.6944, "lon": -85.7, "proficiency": 0.17, "schoolCount": 1}, {"name": "Mt Sterling", "lat": 38.04798733333333, "lon": -83.94111600000001, "proficiency": 0.0367, "schoolCount": 3}, {"name": "West Liberty", "lat": 37.8933, "lon": -83.2837, "proficiency": 0.17, "schoolCount": 1}, {"name": "Bloomfield", "lat": 37.9144, "lon": -85.3079, "proficiency": 0.22, "schoolCount": 1}, {"name": "Boston", "lat": 37.7928, "lon": -85.659, "proficiency": 0.445, "schoolCount": 1}, {"name": "New Haven", "lat": 37.6552, "lon": -85.5871, "proficiency": 0.05, "schoolCount": 1}, {"name": "Newport", "lat": 39.094525, "lon": -84.485255, "proficiency": 0.045, "schoolCount": 2}, {"name": "Carlisle", "lat": 38.317272, "lon": -84.037844, "proficiency": 0.32, "schoolCount": 1}, {"name": "Hartford", "lat": 37.441155, "lon": -86.89620266666667, "proficiency": 0.195, "schoolCount": 3}, {"name": "Lagrange", "lat": 38.385962, "lon": -85.441402, "proficiency": 0.37, "schoolCount": 1}, {"name": "Crestwood", "lat": 38.345699499999995, "lon": -85.4214275, "proficiency": 0.47, "schoolCount": 2}, {"name": "Goshen", "lat": 38.3954, "lon": -85.586793, "proficiency": 0.47, "schoolCount": 1}, {"name": "Owenton", "lat": 38.530523, "lon": -84.805535, "proficiency": 0.22, "schoolCount": 1}, {"name": "Booneville", "lat": 37.476868, "lon": -83.665159, "proficiency": 0.15, "schoolCount": 1}, {"name": "Butler", "lat": 38.7435, "lon": -84.366, "proficiency": 0.12, "schoolCount": 1}, {"name": "Buckhorn", "lat": 37.346783, "lon": -83.472701, "proficiency": 0.245, "schoolCount": 1}, {"name": "Leatherwood", "lat": 37.047423, "lon": -83.130357, "proficiency": 0.245, "schoolCount": 1}, {"name": "Happy", "lat": 37.202405, "lon": -83.105434, "proficiency": 0.245, "schoolCount": 1}, {"name": "Ary", "lat": 37.367463, "lon": -83.150144, "proficiency": 0.245, "schoolCount": 1}, {"name": "Viper", "lat": 37.161919, "lon": -83.13159, "proficiency": 0.3, "schoolCount": 1}, {"name": "Dorton", "lat": 37.2781, "lon": -82.5781, "proficiency": 0.3, "schoolCount": 1}, {"name": "Elkhorn City", "lat": 37.2983, "lon": -82.3567, "proficiency": 0.245, "schoolCount": 1}, {"name": "Pikeville", "lat": 37.487432857142856, "lon": -82.52031271428572, "proficiency": 0.27, "schoolCount": 7}, {"name": "Kimper", "lat": 37.5164, "lon": -82.3627, "proficiency": 0.75, "schoolCount": 1}, {"name": "Phelps", "lat": 37.5026, "lon": -82.1809, "proficiency": 0.075, "schoolCount": 1}, {"name": "Fedscreek", "lat": 37.4012, "lon": -82.2446, "proficiency": 0.1, "schoolCount": 1}, {"name": "Belfry", "lat": 37.622527, "lon": -82.268574, "proficiency": 0.32, "schoolCount": 1}, {"name": "Stanton", "lat": 37.850046, "lon": -83.8675245, "proficiency": 0.045, "schoolCount": 2}, {"name": "Somerset", "lat": 37.08286475, "lon": -84.60504800000001, "proficiency": 0.3513, "schoolCount": 4}, {"name": "Raceland", "lat": 38.541929, "lon": -82.737437, "proficiency": 0.27, "schoolCount": 1}, {"name": "Mount Olivet", "lat": 38.528901, "lon": -84.011958, "proficiency": 0.15, "schoolCount": 1}, {"name": "Mount Vernon", "lat": 37.357144, "lon": -84.357187, "proficiency": 0.12, "schoolCount": 1}, {"name": "Morehead", "lat": 38.193201, "lon": -83.45989800000001, "proficiency": 0.145, "schoolCount": 2}, {"name": "Russell", "lat": 38.511129, "lon": -82.70457, "proficiency": 0.27, "schoolCount": 1}, {"name": "Russell Springs", "lat": 37.0339, "lon": -85.074, "proficiency": 0.32, "schoolCount": 1}, {"name": "Science Hill", "lat": 37.177891, "lon": -84.625818, "proficiency": 0.345, "schoolCount": 1}, {"name": "Georgetown", "lat": 38.22582225, "lon": -84.56555925, "proficiency": 0.2888, "schoolCount": 4}, {"name": "Shelbyville", "lat": 38.22564766666667, "lon": -85.23096400000001, "proficiency": 0.27, "schoolCount": 3}, {"name": "Franklin", "lat": 36.716383, "lon": -86.579858, "proficiency": 0.32, "schoolCount": 1}, {"name": "Southgate", "lat": 39.072762, "lon": -84.473747, "proficiency": 0.1, "schoolCount": 1}, {"name": "Taylorsville", "lat": 38.029708, "lon": -85.3541115, "proficiency": 0.12, "schoolCount": 2}, {"name": "Elkton", "lat": 36.804015500000006, "lon": -87.1612055, "proficiency": 0.045, "schoolCount": 2}, {"name": "Cadiz", "lat": 36.8688, "lon": -87.8252, "proficiency": 0.17, "schoolCount": 1}, {"name": "Bedford", "lat": 38.608209, "lon": -85.322978, "proficiency": 0.12, "schoolCount": 1}, {"name": "Morganfield", "lat": 37.6287355, "lon": -87.9428885, "proficiency": 0.07, "schoolCount": 2}, {"name": "Walton", "lat": 38.8636, "lon": -84.6185, "proficiency": 0.27, "schoolCount": 1}, {"name": "Willisburg", "lat": 37.803604, "lon": -85.112921, "proficiency": 0.42, "schoolCount": 1}, {"name": "Springfield", "lat": 37.691476, "lon": -85.219626, "proficiency": 0.445, "schoolCount": 1}, {"name": "Monticello", "lat": 36.811394, "lon": -84.901281, "proficiency": 0.0533, "schoolCount": 3}, {"name": "Dixon", "lat": 37.49755, "lon": -87.712486, "proficiency": 0.22, "schoolCount": 1}, {"name": "Williamsburg", "lat": 36.76514866666667, "lon": -84.16002733333333, "proficiency": 0.27, "schoolCount": 3}, {"name": "Williamstown", "lat": 38.646721, "lon": -84.565924, "proficiency": 0.245, "schoolCount": 1}, {"name": "Campton", "lat": 37.74996, "lon": -83.58044100000001, "proficiency": 0.07, "schoolCount": 2}, {"name": "Versailles", "lat": 38.04415, "lon": -84.73885, "proficiency": 0.18, "schoolCount": 2}]}