{"state": "LA", "stateName": "Louisiana", "year": 2024, "naep": {"text": "8 out of 10", "numerator": 8, "denominator": 10}, "schools": [{"name": "Egan Elementary School", "lat": 30.2361, "lon": -92.5102, "proficiency": 0.64, "district": "Acadia Parish", "city": "Egan", "ncessch": "220003000010"}, {"name": "Evangeline Elementary School", "lat": 30.2651, "lon": -92.5703, "proficiency": 0.86, "district": "Acadia Parish", "city": "Evangeline", "ncessch": "220003000012"}, {"name": "Iota Middle School", "lat": 30.3264, "lon": -92.4944, "proficiency": 0.44, "district": "Acadia Parish", "city": "Iota", "ncessch": "220003001015"}, {"name": "Midland High School", "lat": 30.1678, "lon": -92.4971, "proficiency": 0.42, "district": "Acadia Parish", "city": "Midland", "ncessch": "220003000016"}, {"name": "Mire Elementary School", "lat": 30.2992, "lon": -92.1927, "proficiency": 0.49, "district": "Acadia Parish", "city": "Rayne", "ncessch": "220003000017"}, {"name": "Fairview High School", "lat": 30.789028, "lon": -92.948268, "proficiency": 0.55, "district": "Allen Parish", "city": "Grant", "ncessch": "220006000025"}, {"name": "Kinder Middle School", "lat": 30.488755, "lon": -92.844311, "proficiency": 0.5, "district": "Allen Parish", "city": "Kinder", "ncessch": "220006001049"}, {"name": "Prairieville Middle School", "lat": 30.304982, "lon": -90.954927, "proficiency": 0.63, "district": "Ascension Parish", "city": "Prairieville", "ncessch": "220009000044"}, {"name": "Central Middle School", "lat": 30.27156, "lon": -90.905485, "proficiency": 0.47, "district": "Ascension Parish", "city": "Gonzales", "ncessch": "220009000462"}, {"name": "Bluff Middle School", "lat": 30.29843, "lon": -90.99757, "proficiency": 0.48, "district": "Ascension Parish", "city": "Prairieville", "ncessch": "220009002488"}, {"name": "Gibsland-Coleman High School", "lat": 32.538465, "lon": -93.062155, "proficiency": 0.2, "district": "Bienville Parish", "city": "Gibsland", "ncessch": "220021000095"}, {"name": "Saline High School", "lat": 32.1608, "lon": -92.9739, "proficiency": 0.76, "district": "Bienville Parish", "city": "Saline", "ncessch": "220021000099"}, {"name": "Cope Middle School", "lat": 32.54536, "lon": -93.66659, "proficiency": 0.3, "district": "Bossier Parish", "city": "Bossier City", "ncessch": "220027001573"}, {"name": "Elm Grove Middle School", "lat": 32.47391, "lon": -93.669216, "proficiency": 0.31, "district": "Bossier Parish", "city": "Bossier City", "ncessch": "220027000125"}, {"name": "Haughton Middle School", "lat": 32.548409, "lon": -93.49622, "proficiency": 0.2, "district": "Bossier Parish", "city": "Haughton", "ncessch": "220027000135"}, {"name": "Benton Middle School", "lat": 32.666013, "lon": -93.746556, "proficiency": 0.46, "district": "Bossier Parish", "city": "Benton", "ncessch": "220027000842"}, {"name": "Caddo Parish Middle Magnet School", "lat": 32.43527, "lon": -93.74209, "proficiency": 1.0, "district": "Caddo Parish", "city": "Shreveport", "ncessch": "220030000158"}, {"name": "Vinton Middle School", "lat": 30.1975, "lon": -93.5818, "proficiency": 0.31, "district": "Calcasieu Parish", "city": "Vinton", "ncessch": "220033000271"}, {"name": "Hackberry High School", "lat": 29.9834, "lon": -93.3745, "proficiency": 0.34, "district": "Cameron Parish", "city": "Hackberry", "ncessch": "220039000290"}, {"name": "Monterey High School", "lat": 31.4579, "lon": -91.7204, "proficiency": 0.52, "district": "Concordia Parish", "city": "Monterey", "ncessch": "220048000322"}, {"name": "Belfair Montessori School", "lat": 30.4682, "lon": -91.1458, "proficiency": 0.46, "district": "East Baton Rouge Parish", "city": "Baton Rouge", "ncessch": "220054000350"}, {"name": "Glasgow Middle School", "lat": 30.40856, "lon": -91.14335, "proficiency": 0.31, "district": "East Baton Rouge Parish", "city": "Baton Rouge", "ncessch": "220054001554"}, {"name": "Jefferson Terrace Academy", "lat": 30.396798, "lon": -91.076793, "proficiency": 0.6, "district": "East Baton Rouge Parish", "city": "Baton Rouge", "ncessch": "220054000388"}, {"name": "McKinley Middle Magnet School", "lat": 30.4334, "lon": -91.1746, "proficiency": 0.4, "district": "East Baton Rouge Parish", "city": "Baton Rouge", "ncessch": "220054000396"}, {"name": "Sherwood Middle Academic Academy", "lat": 30.4466, "lon": -91.0634, "proficiency": 0.7, "district": "East Baton Rouge Parish", "city": "Baton Rouge", "ncessch": "220054000428"}, {"name": "Westdale Middle School", "lat": 30.4409, "lon": -91.1322, "proficiency": 0.46, "district": "East Baton Rouge Parish", "city": "Baton Rouge", "ncessch": "220054000442"}, {"name": "Mayfair Laboratory School", "lat": 30.3803, "lon": -91.1026, "proficiency": 1.0, "district": "East Baton Rouge Parish", "city": "Baton Rouge", "ncessch": "220054002353"}, {"name": "South Baton Rouge Charter Academy", "lat": 30.354773, "lon": -91.115203, "proficiency": 0.15, "district": "East Baton Rouge Parish", "city": "Baton Rouge", "ncessch": "220054002404"}, {"name": "BASIS Baton Rouge Materra Campus", "lat": 30.380795, "lon": -91.033495, "proficiency": 0.83, "district": "East Baton Rouge Parish", "city": "Baton Rouge", "ncessch": "220054002451"}, {"name": "Slaughter Community Charter School", "lat": 30.720627, "lon": -91.152318, "proficiency": 0.62, "district": "East Feliciana Parish", "city": "Slaughter", "ncessch": "220060002321"}, {"name": "Bayou Chicot Elementary School", "lat": 30.8124, "lon": -92.3513, "proficiency": 0.55, "district": "Evangeline Parish", "city": "Ville Platte", "ncessch": "220063000471"}, {"name": "Vidrine Elementary School", "lat": 30.6922, "lon": -92.3978, "proficiency": 0.54, "district": "Evangeline Parish", "city": "Ville Platte", "ncessch": "220063000481"}, {"name": "James Stephens Montessori School", "lat": 30.6901, "lon": -92.2946, "proficiency": 0.5, "district": "Evangeline Parish", "city": "Ville Platte", "ncessch": "220063001659"}, {"name": "Belle Place Middle School", "lat": 30.01041, "lon": -91.75493, "proficiency": 0.41, "district": "Iberia Parish", "city": "New Iberia", "ncessch": "220072001927"}, {"name": "Iberia Middle School", "lat": 29.98021, "lon": -91.83876, "proficiency": 0.3, "district": "Iberia Parish", "city": "New Iberia", "ncessch": "220072000316"}, {"name": "Quitman High School", "lat": 32.3457, "lon": -92.7202, "proficiency": 0.47, "district": "Jackson Parish", "city": "Quitman", "ncessch": "220078000556"}, {"name": "Weston High School", "lat": 32.2403, "lon": -92.6072, "proficiency": 0.28, "district": "Jackson Parish", "city": "Jonesboro", "ncessch": "220078000560"}, {"name": "J.C. Ellis School", "lat": 30.00515, "lon": -90.1364, "proficiency": 0.73, "district": "Jefferson Parish", "city": "Metairie", "ncessch": "220084000600"}, {"name": "Jefferson RISE Charter School", "lat": 29.87864, "lon": -90.03107, "proficiency": 0.25, "district": "Jefferson Parish", "city": "Gretna", "ncessch": "220084002419"}, {"name": "Lake Arthur High School", "lat": 30.0969, "lon": -92.6692, "proficiency": 0.3, "district": "Jefferson Davis Parish", "city": "Lake Arthur", "ncessch": "220081000572"}, {"name": "L.J. Alleman Middle School", "lat": 30.19183, "lon": -92.04263, "proficiency": 0.56, "district": "Lafayette Parish", "city": "Lafayette", "ncessch": "220087000661"}, {"name": "Paul Breaux Middle School", "lat": 30.21859, "lon": -91.99814, "proficiency": 0.47, "district": "Lafayette Parish", "city": "Lafayette", "ncessch": "220087000663"}, {"name": "Carencro Middle School", "lat": 30.31641, "lon": -92.05011, "proficiency": 0.25, "district": "Lafayette Parish", "city": "Carencro", "ncessch": "220087000666"}, {"name": "Milton Elementary School", "lat": 30.1053, "lon": -92.0771, "proficiency": 0.61, "district": "Lafayette Parish", "city": "Milton", "ncessch": "220087000682"}, {"name": "Golden Meadow Middle School", "lat": 29.405391, "lon": -90.276289, "proficiency": 0.36, "district": "Lafourche Parish", "city": "Golden Meadow", "ncessch": "220090000706"}, {"name": "Jena Junior High School", "lat": 31.6955, "lon": -92.1234, "proficiency": 0.71, "district": "LaSalle Parish", "city": "Jena", "ncessch": "220096000733"}, {"name": "LaSalle Junior High School", "lat": 31.8697, "lon": -92.2942, "proficiency": 0.6, "district": "LaSalle Parish", "city": "Urania", "ncessch": "220096000738"}, {"name": "Choudrant High School", "lat": 32.5293, "lon": -92.51745, "proficiency": 0.55, "district": "Lincoln Parish", "city": "Choudrant", "ncessch": "220099000742"}, {"name": "A. E. Phillips Laboratory School", "lat": 32.52582, "lon": -92.650489, "proficiency": 1.0, "district": "Lincoln Parish", "city": "Ruston", "ncessch": "220099000750"}, {"name": "French Settlement High School", "lat": 30.2971, "lon": -90.7978, "proficiency": 0.28, "district": "Livingston Parish", "city": "French Settlement", "ncessch": "220102000762"}, {"name": "Frost School", "lat": 30.3918, "lon": -90.76497, "proficiency": 0.52, "district": "Livingston Parish", "city": "Livingston", "ncessch": "220102000764"}, {"name": "Marthaville Elementary & Junior High School", "lat": 31.739897, "lon": -93.39948, "proficiency": 0.54, "district": "Natchitoches Parish", "city": "Marthaville", "ncessch": "220114000832"}, {"name": "Provencal Elementary & Junior High School", "lat": 31.654252, "lon": -93.203432, "proficiency": 0.53, "district": "Natchitoches Parish", "city": "Provencal", "ncessch": "220114000841"}, {"name": "Alice M Harte Elementary Charter School", "lat": 29.918802, "lon": -89.998935, "proficiency": 0.67, "district": "Alice M Harte Elementary Charter School", "city": "New Orleans", "ncessch": "220027900903"}, {"name": "The Willow School", "lat": 29.93548, "lon": -90.11398, "proficiency": 0.91, "district": "The Willow School", "city": "New Orleans", "ncessch": "220029700926"}, {"name": "Lake Forest Elementary Charter School", "lat": 30.035389, "lon": -89.959496, "proficiency": 0.86, "district": "Lake Forest Elementary Charter School", "city": "New Orleans", "ncessch": "220028201937"}, {"name": "Pinecrest Elementary/Middle School", "lat": 32.3465, "lon": -92.22, "proficiency": 0.62, "district": "Ouachita Parish", "city": "West Monroe", "ncessch": "220120001004"}, {"name": "Belle Chasse Middle School", "lat": 29.7319, "lon": -90.0074, "proficiency": 0.48, "district": "Plaquemines Parish", "city": "Belle Chasse", "ncessch": "220123001023"}, {"name": "Alexandria Middle Magnet School", "lat": 31.30071, "lon": -92.47445, "proficiency": 0.5, "district": "Rapides Parish", "city": "Alexandria", "ncessch": "220129001039"}, {"name": "Scott M. Brame Middle School", "lat": 31.27342, "lon": -92.47515, "proficiency": 0.46, "district": "Rapides Parish", "city": "Alexandria", "ncessch": "220129001044"}, {"name": "Buckeye High School", "lat": 31.3662, "lon": -92.18508, "proficiency": 0.59, "district": "Rapides Parish", "city": "Alexandria", "ncessch": "220129001047"}, {"name": "Plainview High School", "lat": 30.9371, "lon": -92.76685, "proficiency": 0.3, "district": "Rapides Parish", "city": "Glenmora", "ncessch": "220129001071"}, {"name": "Poland Junior High School", "lat": 31.16732, "lon": -92.27572, "proficiency": 0.6, "district": "Rapides Parish", "city": "Alexandria", "ncessch": "220129001072"}, {"name": "Tioga Junior High School", "lat": 31.38629, "lon": -92.42546, "proficiency": 0.46, "district": "Rapides Parish", "city": "Tioga", "ncessch": "220129001085"}, {"name": "Forest Hill Junior High School", "lat": 31.039493, "lon": -92.531265, "proficiency": 0.59, "district": "Rapides Parish", "city": "Forest Hill", "ncessch": "220129001712"}, {"name": "Northwood High School", "lat": 31.40401, "lon": -92.70529, "proficiency": 0.38, "district": "Rapides Parish", "city": "Lena", "ncessch": "220129001943"}, {"name": "Caroline Dormon Junior High School", "lat": 31.18097, "lon": -92.50743, "proficiency": 0.66, "district": "Rapides Parish", "city": "Woodworth", "ncessch": "220129002344"}, {"name": "Holly Ridge Elementary School", "lat": 32.4685, "lon": -91.6277, "proficiency": 0.39, "district": "Richland Parish", "city": "Rayville", "ncessch": "220135001098"}, {"name": "Mangham Junior High School", "lat": 32.31, "lon": -91.7866, "proficiency": 0.44, "district": "Richland Parish", "city": "Mangham", "ncessch": "220135001101"}, {"name": "Ebarb School", "lat": 31.6302, "lon": -93.7516, "proficiency": 0.39, "district": "Sabine Parish", "city": "Noble", "ncessch": "220138001108"}, {"name": "Many Junior High School", "lat": 31.5944, "lon": -93.4484, "proficiency": 0.36, "district": "Sabine Parish", "city": "Many", "ncessch": "220138001113"}, {"name": "Zwolle High School", "lat": 31.6343, "lon": -93.6461, "proficiency": 0.62, "district": "Sabine Parish", "city": "Zwolle", "ncessch": "220138001118"}, {"name": "N.P. Trist Middle School", "lat": 29.9285, "lon": -89.9246, "proficiency": 0.3, "district": "St. Bernard Parish", "city": "Meraux", "ncessch": "220141001136"}, {"name": "St. Bernard Middle School", "lat": 29.8742, "lon": -89.8738, "proficiency": 0.37, "district": "St. Bernard Parish", "city": "St. Bernard", "ncessch": "220141002065"}, {"name": "Lutcher High School", "lat": 30.0461, "lon": -90.6949, "proficiency": 0.5, "district": "St. James Parish", "city": "Lutcher", "ncessch": "220150001163"}, {"name": "John L. Ory Communications Magnet Elementary", "lat": 30.066003, "lon": -90.486027, "proficiency": 0.35, "district": "St. John the Baptist Parish", "city": "LaPlace", "ncessch": "220153000427"}, {"name": "Emily C. Watkins Elementary", "lat": 30.055979, "lon": -90.477103, "proficiency": 0.32, "district": "St. John the Baptist Parish", "city": "Laplace", "ncessch": "220153002281"}, {"name": "Eunice Junior High School", "lat": 30.490102, "lon": -92.423463, "proficiency": 0.38, "district": "St. Landry Parish", "city": "Eunice", "ncessch": "220156001182"}, {"name": "Leonville Elementary School", "lat": 30.475211, "lon": -91.979647, "proficiency": 0.62, "district": "St. Landry Parish", "city": "Leonville", "ncessch": "220156001192"}, {"name": "Sunset Middle School", "lat": 30.404158, "lon": -92.066481, "proficiency": 0.35, "district": "St. Landry Parish", "city": "Sunset", "ncessch": "220156001213"}, {"name": "Arnaudville Middle School", "lat": 30.398276, "lon": -91.935197, "proficiency": 0.52, "district": "St. Landry Parish", "city": "Arnaudville", "ncessch": "220156000191"}, {"name": "Magnet Academy for Cultural Arts", "lat": 30.522523, "lon": -92.072816, "proficiency": 0.68, "district": "St. Landry Parish", "city": "Opelousas", "ncessch": "220156001685"}, {"name": "Mandeville Junior High School", "lat": 30.36559, "lon": -90.07484, "proficiency": 0.55, "district": "St. Tammany Parish", "city": "Mandeville", "ncessch": "220165001567"}, {"name": "Fontainebleau Junior High School", "lat": 30.40419, "lon": -90.03887, "proficiency": 0.49, "district": "St. Tammany Parish", "city": "Mandeville", "ncessch": "220165000589"}, {"name": "L.P. Monteleone Junior High School", "lat": 30.34129, "lon": -90.0065, "proficiency": 0.56, "district": "St. Tammany Parish", "city": "Mandeville", "ncessch": "220165001686"}, {"name": "Champ Cooper Elementary School", "lat": 30.4721, "lon": -90.3246, "proficiency": 0.45, "district": "Tangipahoa Parish", "city": "Ponchatoula", "ncessch": "220168001299"}, {"name": "Ponchatoula Junior High School", "lat": 30.4378, "lon": -90.4367, "proficiency": 0.44, "district": "Tangipahoa Parish", "city": "Ponchatoula", "ncessch": "220168001317"}, {"name": "Southeastern LA University Lab School", "lat": 30.5166, "lon": -90.4713, "proficiency": 0.58, "district": "Tangipahoa Parish", "city": "Hammond", "ncessch": "220168001322"}, {"name": "Hammond Eastside Magnet", "lat": 30.513921, "lon": -90.380061, "proficiency": 0.42, "district": "Tangipahoa Parish", "city": "Hammond", "ncessch": "220168001902"}, {"name": "Loranger Middle School", "lat": 30.6397, "lon": -90.4009, "proficiency": 0.23, "district": "Tangipahoa Parish", "city": "Loranger", "ncessch": "220168001951"}, {"name": "Evergreen Junior High School", "lat": 29.659, "lon": -90.7706, "proficiency": 0.51, "district": "Terrebonne Parish", "city": "Houma", "ncessch": "220174001348"}, {"name": "Houma Junior High School", "lat": 29.597073, "lon": -90.7389, "proficiency": 0.3, "district": "Terrebonne Parish", "city": "Houma", "ncessch": "220174001353"}, {"name": "Lacache Middle School", "lat": 29.4578, "lon": -90.59, "proficiency": 0.5, "district": "Terrebonne Parish", "city": "Chauvin", "ncessch": "220174001354"}, {"name": "Montegut Middle School", "lat": 29.4815, "lon": -90.5498, "proficiency": 0.49, "district": "Terrebonne Parish", "city": "Montegut", "ncessch": "220174001359"}, {"name": "Grand Caillou Middle School", "lat": 29.551756, "lon": -90.678283, "proficiency": 0.24, "district": "Terrebonne Parish", "city": "Houma", "ncessch": "220174001952"}, {"name": "Forked Island/E. Broussard Elem School", "lat": 29.863, "lon": -92.2654, "proficiency": 0.77, "district": "Vermilion Parish", "city": "Abbeville", "ncessch": "220180001391"}, {"name": "Rene A. Rost Middle School", "lat": 30.003623, "lon": -92.283904, "proficiency": 0.36, "district": "Vermilion Parish", "city": "Kaplan", "ncessch": "220180001568"}, {"name": "Erath Middle School", "lat": 29.9533, "lon": -92.0358, "proficiency": 0.58, "district": "Vermilion Parish", "city": "Erath", "ncessch": "220180001846"}, {"name": "North Vermilion Middle School", "lat": 30.079916, "lon": -92.168366, "proficiency": 0.53, "district": "Vermilion Parish", "city": "Maurice", "ncessch": "220180002398"}, {"name": "Anacoco High School", "lat": 31.2525, "lon": -93.3385, "proficiency": 0.63, "district": "Vernon Parish", "city": "Anacoco", "ncessch": "220183001405"}, {"name": "Evans High School", "lat": 30.98931, "lon": -93.50144, "proficiency": 0.55, "district": "Vernon Parish", "city": "Evans", "ncessch": "220183001407"}, {"name": "Pickering High School", "lat": 31.03883, "lon": -93.27084, "proficiency": 0.29, "district": "Vernon Parish", "city": "Leesville", "ncessch": "220183001664"}, {"name": "Pitkin High School", "lat": 30.93687, "lon": -92.93336, "proficiency": 0.52, "district": "Vernon Parish", "city": "Pitkin", "ncessch": "220183001413"}, {"name": "Rosepine High School", "lat": 30.92716, "lon": -93.28602, "proficiency": 0.71, "district": "Vernon Parish", "city": "Rosepine", "ncessch": "220183001415"}, {"name": "Simpson High School", "lat": 31.26184, "lon": -93.0097, "proficiency": 0.7, "district": "Vernon Parish", "city": "Simpson", "ncessch": "220183001416"}, {"name": "Pine School", "lat": 30.92503, "lon": -90.01501, "proficiency": 0.4, "district": "Washington Parish", "city": "Franklinton", "ncessch": "220186001426"}, {"name": "Webster Junior High School", "lat": 32.6115, "lon": -93.2725, "proficiency": 0.5, "district": "Webster Parish", "city": "Minden", "ncessch": "220189001455"}, {"name": "Brusly Middle School", "lat": 30.39312, "lon": -91.23882, "proficiency": 0.51, "district": "West Baton Rouge Parish", "city": "Brusly", "ncessch": "220192001458"}, {"name": "Oak Grove High School", "lat": 32.86017, "lon": -91.39479, "proficiency": 0.39, "district": "West Carroll Parish", "city": "Oak Grove", "ncessch": "220195001472"}, {"name": "Calvin High School", "lat": 31.96806, "lon": -92.77529, "proficiency": 0.47, "district": "Winn Parish", "city": "Calvin", "ncessch": "220201001479"}, {"name": "Winnfield Middle School", "lat": 31.9471, "lon": -92.6585, "proficiency": 0.47, "district": "Winn Parish", "city": "Winnfield", "ncessch": "220201001486"}, {"name": "Northshore Charter School", "lat": 30.804244, "lon": -89.858059, "proficiency": 0.14, "district": "City of Bogalusa School District", "city": "Bogalusa", "ncessch": "220024002371"}, {"name": "Northwestern Middle School", "lat": 30.6547, "lon": -91.1535, "proficiency": 0.5, "district": "Zachary Community School District", "city": "Zachary", "ncessch": "220003900406"}, {"name": "Central Middle School", "lat": 30.56437, "lon": -91.03929, "proficiency": 0.33, "district": "Central Community School District", "city": "Central", "ncessch": "220012500364"}, {"name": "LSU Laboratory School", "lat": 30.415137, "lon": -91.172408, "proficiency": 0.75, "district": "LSU Laboratory School", "city": "Baton Rouge", "ncessch": "220002201922"}, {"name": "V. B. Glencoe Charter School", "lat": 29.811037, "lon": -91.667122, "proficiency": 0.46, "district": "V. B. Glencoe Charter School", "city": "Franklin", "ncessch": "220003201375"}, {"name": "Avoyelles Public Charter School", "lat": 31.079974, "lon": -92.051226, "proficiency": 0.65, "district": "Avoyelles Public Charter School", "city": "Mansura", "ncessch": "220003501494"}, {"name": "D'Arbonne Woods Charter School", "lat": 32.742638, "lon": -92.430682, "proficiency": 0.82, "district": "D'Arbonne Woods Charter School", "city": "Farmerville", "ncessch": "220014602282"}, {"name": "Advantage Charter Academy", "lat": 30.58217, "lon": -91.128447, "proficiency": 0.37, "district": "Advantage Charter Academy", "city": "Baker", "ncessch": "220026802385"}, {"name": "Acadiana Renaissance Charter Academy", "lat": 30.095844, "lon": -92.005819, "proficiency": 0.75, "district": "Acadiana Renaissance Charter Academy", "city": "Youngsville", "ncessch": "220023102392"}, {"name": "Red River Charter Academy", "lat": 31.061526, "lon": -92.054313, "proficiency": 0.21, "district": "Red River Charter Academy", "city": "Mansura", "ncessch": "220030802465"}], "districts": [{"name": "Acadia Parish", "lat": 30.25892, "lon": -92.45294, "proficiency": 0.57, "schoolCount": 5}, {"name": "Allen Parish", "lat": 30.6388915, "lon": -92.8962895, "proficiency": 0.525, "schoolCount": 2}, {"name": "Ascension Parish", "lat": 30.291657333333333, "lon": -90.95266066666666, "proficiency": 0.5267, "schoolCount": 3}, {"name": "Bienville Parish", "lat": 32.3496325, "lon": -93.0180275, "proficiency": 0.48, "schoolCount": 2}, {"name": "Bossier Parish", "lat": 32.558423, "lon": -93.6446455, "proficiency": 0.3175, "schoolCount": 4}, {"name": "Caddo Parish", "lat": 32.43527, "lon": -93.74209, "proficiency": 1.0, "schoolCount": 1}, {"name": "Calcasieu Parish", "lat": 30.1975, "lon": -93.5818, "proficiency": 0.31, "schoolCount": 1}, {"name": "Cameron Parish", "lat": 29.9834, "lon": -93.3745, "proficiency": 0.34, "schoolCount": 1}, {"name": "Concordia Parish", "lat": 31.4579, "lon": -91.7204, "proficiency": 0.52, "schoolCount": 1}, {"name": "East Baton Rouge Parish", "lat": 30.412258444444447, "lon": -91.10971566666666, "proficiency": 0.5456, "schoolCount": 9}, {"name": "East Feliciana Parish", "lat": 30.720627, "lon": -91.152318, "proficiency": 0.62, "schoolCount": 1}, {"name": "Evangeline Parish", "lat": 30.731566666666666, "lon": -92.3479, "proficiency": 0.53, "schoolCount": 3}, {"name": "Iberia Parish", "lat": 29.99531, "lon": -91.79684499999999, "proficiency": 0.355, "schoolCount": 2}, {"name": "Jackson Parish", "lat": 32.293, "lon": -92.6637, "proficiency": 0.375, "schoolCount": 2}, {"name": "Jefferson Parish", "lat": 29.941895000000002, "lon": -90.08373499999999, "proficiency": 0.49, "schoolCount": 2}, {"name": "Jefferson Davis Parish", "lat": 30.0969, "lon": -92.6692, "proficiency": 0.3, "schoolCount": 1}, {"name": "Lafayette Parish", "lat": 30.2080325, "lon": -92.041995, "proficiency": 0.4725, "schoolCount": 4}, {"name": "Lafourche Parish", "lat": 29.405391, "lon": -90.276289, "proficiency": 0.36, "schoolCount": 1}, {"name": "LaSalle Parish", "lat": 31.782600000000002, "lon": -92.2088, "proficiency": 0.655, "schoolCount": 2}, {"name": "Lincoln Parish", "lat": 32.52756, "lon": -92.5839695, "proficiency": 0.775, "schoolCount": 2}, {"name": "Livingston Parish", "lat": 30.344450000000002, "lon": -90.781385, "proficiency": 0.4, "schoolCount": 2}, {"name": "Natchitoches Parish", "lat": 31.6970745, "lon": -93.301456, "proficiency": 0.535, "schoolCount": 2}, {"name": "Alice M Harte Elementary Charter School", "lat": 29.918802, "lon": -89.998935, "proficiency": 0.67, "schoolCount": 1}, {"name": "The Willow School", "lat": 29.93548, "lon": -90.11398, "proficiency": 0.91, "schoolCount": 1}, {"name": "Lake Forest Elementary Charter School", "lat": 30.035389, "lon": -89.959496, "proficiency": 0.86, "schoolCount": 1}, {"name": "Ouachita Parish", "lat": 32.3465, "lon": -92.22, "proficiency": 0.62, "schoolCount": 1}, {"name": "Plaquemines Parish", "lat": 29.7319, "lon": -90.0074, "proficiency": 0.48, "schoolCount": 1}, {"name": "Rapides Parish", "lat": 31.228390333333337, "lon": -92.48296611111112, "proficiency": 0.5044, "schoolCount": 9}, {"name": "Richland Parish", "lat": 32.389250000000004, "lon": -91.70715000000001, "proficiency": 0.415, "schoolCount": 2}, {"name": "Sabine Parish", "lat": 31.619633333333336, "lon": -93.61536666666666, "proficiency": 0.4567, "schoolCount": 3}, {"name": "St. Bernard Parish", "lat": 29.90135, "lon": -89.89920000000001, "proficiency": 0.335, "schoolCount": 2}, {"name": "St. James Parish", "lat": 30.0461, "lon": -90.6949, "proficiency": 0.5, "schoolCount": 1}, {"name": "St. John the Baptist Parish", "lat": 30.060991, "lon": -90.481565, "proficiency": 0.335, "schoolCount": 2}, {"name": "St. Landry Parish", "lat": 30.458053999999997, "lon": -92.0955208, "proficiency": 0.51, "schoolCount": 5}, {"name": "St. Tammany Parish", "lat": 30.370356666666666, "lon": -90.04007, "proficiency": 0.5333, "schoolCount": 3}, {"name": "Tangipahoa Parish", "lat": 30.516024199999997, "lon": -90.4027122, "proficiency": 0.424, "schoolCount": 5}, {"name": "Terrebonne Parish", "lat": 29.5494258, "lon": -90.6655166, "proficiency": 0.408, "schoolCount": 5}, {"name": "Vermilion Parish", "lat": 29.97495975, "lon": -92.1883675, "proficiency": 0.56, "schoolCount": 4}, {"name": "Vernon Parish", "lat": 31.067751666666666, "lon": -93.22331000000001, "proficiency": 0.5667, "schoolCount": 6}, {"name": "Washington Parish", "lat": 30.92503, "lon": -90.01501, "proficiency": 0.4, "schoolCount": 1}, {"name": "Webster Parish", "lat": 32.6115, "lon": -93.2725, "proficiency": 0.5, "schoolCount": 1}, {"name": "West Baton Rouge Parish", "lat": 30.39312, "lon": -91.23882, "proficiency": 0.51, "schoolCount": 1}, {"name": "West Carroll Parish", "lat": 32.86017, "lon": -91.39479, "proficiency": 0.39, "schoolCount": 1}, {"name": "Winn Parish", "lat": 31.95758, "lon": -92.716895, "proficiency": 0.47, "schoolCount": 2}, {"name": "City of Bogalusa School District", "lat": 30.804244, "lon": -89.858059, "proficiency": 0.14, "schoolCount": 1}, {"name": "Zachary Community School District", "lat": 30.6547, "lon": -91.1535, "proficiency": 0.5, "schoolCount": 1}, {"name": "Central Community School District", "lat": 30.56437, "lon": -91.03929, "proficiency": 0.33, "schoolCount": 1}, {"name": "LSU Laboratory School", "lat": 30.415137, "lon": -91.172408, "proficiency": 0.75, "schoolCount": 1}, {"name": "V. B. Glencoe Charter School", "lat": 29.811037, "lon": -91.667122, "proficiency": 0.46, "schoolCount": 1}, {"name": "Avoyelles Public Charter School", "lat": 31.079974, "lon": -92.051226, "proficiency": 0.65, "schoolCount": 1}, {"name": "D'Arbonne Woods Charter School", "lat": 32.742638, "lon": -92.430682, "proficiency": 0.82, "schoolCount": 1}, {"name": "Advantage Charter Academy", "lat": 30.58217, "lon": -91.128447, "proficiency": 0.37, "schoolCount": 1}, {"name": "Acadiana Renaissance Charter Academy", "lat": 30.095844, "lon": -92.005819, "proficiency": 0.75, "schoolCount": 1}, {"name": "Red River Charter Academy", "lat": 31.061526, "lon": -92.054313, "proficiency": 0.21, "schoolCount": 1}], "cities": [{"name": "Egan", "lat": 30.2361, "lon": -92.5102, "proficiency": 0.64, "schoolCount": 1}, {"name": "Evangeline", "lat": 30.2651, "lon": -92.5703, "proficiency": 0.86, "schoolCount": 1}, {"name": "Iota", "lat": 30.3264, "lon": -92.4944, "proficiency": 0.44, "schoolCount": 1}, {"name": "Midland", "lat": 30.1678, "lon": -92.4971, "proficiency": 0.42, "schoolCount": 1}, {"name": "Rayne", "lat": 30.2992, "lon": -92.1927, "proficiency": 0.49, "schoolCount": 1}, {"name": "Grant", "lat": 30.789028, "lon": -92.948268, "proficiency": 0.55, "schoolCount": 1}, {"name": "Kinder", "lat": 30.488755, "lon": -92.844311, "proficiency": 0.5, "schoolCount": 1}, {"name": "Prairieville", "lat": 30.301706, "lon": -90.9762485, "proficiency": 0.555, "schoolCount": 2}, {"name": "Gonzales", "lat": 30.27156, "lon": -90.905485, "proficiency": 0.47, "schoolCount": 1}, {"name": "Gibsland", "lat": 32.538465, "lon": -93.062155, "proficiency": 0.2, "schoolCount": 1}, {"name": "Saline", "lat": 32.1608, "lon": -92.9739, "proficiency": 0.76, "schoolCount": 1}, {"name": "Bossier City", "lat": 32.509635, "lon": -93.667903, "proficiency": 0.305, "schoolCount": 2}, {"name": "Haughton", "lat": 32.548409, "lon": -93.49622, "proficiency": 0.2, "schoolCount": 1}, {"name": "Benton", "lat": 32.666013, "lon": -93.746556, "proficiency": 0.46, "schoolCount": 1}, {"name": "Shreveport", "lat": 32.43527, "lon": -93.74209, "proficiency": 1.0, "schoolCount": 1}, {"name": "Vinton", "lat": 30.1975, "lon": -93.5818, "proficiency": 0.31, "schoolCount": 1}, {"name": "Hackberry", "lat": 29.9834, "lon": -93.3745, "proficiency": 0.34, "schoolCount": 1}, {"name": "Monterey", "lat": 31.4579, "lon": -91.7204, "proficiency": 0.52, "schoolCount": 1}, {"name": "Baton Rouge", "lat": 30.412546300000002, "lon": -91.1159849, "proficiency": 0.566, "schoolCount": 10}, {"name": "Slaughter", "lat": 30.720627, "lon": -91.152318, "proficiency": 0.62, "schoolCount": 1}, {"name": "Ville Platte", "lat": 30.731566666666666, "lon": -92.3479, "proficiency": 0.53, "schoolCount": 3}, {"name": "New Iberia", "lat": 29.99531, "lon": -91.79684499999999, "proficiency": 0.355, "schoolCount": 2}, {"name": "Quitman", "lat": 32.3457, "lon": -92.7202, "proficiency": 0.47, "schoolCount": 1}, {"name": "Jonesboro", "lat": 32.2403, "lon": -92.6072, "proficiency": 0.28, "schoolCount": 1}, {"name": "Metairie", "lat": 30.00515, "lon": -90.1364, "proficiency": 0.73, "schoolCount": 1}, {"name": "Gretna", "lat": 29.87864, "lon": -90.03107, "proficiency": 0.25, "schoolCount": 1}, {"name": "Lake Arthur", "lat": 30.0969, "lon": -92.6692, "proficiency": 0.3, "schoolCount": 1}, {"name": "Lafayette", "lat": 30.20521, "lon": -92.020385, "proficiency": 0.515, "schoolCount": 2}, {"name": "Carencro", "lat": 30.31641, "lon": -92.05011, "proficiency": 0.25, "schoolCount": 1}, {"name": "Milton", "lat": 30.1053, "lon": -92.0771, "proficiency": 0.61, "schoolCount": 1}, {"name": "Golden Meadow", "lat": 29.405391, "lon": -90.276289, "proficiency": 0.36, "schoolCount": 1}, {"name": "Jena", "lat": 31.6955, "lon": -92.1234, "proficiency": 0.71, "schoolCount": 1}, {"name": "Urania", "lat": 31.8697, "lon": -92.2942, "proficiency": 0.6, "schoolCount": 1}, {"name": "Choudrant", "lat": 32.5293, "lon": -92.51745, "proficiency": 0.55, "schoolCount": 1}, {"name": "Ruston", "lat": 32.52582, "lon": -92.650489, "proficiency": 1.0, "schoolCount": 1}, {"name": "French Settlement", "lat": 30.2971, "lon": -90.7978, "proficiency": 0.28, "schoolCount": 1}, {"name": "Livingston", "lat": 30.3918, "lon": -90.76497, "proficiency": 0.52, "schoolCount": 1}, {"name": "Marthaville", "lat": 31.739897, "lon": -93.39948, "proficiency": 0.54, "schoolCount": 1}, {"name": "Provencal", "lat": 31.654252, "lon": -93.203432, "proficiency": 0.53, "schoolCount": 1}, {"name": "New Orleans", "lat": 29.963223666666664, "lon": -90.024137, "proficiency": 0.8133, "schoolCount": 3}, {"name": "West Monroe", "lat": 32.3465, "lon": -92.22, "proficiency": 0.62, "schoolCount": 1}, {"name": "Belle Chasse", "lat": 29.7319, "lon": -90.0074, "proficiency": 0.48, "schoolCount": 1}, {"name": "Alexandria", "lat": 31.2769125, "lon": -92.3526, "proficiency": 0.5375, "schoolCount": 4}, {"name": "Glenmora", "lat": 30.9371, "lon": -92.76685, "proficiency": 0.3, "schoolCount": 1}, {"name": "Tioga", "lat": 31.38629, "lon": -92.42546, "proficiency": 0.46, "schoolCount": 1}, {"name": "Forest Hill", "lat": 31.039493, "lon": -92.531265, "proficiency": 0.59, "schoolCount": 1}, {"name": "Lena", "lat": 31.40401, "lon": -92.70529, "proficiency": 0.38, "schoolCount": 1}, {"name": "Woodworth", "lat": 31.18097, "lon": -92.50743, "proficiency": 0.66, "schoolCount": 1}, {"name": "Rayville", "lat": 32.4685, "lon": -91.6277, "proficiency": 0.39, "schoolCount": 1}, {"name": "Mangham", "lat": 32.31, "lon": -91.7866, "proficiency": 0.44, "schoolCount": 1}, {"name": "Noble", "lat": 31.6302, "lon": -93.7516, "proficiency": 0.39, "schoolCount": 1}, {"name": "Many", "lat": 31.5944, "lon": -93.4484, "proficiency": 0.36, "schoolCount": 1}, {"name": "Zwolle", "lat": 31.6343, "lon": -93.6461, "proficiency": 0.62, "schoolCount": 1}, {"name": "Meraux", "lat": 29.9285, "lon": -89.9246, "proficiency": 0.3, "schoolCount": 1}, {"name": "St. Bernard", "lat": 29.8742, "lon": -89.8738, "proficiency": 0.37, "schoolCount": 1}, {"name": "Lutcher", "lat": 30.0461, "lon": -90.6949, "proficiency": 0.5, "schoolCount": 1}, {"name": "LaPlace", "lat": 30.066003, "lon": -90.486027, "proficiency": 0.35, "schoolCount": 1}, {"name": "Laplace", "lat": 30.055979, "lon": -90.477103, "proficiency": 0.32, "schoolCount": 1}, {"name": "Eunice", "lat": 30.490102, "lon": -92.423463, "proficiency": 0.38, "schoolCount": 1}, {"name": "Leonville", "lat": 30.475211, "lon": -91.979647, "proficiency": 0.62, "schoolCount": 1}, {"name": "Sunset", "lat": 30.404158, "lon": -92.066481, "proficiency": 0.35, "schoolCount": 1}, {"name": "Arnaudville", "lat": 30.398276, "lon": -91.935197, "proficiency": 0.52, "schoolCount": 1}, {"name": "Opelousas", "lat": 30.522523, "lon": -92.072816, "proficiency": 0.68, "schoolCount": 1}, {"name": "Mandeville", "lat": 30.370356666666666, "lon": -90.04007, "proficiency": 0.5333, "schoolCount": 3}, {"name": "Ponchatoula", "lat": 30.45495, "lon": -90.38065, "proficiency": 0.445, "schoolCount": 2}, {"name": "Hammond", "lat": 30.5152605, "lon": -90.4256805, "proficiency": 0.5, "schoolCount": 2}, {"name": "Loranger", "lat": 30.6397, "lon": -90.4009, "proficiency": 0.23, "schoolCount": 1}, {"name": "Houma", "lat": 29.602609666666666, "lon": -90.729261, "proficiency": 0.35, "schoolCount": 3}, {"name": "Chauvin", "lat": 29.4578, "lon": -90.59, "proficiency": 0.5, "schoolCount": 1}, {"name": "Montegut", "lat": 29.4815, "lon": -90.5498, "proficiency": 0.49, "schoolCount": 1}, {"name": "Abbeville", "lat": 29.863, "lon": -92.2654, "proficiency": 0.77, "schoolCount": 1}, {"name": "Kaplan", "lat": 30.003623, "lon": -92.283904, "proficiency": 0.36, "schoolCount": 1}, {"name": "Erath", "lat": 29.9533, "lon": -92.0358, "proficiency": 0.58, "schoolCount": 1}, {"name": "Maurice", "lat": 30.079916, "lon": -92.168366, "proficiency": 0.53, "schoolCount": 1}, {"name": "Anacoco", "lat": 31.2525, "lon": -93.3385, "proficiency": 0.63, "schoolCount": 1}, {"name": "Evans", "lat": 30.98931, "lon": -93.50144, "proficiency": 0.55, "schoolCount": 1}, {"name": "Leesville", "lat": 31.03883, "lon": -93.27084, "proficiency": 0.29, "schoolCount": 1}, {"name": "Pitkin", "lat": 30.93687, "lon": -92.93336, "proficiency": 0.52, "schoolCount": 1}, {"name": "Rosepine", "lat": 30.92716, "lon": -93.28602, "proficiency": 0.71, "schoolCount": 1}, {"name": "Simpson", "lat": 31.26184, "lon": -93.0097, "proficiency": 0.7, "schoolCount": 1}, {"name": "Franklinton", "lat": 30.92503, "lon": -90.01501, "proficiency": 0.4, "schoolCount": 1}, {"name": "Minden", "lat": 32.6115, "lon": -93.2725, "proficiency": 0.5, "schoolCount": 1}, {"name": "Brusly", "lat": 30.39312, "lon": -91.23882, "proficiency": 0.51, "schoolCount": 1}, {"name": "Oak Grove", "lat": 32.86017, "lon": -91.39479, "proficiency": 0.39, "schoolCount": 1}, {"name": "Calvin", "lat": 31.96806, "lon": -92.77529, "proficiency": 0.47, "schoolCount": 1}, {"name": "Winnfield", "lat": 31.9471, "lon": -92.6585, "proficiency": 0.47, "schoolCount": 1}, {"name": "Bogalusa", "lat": 30.804244, "lon": -89.858059, "proficiency": 0.14, "schoolCount": 1}, {"name": "Zachary", "lat": 30.6547, "lon": -91.1535, "proficiency": 0.5, "schoolCount": 1}, {"name": "Central", "lat": 30.56437, "lon": -91.03929, "proficiency": 0.33, "schoolCount": 1}, {"name": "Franklin", "lat": 29.811037, "lon": -91.667122, "proficiency": 0.46, "schoolCount": 1}, {"name": "Mansura", "lat": 31.07075, "lon": -92.0527695, "proficiency": 0.43, "schoolCount": 2}, {"name": "Farmerville", "lat": 32.742638, "lon": -92.430682, "proficiency": 0.82, "schoolCount": 1}, {"name": "Baker", "lat": 30.58217, "lon": -91.128447, "proficiency": 0.37, "schoolCount": 1}, {"name": "Youngsville", "lat": 30.095844, "lon": -92.005819, "proficiency": 0.75, "schoolCount": 1}]}