{"state": "MA", "stateName": "Massachusetts", "year": 2020, "naep": {"text": "7 out of 10", "numerator": 7, "denominator": 10}, "schools": [{"name": "Quabbin Regional Middle School", "lat": 42.400522, "lon": -72.114976, "proficiency": 0.32, "district": "Quabbin", "city": "Barre", "ncessch": "250000102003"}, {"name": "Knox Trail Middle School", "lat": 42.24149, "lon": -71.98406, "proficiency": 0.075, "district": "Spencer-E Brookfield", "city": "Spencer", "ncessch": "250000200639"}, {"name": "Southwick Regional School", "lat": 42.060569, "lon": -72.747146, "proficiency": 0.22, "district": "Southwick-Tolland-Granville Regional School District", "city": "Southwick", "ncessch": "250001301782"}, {"name": "Academy Of the Pacific Rim Charter Public School", "lat": 42.244384, "lon": -71.132363, "proficiency": 0.12, "district": "Academy Of the Pacific Rim Charter Public (District)", "city": "Hyde Park", "ncessch": "250002100511"}, {"name": "Cape Cod Lighthouse Charter School", "lat": 41.711505, "lon": -70.024331, "proficiency": 0.32, "district": "Cape Cod Lighthouse Charter (District)", "city": "East Harwich", "ncessch": "250002400516"}, {"name": "Innovation Academy Charter School", "lat": 42.659004, "lon": -71.408283, "proficiency": 0.32, "district": "Innovation Academy Charter (District)", "city": "Tyngsboro", "ncessch": "250002500524"}, {"name": "Community Day Charter Public School", "lat": 42.711195, "lon": -71.149251, "proficiency": 0.445, "district": "Community Day Charter Public School (District)", "city": "Lawrence", "ncessch": "250002700535"}, {"name": "Springfield International Charter School", "lat": 42.125526, "lon": -72.484384, "proficiency": 0.075, "district": "Springfield International Charter (District)", "city": "Springfield", "ncessch": "250002800537"}, {"name": "Neighborhood House Charter School", "lat": 42.293365, "lon": -71.053553, "proficiency": 0.17, "district": "Neighborhood House Charter (District)", "city": "Dorchester", "ncessch": "250002900545"}, {"name": "Benjamin Franklin Classical Charter Public School", "lat": 42.05868, "lon": -71.421026, "proficiency": 0.445, "district": "Benjamin Franklin Classical Charter Public (District)", "city": "Franklin", "ncessch": "250003000547"}, {"name": "Hilltown Cooperative Charter Public School", "lat": 42.286671, "lon": -72.660132, "proficiency": 0.495, "district": "Hilltown Cooperative Charter Public (District)", "city": "Easthampton", "ncessch": "250003100549"}, {"name": "Lawrence Family Development Charter School", "lat": 42.708537, "lon": -71.173638, "proficiency": 0.22, "district": "Lawrence Family Development Charter (District)", "city": "Lawrence", "ncessch": "250003200553"}, {"name": "Marblehead Community Charter Public School", "lat": 42.508593, "lon": -70.853273, "proficiency": 0.495, "district": "Marblehead Community Charter Public (District)", "city": "Marblehead", "ncessch": "250003400567"}, {"name": "Martha's Vineyard Charter Public School", "lat": 41.419303, "lon": -70.664466, "proficiency": 0.245, "district": "Martha's Vineyard Charter Public School (District)", "city": "West Tisbury", "ncessch": "250003500569"}, {"name": "Francis W. Parker Charter Essential School", "lat": 42.548649, "lon": -71.606549, "proficiency": 0.32, "district": "Francis W. Parker Charter Essential (District)", "city": "Devens", "ncessch": "250003800581"}, {"name": "South Shore Charter Public School", "lat": 42.156729, "lon": -70.881198, "proficiency": 0.17, "district": "South Shore Charter Public (District)", "city": "Norwell", "ncessch": "250004000600"}, {"name": "Atlantis Charter School", "lat": 41.670113, "lon": -71.1437, "proficiency": 0.37, "district": "Atlantis Charter (District)", "city": "Fall River", "ncessch": "250004100601"}, {"name": "West Tisbury Elementary", "lat": 41.40327, "lon": -70.662033, "proficiency": 0.545, "district": "Up-Island Regional", "city": "West Tisbury", "ncessch": "250004301927"}, {"name": "Pioneer Valley Performing Arts Charter Public School", "lat": 42.24129, "lon": -72.59941, "proficiency": 0.17, "district": "Pioneer Valley Performing Arts Charter Public (District)", "city": "South Hadley", "ncessch": "250004400816"}, {"name": "Learning First Charter Public School", "lat": 42.251166, "lon": -71.797712, "proficiency": 0.22, "district": "Learning First Charter Public School  (District)", "city": "Worcester", "ncessch": "250004500817"}, {"name": "Prospect Hill Academy Charter School", "lat": 42.367515, "lon": -71.100874, "proficiency": 0.12, "district": "Prospect Hill Academy Charter (District)", "city": "Cambridge", "ncessch": "250004600819"}, {"name": "Abby Kelley Foster Charter Public School", "lat": 42.305635, "lon": -71.801599, "proficiency": 0.27, "district": "Abby Kelley Foster Charter Public (District)", "city": "Worcester", "ncessch": "250005101247"}, {"name": "Foxborough Regional Charter School", "lat": 42.057287, "lon": -71.244753, "proficiency": 0.27, "district": "Foxborough Regional Charter (District)", "city": "Foxborough", "ncessch": "250005201250"}, {"name": "Boston Collegiate Charter School", "lat": 42.321724, "lon": -71.060802, "proficiency": 0.17, "district": "Boston Collegiate Charter (District)", "city": "Dorchester", "ncessch": "250005301256"}, {"name": "Mystic Valley Regional Charter School", "lat": 42.43493, "lon": -71.044171, "proficiency": 0.47, "district": "Mystic Valley Regional Charter (District)", "city": "Malden", "ncessch": "250005501260"}, {"name": "Rising Tide Charter Public School", "lat": 41.957336, "lon": -70.696781, "proficiency": 0.27, "district": "Rising Tide Charter Public (District)", "city": "Plymouth", "ncessch": "250005701271"}, {"name": "Conservatory Lab Charter School", "lat": 42.311391, "lon": -71.069476, "proficiency": 0.3, "district": "Conservatory Lab Charter (District)", "city": "Dorchester", "ncessch": "250006001439"}, {"name": "River Valley Charter School", "lat": 42.807224, "lon": -70.886686, "proficiency": 0.495, "district": "River Valley Charter (District)", "city": "Newburyport", "ncessch": "250006201446"}, {"name": "Roxbury Preparatory Charter School", "lat": 42.327624, "lon": -71.105146, "proficiency": 0.075, "district": "Roxbury Preparatory Charter (District)", "city": "Roxbury", "ncessch": "250006301453"}, {"name": "Lowell Community Charter Public School", "lat": 42.641347, "lon": -71.312117, "proficiency": 0.52, "district": "Lowell Community Charter Public (District)", "city": "Lowell", "ncessch": "250006501585"}, {"name": "MATCH Charter Public School", "lat": 42.352098, "lon": -71.121004, "proficiency": 0.17, "district": "MATCH Charter Public School (District)", "city": "Boston", "ncessch": "250006601586"}, {"name": "Manchester Essex Regional Middle School", "lat": 42.582396, "lon": -70.765846, "proficiency": 0.47, "district": "Manchester Essex Regional", "city": "Manchester", "ncessch": "250006702653"}, {"name": "Christa McAuliffe Charter School", "lat": 42.30813, "lon": -71.394882, "proficiency": 0.32, "district": "Christa McAuliffe Charter School (District)", "city": "Framingham", "ncessch": "250006801746"}, {"name": "Codman Academy Charter Public School", "lat": 42.289796, "lon": -71.071261, "proficiency": 0.1, "district": "Codman Academy Charter Public (District)", "city": "Dorchester", "ncessch": "250007001667"}, {"name": "Brooke Charter School", "lat": 42.28193, "lon": -71.122109, "proficiency": 0.42, "district": "Brooke Charter School (District)", "city": "Roslindale", "ncessch": "250007101747"}, {"name": "Sizer School: A North Central Charter Essential School", "lat": 42.602342, "lon": -71.802521, "proficiency": 0.075, "district": "Sizer School: A North Central Charter Essential (District)", "city": "Fitchburg", "ncessch": "250007301750"}, {"name": "Excel Academy Charter School", "lat": 42.382943, "lon": -71.018958, "proficiency": 0.17, "district": "Excel Academy Charter (District)", "city": "East Boston", "ncessch": "250007502084"}, {"name": "Four Rivers Charter Public School", "lat": 42.59655, "lon": -72.621777, "proficiency": 0.1, "district": "Four Rivers Charter Public (District)", "city": "Greenfield", "ncessch": "250007602086"}, {"name": "Helen Y. Davis Leadership Academy Charter Public School", "lat": 42.3013, "lon": -71.0588, "proficiency": 0.22, "district": "Helen Y. Davis Leadership Academy Charter Public (District)", "city": "Boston", "ncessch": "250007702091"}, {"name": "Berkshire Arts and Technology Charter Public School", "lat": 42.619554, "lon": -73.12117, "proficiency": 0.22, "district": "Berkshire Arts and Technology Charter Public (District)", "city": "Adams", "ncessch": "250007901842"}, {"name": "Boston Preparatory Charter Public School", "lat": 42.262177, "lon": -71.110433, "proficiency": 0.12, "district": "Boston Preparatory Charter Public (District)", "city": "Hyde Park", "ncessch": "250008001843"}, {"name": "KIPP Academy Lynn Charter School", "lat": 42.467758, "lon": -70.949409, "proficiency": 0.3, "district": "KIPP Academy Lynn Charter (District)", "city": "Lynn", "ncessch": "250008201845"}, {"name": "Hill View Montessori Charter Public School", "lat": 42.766253, "lon": -71.119835, "proficiency": 0.05, "district": "Hill View Montessori Charter Public (District)", "city": "Haverhill", "ncessch": "250008301846"}, {"name": "Salem Academy Charter School", "lat": 42.517675, "lon": -70.887931, "proficiency": 0.32, "district": "Salem Academy Charter (District)", "city": "Salem", "ncessch": "250008401847"}, {"name": "Advanced Math and Science Academy Charter School", "lat": 42.333658, "lon": -71.577779, "proficiency": 0.37, "district": "Advanced Math and Science Academy Charter (District)", "city": "Marlborough", "ncessch": "250008501984"}, {"name": "Community Charter School of Cambridge", "lat": 42.367725, "lon": -71.085231, "proficiency": 0.32, "district": "Community Charter School of Cambridge (District)", "city": "Cambridge", "ncessch": "250008601996"}, {"name": "Holyoke Community Charter School", "lat": 42.18584, "lon": -72.628668, "proficiency": 0.17, "district": "Holyoke Community Charter (District)", "city": "Holyoke", "ncessch": "250008701997"}, {"name": "Pioneer Valley Chinese Immersion Charter School", "lat": 42.352984, "lon": -72.558161, "proficiency": 0.545, "district": "Pioneer Valley Chinese Immersion Charter (District)", "city": "Hadley", "ncessch": "250051702619"}, {"name": "Pioneer Charter School of Science", "lat": 42.408071, "lon": -71.051077, "proficiency": 0.745, "district": "Pioneer Charter School of Science (District)", "city": "Everett", "ncessch": "250051802632"}, {"name": "Global Learning Charter Public School", "lat": 41.660053, "lon": -70.929282, "proficiency": 0.12, "district": "Global Learning Charter Public (District)", "city": "New Bedford", "ncessch": "250051902629"}, {"name": "Hampden Charter School of Science East", "lat": 42.19709, "lon": -72.563194, "proficiency": 0.27, "district": "Hampden Charter School of Science East (District)", "city": "Chicopee", "ncessch": "250052202680"}, {"name": "Alma del Mar Charter School", "lat": 41.665531, "lon": -70.923108, "proficiency": 0.15, "district": "Alma del Mar Charter School (District)", "city": "New Bedford", "ncessch": "250052502708"}, {"name": "Boston Green Academy Horace Mann Charter School", "lat": 42.350353, "lon": -71.145895, "proficiency": 0.05, "district": "Boston Green Academy Horace Mann Charter School (District)", "city": "Brighton", "ncessch": "250052602703"}, {"name": "Bridge Boston Charter School", "lat": 42.316841, "lon": -71.083254, "proficiency": 0.1, "district": "Bridge Boston Charter School (District)", "city": "Roxbury", "ncessch": "250052702710"}, {"name": "UP Academy Charter School of Boston", "lat": 42.333615, "lon": -71.050763, "proficiency": 0.12, "district": "UP Academy Charter School of Boston (District)", "city": "South Boston", "ncessch": "250053302713"}, {"name": "Community Day Charter Public School - R. Kingman Webster", "lat": 42.690909, "lon": -71.155873, "proficiency": 0.545, "district": "Community Day Charter Public School - R. Kingman Webster (Di", "city": "Lawrence", "ncessch": "250053502719"}, {"name": "Veritas Preparatory Charter School", "lat": 42.094324, "lon": -72.574907, "proficiency": 0.37, "district": "Veritas Preparatory Charter School (District)", "city": "Springfield", "ncessch": "250053602714"}, {"name": "KIPP Academy Boston Charter School", "lat": 42.274575, "lon": -71.092442, "proficiency": 0.15, "district": "KIPP Academy Boston Charter School (District)", "city": "Mattapan", "ncessch": "250053702716"}, {"name": "Community Day Charter Public School - Gateway", "lat": 42.712677, "lon": -71.144901, "proficiency": 0.545, "district": "Community Day Charter Public School - Gateway (District)", "city": "Lawrence", "ncessch": "250053802717"}, {"name": "Ayer Shirley Regional Middle School", "lat": 42.546083, "lon": -71.639291, "proficiency": 0.22, "district": "Ayer Shirley School District", "city": "Shirley", "ncessch": "250054202737"}, {"name": "Monomoy Regional High School", "lat": 41.689968, "lon": -70.066924, "proficiency": 0.37, "district": "Monomoy Regional School District", "city": "Harwich", "ncessch": "250054402836"}, {"name": "Collegiate Charter School of Lowell", "lat": 42.636756, "lon": -71.359121, "proficiency": 0.32, "district": "Collegiate Charter School of Lowell (District)", "city": "Lowell", "ncessch": "250054502785"}, {"name": "Pioneer Charter School of Science II (PCSS-II)", "lat": 42.465301, "lon": -71.018412, "proficiency": 0.42, "district": "Pioneer Charter School of Science II (District)", "city": "Saugus", "ncessch": "250054602780"}, {"name": "UP Academy Charter School of Dorchester", "lat": 42.299787, "lon": -71.070967, "proficiency": 0.025, "district": "UP Academy Charter School of Dorchester (District)", "city": "Boston", "ncessch": "250054902783"}, {"name": "Baystate Academy Charter Public School", "lat": 42.134936, "lon": -72.545393, "proficiency": 0.025, "district": "Baystate Academy Charter Public School (District)", "city": "Springfield", "ncessch": "250055002784"}, {"name": "Greater Commonwealth Virtual School", "lat": 42.58823, "lon": -72.602291, "proficiency": 0.27, "district": "Greater Commonwealth Virtual District", "city": "Greenfield", "ncessch": "250055102808"}, {"name": "Argosy Collegiate Charter School", "lat": 41.688684, "lon": -71.161589, "proficiency": 0.17, "district": "Argosy Collegiate Charter School (District)", "city": "Fall River", "ncessch": "250055202827"}, {"name": "TEC Connections Academy Commonwealth Virtual School", "lat": 42.164095, "lon": -71.220644, "proficiency": 0.27, "district": "TEC Connections Academy Commonwealth Virtual School District", "city": "East Walpole", "ncessch": "250055602817"}, {"name": "New Heights Charter School of Brockton", "lat": 42.051907, "lon": -71.010729, "proficiency": 0.12, "district": "New Heights Charter School of Brockton (District)", "city": "Brockton", "ncessch": "250055902869"}, {"name": "Libertas Academy Charter School", "lat": 42.105537, "lon": -72.589495, "proficiency": 0.17, "district": "Libertas Academy Charter School (District)", "city": "Springfield", "ncessch": "250058602878"}, {"name": "Hampden Charter School of Science West", "lat": 42.102932, "lon": -72.60878, "proficiency": 0.22, "district": "Hampden Charter School of Science West (District)", "city": "West Springfield", "ncessch": "250058802888"}, {"name": "Abington Middle School", "lat": 42.119058, "lon": -70.954519, "proficiency": 0.17, "district": "Abington", "city": "Abington", "ncessch": "250165000002"}, {"name": "Raymond J Grey Junior High", "lat": 42.477002, "lon": -71.457641, "proficiency": 0.78, "district": "Acton-Boxborough", "city": "Acton", "ncessch": "250171000013"}, {"name": "Albert F Ford Middle School", "lat": 41.723346, "lon": -70.905145, "proficiency": 0.32, "district": "Acushnet", "city": "Acushnet", "ncessch": "250174000015"}, {"name": "Hoosac Valley High School", "lat": 42.594074, "lon": -73.115223, "proficiency": 0.12, "district": "Hoosac Valley Regional", "city": "Cheshire", "ncessch": "250178000021"}, {"name": "Agawam Junior High", "lat": 42.063976, "lon": -72.673853, "proficiency": 0.37, "district": "Agawam", "city": "Feeding Hills", "ncessch": "250180000025"}, {"name": "Amesbury Middle", "lat": 42.848845, "lon": -70.929489, "proficiency": 0.32, "district": "Amesbury", "city": "Amesbury", "ncessch": "250186000035"}, {"name": "Amherst Regional Middle School", "lat": 42.384218, "lon": -72.510419, "proficiency": 0.445, "district": "Amherst-Pelham", "city": "Amherst", "ncessch": "250192000043"}, {"name": "Wood Hill Middle School", "lat": 42.665168, "lon": -71.213285, "proficiency": 0.62, "district": "Andover", "city": "Andover", "ncessch": "250195001678"}, {"name": "Doherty Middle", "lat": 42.654395, "lon": -71.13596, "proficiency": 0.52, "district": "Andover", "city": "Andover", "ncessch": "250195002510"}, {"name": "Andover West Middle", "lat": 42.658797, "lon": -71.151954, "proficiency": 0.62, "district": "Andover", "city": "Andover", "ncessch": "250195002511"}, {"name": "Ottoson Middle", "lat": 42.421276, "lon": -71.175266, "proficiency": 0.65, "district": "Arlington", "city": "Arlington", "ncessch": "250198000063"}, {"name": "Overlook Middle School", "lat": 42.602873, "lon": -71.926083, "proficiency": 0.37, "district": "Ashburnham-Westminster", "city": "Ashburnham", "ncessch": "250204000831"}, {"name": "Ashland Middle", "lat": 42.25135, "lon": -71.47454, "proficiency": 0.47, "district": "Ashland", "city": "Ashland", "ncessch": "250210000938"}, {"name": "Athol-Royalston Middle School", "lat": 42.573104, "lon": -72.211104, "proficiency": 0.27, "district": "Athol-Royalston", "city": "Athol", "ncessch": "250216000176"}, {"name": "Cyril K. Brennan Middle School", "lat": 41.937687, "lon": -71.308019, "proficiency": 0.22, "district": "Attleboro", "city": "Attleboro", "ncessch": "250219000087"}, {"name": "Robert J. Coelho Middle School", "lat": 41.909947, "lon": -71.368672, "proficiency": 0.32, "district": "Attleboro", "city": "Attleboro", "ncessch": "250219000096"}, {"name": "Wamsutta Middle School", "lat": 41.913413, "lon": -71.280676, "proficiency": 0.42, "district": "Attleboro", "city": "Attleboro", "ncessch": "250219000945"}, {"name": "Auburn Middle", "lat": 42.183779, "lon": -71.869576, "proficiency": 0.42, "district": "Auburn", "city": "Auburn", "ncessch": "250222002567"}, {"name": "Avon Middle High School", "lat": 42.129677, "lon": -71.043032, "proficiency": 0.345, "district": "Avon", "city": "Avon", "ncessch": "250225001295"}, {"name": "Barnstable High", "lat": 41.654603, "lon": -70.320358, "proficiency": 0.16, "district": "Barnstable", "city": "Hyannis", "ncessch": "250231000116"}, {"name": "John Glenn Middle", "lat": 42.4883, "lon": -71.28612, "proficiency": 0.62, "district": "Bedford", "city": "Bedford", "ncessch": "250240000130"}, {"name": "Jabish Middle School", "lat": 42.267451, "lon": -72.399305, "proficiency": 0.32, "district": "Belchertown", "city": "Belchertown", "ncessch": "250243001873"}, {"name": "Bellingham High School", "lat": 42.07498, "lon": -71.4691, "proficiency": 0.17, "district": "Bellingham", "city": "Bellingham", "ncessch": "250246000139"}, {"name": "Keough Memorial Academy", "lat": 42.032897, "lon": -71.490305, "proficiency": -0.03, "district": "Bellingham", "city": "Bellingham", "ncessch": "250246002543"}, {"name": "Winthrop L Chenery Middle", "lat": 42.386119, "lon": -71.170911, "proficiency": 0.59, "district": "Belmont", "city": "Belmont", "ncessch": "250249000149"}, {"name": "Berkley Middle School", "lat": 41.848295, "lon": -71.086556, "proficiency": 0.37, "district": "Berkley", "city": "Berkley", "ncessch": "250252001613"}, {"name": "W.E.B. Du Bois Regional Middle School", "lat": 42.245458, "lon": -73.330991, "proficiency": 0.22, "district": "Berkshire Hills", "city": "Great Barrington", "ncessch": "250253002000"}, {"name": "Tahanto Regional High", "lat": 42.372469, "lon": -71.719192, "proficiency": 0.37, "district": "Berlin-Boylston", "city": "Boylston", "ncessch": "250258000160"}, {"name": "Beverly Middle School", "lat": 42.56491, "lon": -70.887741, "proficiency": 0.3, "district": "Beverly", "city": "Beverly", "ncessch": "250264000165"}, {"name": "Billerica Memorial High School", "lat": 42.56196, "lon": -71.273371, "proficiency": 0.16, "district": "Billerica", "city": "Billerica", "ncessch": "250267000177"}, {"name": "Frederick W. Hartnett Middle School", "lat": 42.02243, "lon": -71.52918, "proficiency": 0.32, "district": "Blackstone-Millville", "city": "Blackstone", "ncessch": "250271501082"}, {"name": "Boston Latin School", "lat": 42.337819, "lon": -71.101493, "proficiency": 0.66, "district": "Boston", "city": "Boston", "ncessch": "250279000203"}, {"name": "Boston Latin Academy", "lat": 42.316113, "lon": -71.084459, "proficiency": 0.37, "district": "Boston", "city": "Dorchester", "ncessch": "250279000204"}, {"name": "O'Bryant School of Math & Science", "lat": 42.331358, "lon": -71.088923, "proficiency": 0.72, "district": "Boston", "city": "Roxbury", "ncessch": "250279000205"}, {"name": "Carter School", "lat": 42.340556, "lon": -71.084065, "proficiency": -0.03, "district": "Boston", "city": "Dorchester", "ncessch": "250279000210"}, {"name": "Dearborn 6-12 STEM Academy", "lat": 42.326458, "lon": -71.080826, "proficiency": 0.025, "district": "Boston", "city": "Roxbury", "ncessch": "250279000222"}, {"name": "Haley Pilot School", "lat": 42.286598, "lon": -71.107482, "proficiency": 0.05, "district": "Boston", "city": "Roslindale", "ncessch": "250279000223"}, {"name": "McKay K-8 School", "lat": 42.369185, "lon": -71.034242, "proficiency": 0.12, "district": "Boston", "city": "East Boston", "ncessch": "250279000224"}, {"name": "Eliot K-8 Innovation School", "lat": 42.366137, "lon": -71.05343, "proficiency": 0.445, "district": "Boston", "city": "Boston", "ncessch": "250279000230"}, {"name": "Roosevelt K-8 School", "lat": 42.243207, "lon": -71.124244, "proficiency": 0.245, "district": "Boston", "city": "Hyde Park", "ncessch": "250279000239"}, {"name": "Jackson Mann", "lat": 42.352795, "lon": -71.137633, "proficiency": 0.05, "district": "Boston", "city": "Allston", "ncessch": "250279000251"}, {"name": "Condon K-8 School", "lat": 42.338158, "lon": -71.052923, "proficiency": 0.075, "district": "Boston", "city": "South Boston", "ncessch": "250279000254"}, {"name": "James P Timilty Middle", "lat": 42.330669, "lon": -71.091171, "proficiency": 0.025, "district": "Boston", "city": "Roxbury", "ncessch": "250279000258"}, {"name": "Hennigan K-8 School", "lat": 42.325918, "lon": -71.106639, "proficiency": 0.075, "district": "Boston", "city": "Jamaica Plain", "ncessch": "250279000259"}, {"name": "Hurley K-8 School", "lat": 42.339033, "lon": -71.077862, "proficiency": 0.1, "district": "Boston", "city": "Boston", "ncessch": "250279000272"}, {"name": "Lee K-8 School", "lat": 42.292244, "lon": -71.079963, "proficiency": 0.05, "district": "Boston", "city": "Dorchester", "ncessch": "250279000273"}, {"name": "Kilmer K-8 School", "lat": 42.271894, "lon": -71.162628, "proficiency": 0.1, "district": "Boston", "city": "West Roxbury", "ncessch": "250279000278"}, {"name": "Tobin K-8 School", "lat": 42.332988, "lon": -71.098446, "proficiency": 0.05, "district": "Boston", "city": "Roxbury", "ncessch": "250279000291"}, {"name": "Perry Elementary School", "lat": 42.332111, "lon": -71.030239, "proficiency": 0.245, "district": "Boston", "city": "South Boston", "ncessch": "250279000297"}, {"name": "Hernandez K-8 School", "lat": 42.313857, "lon": -71.098009, "proficiency": 0.1, "district": "Boston", "city": "Roxbury", "ncessch": "250279000312"}, {"name": "Murphy K-8 School", "lat": 42.294022, "lon": -71.049, "proficiency": 0.22, "district": "Boston", "city": "Dorchester", "ncessch": "250279000315"}, {"name": "Greenwood Sarah K-8 School", "lat": 42.29695, "lon": -71.080211, "proficiency": 0.1, "district": "Boston", "city": "Dorchester", "ncessch": "250279000323"}, {"name": "Gardner Pilot Academy", "lat": 42.360715, "lon": -71.134091, "proficiency": 0.05, "district": "Boston", "city": "Allston", "ncessch": "250279000331"}, {"name": "Warren-Prescott K-8 School", "lat": 42.378049, "lon": -71.064433, "proficiency": 0.3, "district": "Boston", "city": "Charlestown", "ncessch": "250279000333"}, {"name": "Washington Irving Middle", "lat": 42.283586, "lon": -71.124979, "proficiency": 0.075, "district": "Boston", "city": "Roslindale", "ncessch": "250279000334"}, {"name": "Ohrenberger School", "lat": 42.260498, "lon": -71.14918, "proficiency": 0.12, "district": "Boston", "city": "West Roxbury", "ncessch": "250279000339"}, {"name": "McKinley Schools", "lat": 42.344399, "lon": -71.073364, "proficiency": 0.1, "district": "Boston", "city": "Boston", "ncessch": "250279000342"}, {"name": "Trotter Elementary School", "lat": 42.31571, "lon": -71.087889, "proficiency": 0.3, "district": "Boston", "city": "Dorchester", "ncessch": "250279000343"}, {"name": "Lyndon K-8 School", "lat": 42.282953, "lon": -71.158517, "proficiency": 0.1, "district": "Boston", "city": "West Roxbury", "ncessch": "250279000692"}, {"name": "Young Achievers K-8 School", "lat": 42.28227, "lon": -71.095014, "proficiency": 0.05, "district": "Boston", "city": "Mattapan", "ncessch": "250279000693"}, {"name": "New Mission High School", "lat": 42.262966, "lon": -71.117887, "proficiency": 0.05, "district": "Boston", "city": "Hyde Park", "ncessch": "250279000704"}, {"name": "Mission Hill School", "lat": 42.307506, "lon": -71.114359, "proficiency": 0.1, "district": "Boston", "city": "Jamaica Plain", "ncessch": "250279000946"}, {"name": "Henderson K-12 Inclusion School Upper", "lat": 42.281275, "lon": -71.069596, "proficiency": 0.12, "district": "Boston", "city": "Dorchester", "ncessch": "250279000952"}, {"name": "Quincy Upper School", "lat": 42.348369, "lon": -71.06893, "proficiency": 0.075, "district": "Boston", "city": "Boston", "ncessch": "250279001296"}, {"name": "Orchard Gardens K-8 School", "lat": 42.33048, "lon": -71.077399, "proficiency": 0.075, "district": "Boston", "city": "Roxbury", "ncessch": "250279002006"}, {"name": "Frederick Pilot Middle School", "lat": 42.30904, "lon": -71.0753, "proficiency": 0.025, "district": "Boston", "city": "Dorchester", "ncessch": "250279002013"}, {"name": "Horace Mann School for the Deaf Hard of Hearing", "lat": 42.352795, "lon": -71.137633, "proficiency": 0.245, "district": "Boston", "city": "Allston", "ncessch": "250279002374"}, {"name": "Lyon K-8 School", "lat": 42.351033, "lon": -71.161516, "proficiency": 0.1, "district": "Boston", "city": "Brighton", "ncessch": "250279002458"}, {"name": "Curley K-8 School", "lat": 42.318547, "lon": -71.113053, "proficiency": 0.025, "district": "Boston", "city": "Jamaica Plain", "ncessch": "250279002622"}, {"name": "King Elementary School", "lat": 42.311098, "lon": -71.076424, "proficiency": 0.495, "district": "Boston", "city": "Dorchester", "ncessch": "250279002669"}, {"name": "Mildred Avenue K-8 School", "lat": 42.276108, "lon": -71.091333, "proficiency": 0.025, "district": "Boston", "city": "Mattapan", "ncessch": "250279002670"}, {"name": "Higginson-Lewis K-8 School", "lat": 42.32076, "lon": -71.086948, "proficiency": 0.05, "district": "Boston", "city": "Roxbury", "ncessch": "250279002677"}, {"name": "Boston Teachers Union K-8 Pilot", "lat": 42.294637, "lon": -71.115939, "proficiency": -0.03, "district": "Boston", "city": "Jamaica Plain", "ncessch": "250279002687"}, {"name": "Edison K-8 School", "lat": 42.345538, "lon": -71.160232, "proficiency": 0.15, "district": "Boston", "city": "Brighton", "ncessch": "250279002689"}, {"name": "Mario Umana Academy", "lat": 42.3784, "lon": -71.040683, "proficiency": 0.12, "district": "Boston", "city": "East Boston", "ncessch": "250279002721"}, {"name": "TechBoston Academy", "lat": 42.285248, "lon": -71.075837, "proficiency": 0.075, "district": "Boston", "city": "Dorchester", "ncessch": "250279002725"}, {"name": "Bourne Middle School", "lat": 41.73803, "lon": -70.589856, "proficiency": 0.27, "district": "Bourne", "city": "Bourne", "ncessch": "250282001517"}, {"name": "East Middle School", "lat": 42.21987, "lon": -70.987942, "proficiency": 0.52, "district": "Braintree", "city": "Braintree", "ncessch": "250294000364"}, {"name": "South Middle School", "lat": 42.184198, "lon": -70.997363, "proficiency": 0.47, "district": "Braintree", "city": "Braintree", "ncessch": "250294000372"}, {"name": "Raynham Middle School", "lat": 41.945946, "lon": -71.035824, "proficiency": 0.42, "district": "Bridgewater-Raynham", "city": "Raynham", "ncessch": "250303001674"}, {"name": "Bridgewater Middle School", "lat": 41.98934, "lon": -70.984257, "proficiency": 0.42, "district": "Bridgewater-Raynham", "city": "Bridgewater", "ncessch": "250303002659"}, {"name": "Therapeutic Day School", "lat": 41.989302, "lon": -70.984897, "proficiency": -0.03, "district": "Bridgewater-Raynham", "city": "Bridgewater", "ncessch": "250303002866"}, {"name": "East Middle School", "lat": 42.085783, "lon": -71.000963, "proficiency": 0.025, "district": "Brockton", "city": "Brockton", "ncessch": "250309000389"}, {"name": "Edgar B Davis", "lat": 42.05502, "lon": -70.99948, "proficiency": 0.17, "district": "Brockton", "city": "Brockton", "ncessch": "250309000390"}, {"name": "South Middle School", "lat": 42.060085, "lon": -71.020362, "proficiency": 0.075, "district": "Brockton", "city": "Brockton", "ncessch": "250309000407"}, {"name": "West Middle School", "lat": 42.079485, "lon": -71.045091, "proficiency": 0.12, "district": "Brockton", "city": "Brockton", "ncessch": "250309000410"}, {"name": "Frederick Douglass Academy", "lat": 42.082438, "lon": -71.023534, "proficiency": -0.03, "district": "Brockton", "city": "Brockton", "ncessch": "250309000966"}, {"name": "Huntington Therapeutic Day School", "lat": 42.062659, "lon": -71.019639, "proficiency": 0.245, "district": "Brockton", "city": "Brockton", "ncessch": "250309002544"}, {"name": "Ashfield Middle School", "lat": 42.103305, "lon": -70.995824, "proficiency": 0.22, "district": "Brockton", "city": "Brockton", "ncessch": "250309002688"}, {"name": "Plouffe Middle School", "lat": 42.080724, "lon": -71.012027, "proficiency": 0.17, "district": "Brockton", "city": "Brockton", "ncessch": "250309002691"}, {"name": "Edith C Baker", "lat": 42.302717, "lon": -71.158296, "proficiency": 0.72, "district": "Brookline", "city": "Chestnut Hill", "ncessch": "250315000416"}, {"name": "Florida Ruffin Ridley School", "lat": 42.344924, "lon": -71.123599, "proficiency": 0.57, "district": "Brookline", "city": "Brookline", "ncessch": "250315000417"}, {"name": "Heath", "lat": 42.32798, "lon": -71.148197, "proficiency": 0.745, "district": "Brookline", "city": "Chestnut Hill", "ncessch": "250315000418"}, {"name": "John D Runkle", "lat": 42.33388, "lon": -71.141915, "proficiency": 0.72, "district": "Brookline", "city": "Brookline", "ncessch": "250315000419"}, {"name": "Lawrence", "lat": 42.339159, "lon": -71.114199, "proficiency": 0.745, "district": "Brookline", "city": "Brookline", "ncessch": "250315000420"}, {"name": "Michael Driscoll", "lat": 42.340915, "lon": -71.136171, "proficiency": 0.845, "district": "Brookline", "city": "Brookline", "ncessch": "250315000421"}, {"name": "Pierce", "lat": 42.335151, "lon": -71.120772, "proficiency": 0.82, "district": "Brookline", "city": "Brookline", "ncessch": "250315000422"}, {"name": "William H Lincoln", "lat": 42.328638, "lon": -71.129473, "proficiency": 0.72, "district": "Brookline", "city": "Brookline", "ncessch": "250315000423"}, {"name": "Marshall Simonds Middle", "lat": 42.501449, "lon": -71.180931, "proficiency": 0.52, "district": "Burlington", "city": "Burlington", "ncessch": "250324000429"}, {"name": "Amigos School", "lat": 42.362992, "lon": -71.108252, "proficiency": 0.445, "district": "Cambridge", "city": "Cambridge", "ncessch": "250327001621"}, {"name": "Rindge Avenue Upper School", "lat": 42.39218, "lon": -71.128201, "proficiency": 0.47, "district": "Cambridge", "city": "Cambridge", "ncessch": "250327002746"}, {"name": "Vassal Lane Upper School", "lat": 42.369489, "lon": -71.08669, "proficiency": 0.47, "district": "Cambridge", "city": "Cambridge", "ncessch": "250327002756"}, {"name": "Cambridge Street Upper School", "lat": 42.372124, "lon": -71.091383, "proficiency": 0.3, "district": "Cambridge", "city": "Cambridge", "ncessch": "250327002759"}, {"name": "Putnam Avenue Upper School", "lat": 42.366971, "lon": -71.112862, "proficiency": 0.345, "district": "Cambridge", "city": "Cambridge", "ncessch": "250327002768"}, {"name": "Wm H Galvin Middle", "lat": 42.185788, "lon": -71.132052, "proficiency": 0.42, "district": "Canton", "city": "Canton", "ncessch": "250330000456"}, {"name": "Carlisle School", "lat": 42.526386, "lon": -71.349013, "proficiency": 0.72, "district": "Carlisle", "city": "Carlisle", "ncessch": "250333000457"}, {"name": "Carver Middle/High School", "lat": 41.893506, "lon": -70.755686, "proficiency": 0.27, "district": "Carver", "city": "Carver", "ncessch": "250336002662"}, {"name": "Nessacus Regional Middle School", "lat": 42.46822, "lon": -73.13862, "proficiency": 0.27, "district": "Central Berkshire", "city": "Dalton", "ncessch": "250339000466"}, {"name": "Col Moses Parker School", "lat": 42.619051, "lon": -71.382963, "proficiency": 0.37, "district": "Chelmsford", "city": "Chelmsford", "ncessch": "250351000476"}, {"name": "McCarthy Middle School", "lat": 42.618971, "lon": -71.36713, "proficiency": 0.32, "district": "Chelmsford", "city": "Chelmsford", "ncessch": "250351000478"}, {"name": "Clark Avenue School", "lat": 42.396042, "lon": -71.031099, "proficiency": 0.17, "district": "Chelsea", "city": "Chelsea", "ncessch": "250354001158"}, {"name": "Eugene Wright Science and Technology Academy", "lat": 42.3938, "lon": -71.036833, "proficiency": 0.12, "district": "Chelsea", "city": "Chelsea", "ncessch": "250354001772"}, {"name": "Joseph A. Browne School", "lat": 42.3938, "lon": -71.036833, "proficiency": 0.12, "district": "Chelsea", "city": "Chelsea", "ncessch": "250354001776"}, {"name": "Bellamy Middle", "lat": 42.190511, "lon": -72.587419, "proficiency": 0.12, "district": "Chicopee", "city": "Chicopee", "ncessch": "250366000491"}, {"name": "Chicopee Academy", "lat": 42.197649, "lon": -72.56138, "proficiency": 0.245, "district": "Chicopee", "city": "Chicopee", "ncessch": "250366000720"}, {"name": "Dupont Middle", "lat": 42.146927, "lon": -72.59227, "proficiency": 0.17, "district": "Chicopee", "city": "Chicopee", "ncessch": "250366000722"}, {"name": "Clarksburg Elementary", "lat": 42.718343, "lon": -73.103528, "proficiency": 0.1, "district": "Clarksburg", "city": "Clarksburg", "ncessch": "250372000510"}, {"name": "Clinton Middle School", "lat": 42.408692, "lon": -71.702251, "proficiency": 0.075, "district": "Clinton", "city": "Clinton", "ncessch": "250375000512"}, {"name": "Cohasset Middle School", "lat": 42.232307, "lon": -70.809113, "proficiency": 0.47, "district": "Cohasset", "city": "Cohasset", "ncessch": "250378002910"}, {"name": "Concord Middle", "lat": 42.440268, "lon": -71.395426, "proficiency": 0.47, "district": "Concord", "city": "Concord", "ncessch": "250384000522"}, {"name": "Holten Richmond Middle School", "lat": 42.567834, "lon": -70.929187, "proficiency": 0.22, "district": "Danvers", "city": "Danvers", "ncessch": "250399002517"}, {"name": "Dartmouth Middle", "lat": 41.626959, "lon": -70.964567, "proficiency": 0.37, "district": "Dartmouth", "city": "North Dartmouth", "ncessch": "250402000541"}, {"name": "Dedham Middle School", "lat": 42.244548, "lon": -71.166157, "proficiency": 0.37, "district": "Dedham", "city": "Dedham", "ncessch": "250405000551"}, {"name": "Dennis-Yarmouth Regional High", "lat": 41.677336, "lon": -70.194188, "proficiency": 0.32, "district": "Dennis-Yarmouth", "city": "South Yarmouth", "ncessch": "250414000558"}, {"name": "Dighton Middle School", "lat": 41.8351, "lon": -71.122579, "proficiency": 0.12, "district": "Dighton-Rehoboth", "city": "Dighton", "ncessch": "250420000400"}, {"name": "Dorothy L Beckwith", "lat": 41.847582, "lon": -71.255982, "proficiency": 0.27, "district": "Dighton-Rehoboth", "city": "Rehoboth", "ncessch": "250420002430"}, {"name": "Douglas Middle School", "lat": 42.070877, "lon": -71.705077, "proficiency": 0.27, "district": "Douglas", "city": "Douglas", "ncessch": "250423002788"}, {"name": "Dover-Sherborn Regional Middle School", "lat": 42.219744, "lon": -71.32332, "proficiency": 0.72, "district": "Dover-Sherborn", "city": "Dover", "ncessch": "250429000575"}, {"name": "Justus C. Richardson Middle School", "lat": 42.674917, "lon": -71.340195, "proficiency": 0.27, "district": "Dracut", "city": "Dracut", "ncessch": "250432001625"}, {"name": "Dudley Middle School", "lat": 42.055018, "lon": -71.914052, "proficiency": 0.27, "district": "Dudley-Charlton Reg", "city": "Dudley", "ncessch": "250436001595"}, {"name": "Charlton Middle School", "lat": 42.129848, "lon": -71.940094, "proficiency": 0.22, "district": "Dudley-Charlton Reg", "city": "Charlton", "ncessch": "250436001597"}, {"name": "Duxbury Middle", "lat": 42.045715, "lon": -70.678669, "proficiency": 0.47, "district": "Duxbury", "city": "Duxbury", "ncessch": "250441000975"}, {"name": "East Bridgewater JR./SR. High School", "lat": 42.027304, "lon": -70.957022, "proficiency": 0.27, "district": "East Bridgewater", "city": "East Bridgewater", "ncessch": "250444000597"}, {"name": "Birchland Park", "lat": 42.071291, "lon": -72.507974, "proficiency": 0.37, "district": "East Longmeadow", "city": "East Longmeadow", "ncessch": "250450000602"}, {"name": "Nauset Regional Middle", "lat": 41.784025, "lon": -69.988638, "proficiency": 0.27, "district": "Nauset", "city": "Orleans", "ncessch": "250456000609"}, {"name": "White Brook Middle School", "lat": 42.252919, "lon": -72.671692, "proficiency": 0.32, "district": "Easthampton", "city": "Easthampton", "ncessch": "250459000616"}, {"name": "Easton Middle School", "lat": 42.05863, "lon": -71.11159, "proficiency": 0.47, "district": "Easton", "city": "North Easton", "ncessch": "250462000618"}, {"name": "Oak Bluffs Elementary", "lat": 41.446514, "lon": -70.568771, "proficiency": 0.545, "district": "Oak Bluffs", "city": "Oak Bluffs", "ncessch": "250465000625"}, {"name": "Sumner G. Whittier School", "lat": 42.404056, "lon": -71.057878, "proficiency": 0.245, "district": "Everett", "city": "Everett", "ncessch": "250477000631"}, {"name": "Lafayette School", "lat": 42.421972, "lon": -71.051059, "proficiency": 0.22, "district": "Everett", "city": "Everett", "ncessch": "250477001520"}, {"name": "Parlin School", "lat": 42.410858, "lon": -71.050702, "proficiency": 0.12, "district": "Everett", "city": "Everett", "ncessch": "250477001521"}, {"name": "Madeline English School", "lat": 42.413552, "lon": -71.068935, "proficiency": 0.245, "district": "Everett", "city": "Everett", "ncessch": "250477002033"}, {"name": "George Keverian School", "lat": 42.408895, "lon": -71.044658, "proficiency": 0.22, "district": "Everett", "city": "Everett", "ncessch": "250477002038"}, {"name": "Devens School", "lat": 42.40839, "lon": -71.055743, "proficiency": -0.03, "district": "Everett", "city": "Everett", "ncessch": "250477002787"}, {"name": "Hastings Middle", "lat": 41.646915, "lon": -70.898112, "proficiency": 0.37, "district": "Fairhaven", "city": "Fairhaven", "ncessch": "250480002572"}, {"name": "Talbot Innovation School", "lat": 41.693364, "lon": -71.125282, "proficiency": 0.075, "district": "Fall River", "city": "Fall River", "ncessch": "250483000655"}, {"name": "John J Doran", "lat": 41.699945, "lon": -71.164835, "proficiency": 0.345, "district": "Fall River", "city": "Fall River", "ncessch": "250483000666"}, {"name": "Matthew J Kuss Middle", "lat": 41.69268, "lon": -71.18035, "proficiency": 0.32, "district": "Fall River", "city": "Fall River", "ncessch": "250483000671"}, {"name": "Morton Middle", "lat": 41.716269, "lon": -71.149444, "proficiency": 0.22, "district": "Fall River", "city": "Fall River", "ncessch": "250483000672"}, {"name": "Henry Lord Community School", "lat": 41.672727, "lon": -71.168872, "proficiency": 0.12, "district": "Fall River", "city": "Fall River", "ncessch": "250483002811"}, {"name": "Stone PK-12 School", "lat": 41.70866, "lon": -71.153141, "proficiency": 0.245, "district": "Fall River", "city": "Fall River", "ncessch": "250483002852"}, {"name": "Resiliency Preparatory Academy", "lat": 41.705563, "lon": -71.152256, "proficiency": 0.1, "district": "Fall River", "city": "Fall River", "ncessch": "250483002873"}, {"name": "Lawrence", "lat": 41.555501, "lon": -70.615615, "proficiency": 0.27, "district": "Falmouth", "city": "Falmouth", "ncessch": "250486000687"}, {"name": "Memorial Middle School", "lat": 42.571245, "lon": -71.811252, "proficiency": 0.27, "district": "Fitchburg", "city": "Fitchburg", "ncessch": "250489001523"}, {"name": "Arthur M Longsjo Middle School", "lat": 42.586426, "lon": -71.80038, "proficiency": 0.12, "district": "Fitchburg", "city": "Fitchburg", "ncessch": "250489002672"}, {"name": "McKay Elementary School", "lat": 42.59503, "lon": -71.789731, "proficiency": 0.05, "district": "Fitchburg", "city": "Fitchburg", "ncessch": "250489002775"}, {"name": "Abbott Memorial", "lat": 42.693107, "lon": -73.03766, "proficiency": 0.245, "district": "Florida", "city": "Florida", "ncessch": "250492000706"}, {"name": "John J Ahern", "lat": 42.070432, "lon": -71.239076, "proficiency": 0.37, "district": "Foxborough", "city": "Foxborough", "ncessch": "250495000709"}, {"name": "Fuller Middle", "lat": 42.293782, "lon": -71.416794, "proficiency": 0.075, "district": "Framingham", "city": "Framingham", "ncessch": "250498000464"}, {"name": "Walsh Middle", "lat": 42.322594, "lon": -71.42763, "proficiency": 0.42, "district": "Framingham", "city": "Framingham", "ncessch": "250498000733"}, {"name": "Cameron Middle School", "lat": 42.333218, "lon": -71.399843, "proficiency": 0.32, "district": "Framingham", "city": "Framingham", "ncessch": "250498001530"}, {"name": "Horace Mann", "lat": 42.091639, "lon": -71.405981, "proficiency": 0.37, "district": "Franklin", "city": "Franklin", "ncessch": "250501000738"}, {"name": "Remington Middle", "lat": 42.05273, "lon": -71.418221, "proficiency": 0.42, "district": "Franklin", "city": "Franklin", "ncessch": "250501000871"}, {"name": "Annie Sullivan Middle School", "lat": 42.109168, "lon": -71.397322, "proficiency": 0.42, "district": "Franklin", "city": "Franklin", "ncessch": "250501001785"}, {"name": "Freetown-Lakeville Middle School", "lat": 41.78962, "lon": -70.98612, "proficiency": 0.42, "district": "Freetown-Lakeville", "city": "Lakeville", "ncessch": "250507000748"}, {"name": "Frontier Regional", "lat": 42.483477, "lon": -72.605638, "proficiency": 0.37, "district": "Frontier", "city": "South Deerfield", "ncessch": "250510000749"}, {"name": "Gardner High", "lat": 42.58351, "lon": -71.97929, "proficiency": 0.075, "district": "Gardner", "city": "Gardner", "ncessch": "250513000751"}, {"name": "Gateway Regional Middle School", "lat": 42.251029, "lon": -72.870161, "proficiency": 0.15, "district": "Gateway", "city": "Huntington", "ncessch": "250516002667"}, {"name": "Georgetown Middle School", "lat": 42.724119, "lon": -70.986499, "proficiency": 0.12, "district": "Georgetown", "city": "Georgetown", "ncessch": "250522002764"}, {"name": "Great Falls Middle", "lat": 42.587467, "lon": -72.542768, "proficiency": 0.15, "district": "Gill-Montague", "city": "Montague", "ncessch": "250527002386"}, {"name": "Ralph B O'Maley Middle", "lat": 42.629752, "lon": -70.672321, "proficiency": 0.17, "district": "Gloucester", "city": "Gloucester", "ncessch": "250528000779"}, {"name": "Grafton Middle", "lat": 42.212343, "lon": -71.693838, "proficiency": 0.57, "district": "Grafton", "city": "Grafton", "ncessch": "250537002520"}, {"name": "Granby Jr Sr High School", "lat": 42.264668, "lon": -72.494036, "proficiency": 0.245, "district": "Granby", "city": "Granby", "ncessch": "250540000790"}, {"name": "Greenfield High", "lat": 42.605244, "lon": -72.59456, "proficiency": 0.17, "district": "Greenfield", "city": "Greenfield", "ncessch": "250549000801"}, {"name": "Groton Dunstable Regional Middle", "lat": 42.617038, "lon": -71.579915, "proficiency": 0.62, "district": "Groton-Dunstable", "city": "Groton", "ncessch": "250550000805"}, {"name": "Hopkins Academy", "lat": 42.341285, "lon": -72.591522, "proficiency": 0.15, "district": "Hadley", "city": "Hadley", "ncessch": "250558000813"}, {"name": "Halifax Elementary", "lat": 41.990928, "lon": -70.857868, "proficiency": -0.03, "district": "Halifax", "city": "Halifax", "ncessch": "250561000815"}, {"name": "Miles River Middle", "lat": 42.629386, "lon": -70.846765, "proficiency": 0.62, "district": "Hamilton-Wenham", "city": "Hamilton", "ncessch": "250567001276"}, {"name": "Green Meadows Elementary", "lat": 42.066664, "lon": -72.412134, "proficiency": 0.245, "district": "Hampden-Wilbraham", "city": "Hampden", "ncessch": "250573000822"}, {"name": "Minnechaug Regional High", "lat": 42.110927, "lon": -72.444592, "proficiency": -0.03, "district": "Hampden-Wilbraham", "city": "Wilbraham", "ncessch": "250573000824"}, {"name": "Wilbraham Middle", "lat": 42.133383, "lon": -72.457933, "proficiency": 0.42, "district": "Hampden-Wilbraham", "city": "Wilbraham", "ncessch": "250573002141"}, {"name": "Hampshire Regional High", "lat": 42.302622, "lon": -72.771787, "proficiency": 0.22, "district": "Hampshire", "city": "Westhampton", "ncessch": "250574000825"}, {"name": "Hanover Middle", "lat": 42.132146, "lon": -70.87753, "proficiency": 0.52, "district": "Hanover", "city": "Hanover", "ncessch": "250579002548"}, {"name": "Bromfield", "lat": 42.498337, "lon": -71.585263, "proficiency": 0.42, "district": "Harvard", "city": "Harvard", "ncessch": "250588000838"}, {"name": "Smith Academy", "lat": 42.375684, "lon": -72.600775, "proficiency": 0.15, "district": "Hatfield", "city": "Hatfield", "ncessch": "250594000845"}, {"name": "Consentino Middle School", "lat": 42.770134, "lon": -71.102739, "proficiency": 0.12, "district": "Haverhill", "city": "Haverhill", "ncessch": "250597000850"}, {"name": "Dr Paul Nettle", "lat": 42.77376, "lon": -71.06012, "proficiency": 0.12, "district": "Haverhill", "city": "Haverhill", "ncessch": "250597000852"}, {"name": "John G Whittier", "lat": 42.797739, "lon": -71.07777, "proficiency": 0.12, "district": "Haverhill", "city": "Haverhill", "ncessch": "250597000857"}, {"name": "Greenleaf Academy", "lat": 42.769042, "lon": -71.078973, "proficiency": -0.03, "district": "Haverhill", "city": "Bradford", "ncessch": "250597001698"}, {"name": "Bartlett School and Assessment Center", "lat": 42.767231, "lon": -71.101066, "proficiency": -0.03, "district": "Haverhill", "city": "Haverhill", "ncessch": "250597001706"}, {"name": "Caleb Dustin Hunking School", "lat": 42.761017, "lon": -71.086674, "proficiency": 0.37, "district": "Haverhill", "city": "Haverhill", "ncessch": "250597002881"}, {"name": "Hingham Middle School", "lat": 42.18101, "lon": -70.887595, "proficiency": 0.57, "district": "Hingham", "city": "Hingham", "ncessch": "250609000875"}, {"name": "Holbrook Middle High School", "lat": 42.149041, "lon": -71.005442, "proficiency": 0.27, "district": "Holbrook", "city": "Holbrook", "ncessch": "250615000878"}, {"name": "Robert H. Adams Middle School", "lat": 42.204649, "lon": -71.423496, "proficiency": 0.37, "district": "Holliston", "city": "Holliston", "ncessch": "250624001304"}, {"name": "Kelly Elementary", "lat": 42.202291, "lon": -72.600405, "proficiency": 0.05, "district": "Holyoke", "city": "Holyoke", "ncessch": "250627000904"}, {"name": "Lt Clayre Sullivan Elementary", "lat": 42.20563, "lon": -72.644631, "proficiency": 0.15, "district": "Holyoke", "city": "Holyoke", "ncessch": "250627000907"}, {"name": "Lt Elmer J McMahon Elementary", "lat": 42.184396, "lon": -72.647566, "proficiency": 0.05, "district": "Holyoke", "city": "Holyoke", "ncessch": "250627000908"}, {"name": "Maurice A Donahue Elementary", "lat": 42.17681, "lon": -72.63929, "proficiency": 0.05, "district": "Holyoke", "city": "Holyoke", "ncessch": "250627000909"}, {"name": "William R. Peck School", "lat": 42.198066, "lon": -72.626396, "proficiency": 0.05, "district": "Holyoke", "city": "Holyoke", "ncessch": "250627002645"}, {"name": "Holyoke STEM Academy", "lat": 42.17847, "lon": -72.63023, "proficiency": 0.025, "district": "Holyoke", "city": "Holyoke", "ncessch": "250627002897"}, {"name": "Hopedale Jr Sr High", "lat": 42.12889, "lon": -71.53757, "proficiency": 0.42, "district": "Hopedale", "city": "Hopedale", "ncessch": "250630000915"}, {"name": "Hopkinton Middle School", "lat": 42.219009, "lon": -71.519116, "proficiency": 0.74, "district": "Hopkinton", "city": "Hopkinton", "ncessch": "250633000468"}, {"name": "Hudson High", "lat": 42.380377, "lon": -71.58054, "proficiency": 0.22, "district": "Hudson", "city": "Hudson", "ncessch": "250639000926"}, {"name": "Memorial Middle", "lat": 42.297674, "lon": -70.885022, "proficiency": 0.345, "district": "Hull", "city": "Hull", "ncessch": "250642001307"}, {"name": "Ipswich Middle School", "lat": 42.688641, "lon": -70.851354, "proficiency": 0.42, "district": "Ipswich", "city": "Ipswich", "ncessch": "250648000937"}, {"name": "King Philip Middle School", "lat": 42.09727, "lon": -71.32754, "proficiency": 0.28, "district": "King Philip", "city": "Norfolk", "ncessch": "250651000941"}, {"name": "Alexander B Bruce", "lat": 42.703054, "lon": -71.180942, "proficiency": 0.17, "district": "Lawrence", "city": "Lawrence", "ncessch": "250666000950"}, {"name": "Emily G Wetherbee", "lat": 42.694513, "lon": -71.166621, "proficiency": 0.22, "district": "Lawrence", "city": "Lawrence", "ncessch": "250666000955"}, {"name": "Arlington Middle School", "lat": 42.717436, "lon": -71.174418, "proficiency": 0.17, "district": "Lawrence", "city": "Lawrence", "ncessch": "250666001945"}, {"name": "Parthum Middle School", "lat": 42.718675, "lon": -71.143474, "proficiency": 0.12, "district": "Lawrence", "city": "Lawrence", "ncessch": "250666002623"}, {"name": "School for Exceptional Studies", "lat": 42.7105, "lon": -71.163897, "proficiency": 0.245, "district": "Lawrence", "city": "Lawrence", "ncessch": "250666002625"}, {"name": "Guilmette Middle School", "lat": 42.70003, "lon": -71.1768, "proficiency": 0.17, "district": "Lawrence", "city": "Lawrence", "ncessch": "250666002630"}, {"name": "Frost Middle School", "lat": 42.68504, "lon": -71.16821, "proficiency": 0.27, "district": "Lawrence", "city": "Lawrence", "ncessch": "250666002654"}, {"name": "Spark Academy", "lat": 42.695071, "lon": -71.147057, "proficiency": 0.075, "district": "Lawrence", "city": "Lawrence", "ncessch": "250666002758"}, {"name": "Leonard Middle School", "lat": 42.7097, "lon": -71.151811, "proficiency": 0.12, "district": "Lawrence", "city": "Lawrence", "ncessch": "250666002766"}, {"name": "Oliver Middle School", "lat": 42.7105, "lon": -71.163897, "proficiency": 0.12, "district": "Lawrence", "city": "Lawrence", "ncessch": "250666002805"}, {"name": "Lee Middle/High School", "lat": 42.30653, "lon": -73.23934, "proficiency": 0.245, "district": "Lee", "city": "Lee", "ncessch": "250669000970"}, {"name": "Leicester Middle", "lat": 42.251369, "lon": -71.904727, "proficiency": 0.22, "district": "Leicester", "city": "Leicester", "ncessch": "250672000973"}, {"name": "Lenox Memorial High", "lat": 42.351705, "lon": -73.259082, "proficiency": 0.245, "district": "Lenox", "city": "Lenox", "ncessch": "250675000978"}, {"name": "Samoset School", "lat": 42.493089, "lon": -71.768396, "proficiency": 0.22, "district": "Leominster", "city": "Leominster", "ncessch": "250678000742"}, {"name": "Sky View Middle School", "lat": 42.540724, "lon": -71.716694, "proficiency": 0.27, "district": "Leominster", "city": "Leominster", "ncessch": "250678002045"}, {"name": "Jonas Clarke Middle", "lat": 42.429973, "lon": -71.229298, "proficiency": 0.67, "district": "Lexington", "city": "Lexington", "ncessch": "250684002551"}, {"name": "Wm Diamond Middle", "lat": 42.463642, "lon": -71.228238, "proficiency": 0.77, "district": "Lexington", "city": "Lexington", "ncessch": "250684002552"}, {"name": "Hanscom Middle", "lat": 42.456528, "lon": -71.277884, "proficiency": 0.245, "district": "Lincoln", "city": "Hanscom Air Force Bs", "ncessch": "250690001008"}, {"name": "Lincoln School", "lat": 42.425135, "lon": -71.313783, "proficiency": 0.845, "district": "Lincoln", "city": "Lincoln", "ncessch": "250690001183"}, {"name": "Littleton Middle School", "lat": 42.542979, "lon": -71.485291, "proficiency": 0.42, "district": "Littleton", "city": "Littleton", "ncessch": "250696001628"}, {"name": "Williams Middle", "lat": 42.052953, "lon": -72.566188, "proficiency": 0.32, "district": "Longmeadow", "city": "Longmeadow", "ncessch": "250699000743"}, {"name": "Glenbrook Middle", "lat": 42.0437, "lon": -72.551207, "proficiency": 0.42, "district": "Longmeadow", "city": "Longmeadow", "ncessch": "250699001019"}, {"name": "James Sullivan Middle School", "lat": 42.64035, "lon": -71.28123, "proficiency": 0.075, "district": "Lowell", "city": "Lowell", "ncessch": "250702000073"}, {"name": "Dr An Wang School", "lat": 42.648875, "lon": -71.349945, "proficiency": 0.22, "district": "Lowell", "city": "Lowell", "ncessch": "250702000086"}, {"name": "B.F. Butler Middle School", "lat": 42.625207, "lon": -71.30482, "proficiency": 0.27, "district": "Lowell", "city": "Lowell", "ncessch": "250702001026"}, {"name": "Henry J Robinson Middle", "lat": 42.65904, "lon": -71.30237, "proficiency": 0.17, "district": "Lowell", "city": "Lowell", "ncessch": "250702001034"}, {"name": "James S Daley Middle School", "lat": 42.624243, "lon": -71.337144, "proficiency": 0.42, "district": "Lowell", "city": "Lowell", "ncessch": "250702001036"}, {"name": "Pyne Arts", "lat": 42.627071, "lon": -71.288762, "proficiency": 0.3, "district": "Lowell", "city": "Lowell", "ncessch": "250702001038"}, {"name": "Bartlett Community Partnership", "lat": 42.64553, "lon": -71.32884, "proficiency": 0.05, "district": "Lowell", "city": "Lowell", "ncessch": "250702001954"}, {"name": "Kathryn P. Stoklosa Middle School", "lat": 42.64297, "lon": -71.325032, "proficiency": 0.22, "district": "Lowell", "city": "Lowell", "ncessch": "250702001955"}, {"name": "Laura Lee Therapeutic Day School", "lat": 42.626389, "lon": -71.323317, "proficiency": 0.245, "district": "Lowell", "city": "Lowell", "ncessch": "250702002726"}, {"name": "Rogers STEM Academy", "lat": 42.63753, "lon": -71.31066, "proficiency": 0.05, "district": "Lowell", "city": "Lowell", "ncessch": "250702002761"}, {"name": "Dr. Janice Adie Day School", "lat": 42.608237, "lon": -71.304295, "proficiency": -0.03, "district": "Lowell", "city": "Chelmsford", "ncessch": "250702002876"}, {"name": "Paul R Baird Middle", "lat": 42.172297, "lon": -72.459785, "proficiency": 0.17, "district": "Ludlow", "city": "Ludlow", "ncessch": "250705001055"}, {"name": "Lunenburg Middle School", "lat": 42.599267, "lon": -71.720472, "proficiency": 0.37, "district": "Lunenburg", "city": "Lunenburg", "ncessch": "250708002870"}, {"name": "Thurgood Marshall Mid", "lat": 42.47092, "lon": -70.929591, "proficiency": 0.15, "district": "Lynn", "city": "Lynn", "ncessch": "250711000301"}, {"name": "Breed Middle School", "lat": 42.470626, "lon": -70.984552, "proficiency": 0.21, "district": "Lynn", "city": "Lynn", "ncessch": "250711001063"}, {"name": "Pickering Middle", "lat": 42.486892, "lon": -70.958736, "proficiency": 0.17, "district": "Lynn", "city": "Lynn", "ncessch": "250711001083"}, {"name": "Lynn Vocational Technical Institute", "lat": 42.45955, "lon": -70.954842, "proficiency": 0.12, "district": "Lynn", "city": "Lynn", "ncessch": "250711002277"}, {"name": "Fecteau-Leary Junior/Senior High School", "lat": 42.464573, "lon": -70.95514, "proficiency": -0.03, "district": "Lynn", "city": "Lynn", "ncessch": "250711002647"}, {"name": "Lynnfield Middle School", "lat": 42.537423, "lon": -71.051388, "proficiency": 0.62, "district": "Lynnfield", "city": "Lynnfield", "ncessch": "250714001091"}, {"name": "Beebe", "lat": 42.427171, "lon": -71.079493, "proficiency": 0.47, "district": "Malden", "city": "Malden", "ncessch": "250717001344"}, {"name": "Ferryway", "lat": 42.421621, "lon": -71.059445, "proficiency": 0.22, "district": "Malden", "city": "Malden", "ncessch": "250717001345"}, {"name": "Forestdale", "lat": 42.440431, "lon": -71.053822, "proficiency": 0.445, "district": "Malden", "city": "Malden", "ncessch": "250717001351"}, {"name": "Linden", "lat": 42.433773, "lon": -71.034154, "proficiency": 0.42, "district": "Malden", "city": "Malden", "ncessch": "250717001361"}, {"name": "Salemwood", "lat": 42.431514, "lon": -71.05021, "proficiency": 0.17, "district": "Malden", "city": "Malden", "ncessch": "250717001363"}, {"name": "Harold L Qualters Middle", "lat": 42.02909, "lon": -71.206362, "proficiency": 0.47, "district": "Mansfield", "city": "Mansfield", "ncessch": "250723001112"}, {"name": "Marblehead Veterans Middle School", "lat": 42.497987, "lon": -70.861351, "proficiency": 0.72, "district": "Marblehead", "city": "Marblehead", "ncessch": "250726001789"}, {"name": "1 LT Charles W. Whitcomb School", "lat": 42.357383, "lon": -71.548459, "proficiency": 0.22, "district": "Marlborough", "city": "Marlborough", "ncessch": "250732002639"}, {"name": "Furnace Brook Middle", "lat": 42.106724, "lon": -70.737942, "proficiency": 0.45, "district": "Marshfield", "city": "Marshfield", "ncessch": "250735001143"}, {"name": "Masconomet Regional Middle School", "lat": 42.627798, "lon": -70.974842, "proficiency": 0.47, "district": "Masconomet", "city": "Boxford", "ncessch": "250741001097"}, {"name": "Mashpee Middle School", "lat": 41.614857, "lon": -70.506235, "proficiency": 0.22, "district": "Mashpee", "city": "Mashpee", "ncessch": "250744002638"}, {"name": "Fowler School", "lat": 42.421524, "lon": -71.456675, "proficiency": 0.37, "district": "Maynard", "city": "Maynard", "ncessch": "250750000105"}, {"name": "Thomas Blake Middle", "lat": 42.18638, "lon": -71.29552, "proficiency": 0.57, "district": "Medfield", "city": "Medfield", "ncessch": "250753001156"}, {"name": "Madeleine Dugger Andrews", "lat": 42.411839, "lon": -71.098412, "proficiency": 0.37, "district": "Medford", "city": "Medford", "ncessch": "250756001638"}, {"name": "John J. McGlynn Middle School", "lat": 42.40893, "lon": -71.09804, "proficiency": 0.17, "district": "Medford", "city": "Medford", "ncessch": "250756002063"}, {"name": "Medway Middle", "lat": 42.145756, "lon": -71.406989, "proficiency": 0.52, "district": "Medway", "city": "Medway", "ncessch": "250759002483"}, {"name": "Melrose Middle", "lat": 42.464275, "lon": -71.066568, "proficiency": 0.42, "district": "Melrose", "city": "Melrose", "ncessch": "250762002557"}, {"name": "Miscoe Hill School", "lat": 42.1305, "lon": -71.57269, "proficiency": 0.32, "district": "Mendon-Upton", "city": "Mendon", "ncessch": "250768001279"}, {"name": "Marsh Grammar School", "lat": 42.72891, "lon": -71.23272, "proficiency": 0.37, "district": "Methuen", "city": "Methuen", "ncessch": "250774001211"}, {"name": "Donald P Timony Grammar", "lat": 42.73073, "lon": -71.172292, "proficiency": 0.22, "district": "Methuen", "city": "Methuen", "ncessch": "250774001376"}, {"name": "Tenney Grammar School", "lat": 42.73237, "lon": -71.17756, "proficiency": 0.12, "district": "Methuen", "city": "Methuen", "ncessch": "250774001556"}, {"name": "Comprehensive Grammar School", "lat": 42.74778, "lon": -71.17576, "proficiency": 0.32, "district": "Methuen", "city": "Methuen", "ncessch": "250774002558"}, {"name": "John T. Nichols Middle", "lat": 41.888749, "lon": -70.895072, "proficiency": 0.32, "district": "Middleborough", "city": "Middleborough", "ncessch": "250777001378"}, {"name": "Stacy Middle", "lat": 42.14339, "lon": -71.520105, "proficiency": 0.23, "district": "Milford", "city": "Milford", "ncessch": "250786001240"}, {"name": "Millbury Junior/Senior High", "lat": 42.19995, "lon": -71.76752, "proficiency": 0.32, "district": "Millbury", "city": "Millbury", "ncessch": "250789001249"}, {"name": "Millis Middle", "lat": 42.162639, "lon": -71.35774, "proficiency": 0.47, "district": "Millis", "city": "Millis", "ncessch": "250792001254"}, {"name": "Charles S Pierce Middle", "lat": 42.257856, "lon": -71.083598, "proficiency": 0.42, "district": "Milton", "city": "Milton", "ncessch": "250798001257"}, {"name": "Mohawk Trail Regional School", "lat": 42.616376, "lon": -72.755787, "proficiency": 0.15, "district": "Mohawk Trail", "city": "Shelburne Falls", "ncessch": "250799001265"}, {"name": "Monson High School", "lat": 42.115341, "lon": -72.324032, "proficiency": 0.245, "district": "Monson", "city": "Monson", "ncessch": "250804001269"}, {"name": "Mt Greylock Regional High", "lat": 42.671437, "lon": -73.241091, "proficiency": 0.37, "district": "Mount Greylock", "city": "Williamstown", "ncessch": "250816001273"}, {"name": "Cyrus Peirce", "lat": 41.273095, "lon": -70.098876, "proficiency": 0.17, "district": "Nantucket", "city": "Nantucket", "ncessch": "250825001281"}, {"name": "Narragansett Regional High", "lat": 42.587922, "lon": -72.074137, "proficiency": 0.22, "district": "Narragansett", "city": "Baldwinville", "ncessch": "250828001285"}, {"name": "Luther Burbank Middle School", "lat": 42.46824, "lon": -71.67529, "proficiency": 0.57, "district": "Nashoba", "city": "Lancaster", "ncessch": "250831000947"}, {"name": "Florence Sawyer School", "lat": 42.429707, "lon": -71.608536, "proficiency": 0.52, "district": "Nashoba", "city": "Bolton", "ncessch": "250831001102"}, {"name": "Hale", "lat": 42.440874, "lon": -71.507098, "proficiency": 0.62, "district": "Nashoba", "city": "Stow", "ncessch": "250831001868"}, {"name": "J F Kennedy Middle School", "lat": 42.290828, "lon": -71.383273, "proficiency": 0.57, "district": "Natick", "city": "Natick", "ncessch": "250834001297"}, {"name": "Wilson Middle", "lat": 42.302166, "lon": -71.357639, "proficiency": 0.62, "district": "Natick", "city": "Natick", "ncessch": "250834001305"}, {"name": "Pollard Middle", "lat": 42.27674, "lon": -71.22661, "proficiency": 0.69, "district": "Needham", "city": "Needham", "ncessch": "250837001308"}, {"name": "Keith Middle School", "lat": 41.646199, "lon": -70.949703, "proficiency": 0.17, "district": "New Bedford", "city": "New Bedford", "ncessch": "250843001334"}, {"name": "Normandin Middle School", "lat": 41.680997, "lon": -70.929216, "proficiency": 0.1, "district": "New Bedford", "city": "New Bedford", "ncessch": "250843001337"}, {"name": "Roosevelt Middle School", "lat": 41.610513, "lon": -70.910896, "proficiency": 0.075, "district": "New Bedford", "city": "New Bedford", "ncessch": "250843001339"}, {"name": "Trinity Day Academy", "lat": 41.638919, "lon": -70.937008, "proficiency": 0.245, "district": "New Bedford", "city": "New Bedford", "ncessch": "250843002590"}, {"name": "Whaling City Junior/Senior High School", "lat": 41.634772, "lon": -70.931697, "proficiency": -0.03, "district": "New Bedford", "city": "New Bedford", "ncessch": "250843002681"}, {"name": "Rupert A Nock Middle", "lat": 42.808714, "lon": -70.887204, "proficiency": 0.47, "district": "Newburyport", "city": "Newburyport", "ncessch": "250858001355"}, {"name": "Bigelow Middle", "lat": 42.353661, "lon": -71.181256, "proficiency": 0.67, "district": "Newton", "city": "Newton", "ncessch": "250861000307"}, {"name": "Charles E Brown Middle", "lat": 42.308752, "lon": -71.190294, "proficiency": 0.72, "district": "Newton", "city": "Newton Centre", "ncessch": "250861000310"}, {"name": "F A Day Middle", "lat": 42.358133, "lon": -71.213174, "proficiency": 0.67, "district": "Newton", "city": "Newtonville", "ncessch": "250861000314"}, {"name": "Oak Hill Middle", "lat": 42.310056, "lon": -71.19167, "proficiency": 0.72, "district": "Newton", "city": "Newton Centre", "ncessch": "250861001042"}, {"name": "Drury High", "lat": 42.6698, "lon": -73.096031, "proficiency": 0.17, "district": "North Adams", "city": "North Adams", "ncessch": "250867001387"}, {"name": "North Andover Middle", "lat": 42.69286, "lon": -71.121721, "proficiency": 0.38, "district": "North Andover", "city": "North Andover", "ncessch": "250870001398"}, {"name": "North Attleborough Middle", "lat": 41.983236, "lon": -71.31058, "proficiency": 0.42, "district": "North Attleborough", "city": "North Attleborough", "ncessch": "250873001207"}, {"name": "North Brookfield High", "lat": 42.277207, "lon": -72.07855, "proficiency": 0.05, "district": "North Brookfield", "city": "North Brookfield", "ncessch": "250876001411"}, {"name": "Nissitissit Middle School", "lat": 42.673864, "lon": -71.591346, "proficiency": 0.52, "district": "North Middlesex", "city": "Pepperell", "ncessch": "250879001762"}, {"name": "Hawthorne Brook", "lat": 42.674567, "lon": -71.702538, "proficiency": 0.32, "district": "North Middlesex", "city": "Townsend", "ncessch": "250879002280"}, {"name": "North Reading Middle", "lat": 42.578309, "lon": -71.084864, "proficiency": 0.57, "district": "North Reading", "city": "North Reading", "ncessch": "250882002592"}, {"name": "John F Kennedy Middle School", "lat": 42.345372, "lon": -72.677196, "proficiency": 0.22, "district": "Northampton", "city": "Florence", "ncessch": "250885001430"}, {"name": "Robert E. Melican Middle School", "lat": 42.319991, "lon": -71.659344, "proficiency": 0.47, "district": "Northborough", "city": "Northborough", "ncessch": "250888001440"}, {"name": "Northbridge Middle", "lat": 42.10877, "lon": -71.657529, "proficiency": 0.42, "district": "Northbridge", "city": "Whitinsville", "ncessch": "250894002591"}, {"name": "Norton Middle", "lat": 41.959079, "lon": -71.213599, "proficiency": 0.32, "district": "Norton", "city": "Norton", "ncessch": "250900001452"}, {"name": "Norwell Middle School", "lat": 42.156141, "lon": -70.819877, "proficiency": 0.47, "district": "Norwell", "city": "Norwell", "ncessch": "250903001456"}, {"name": "Dr. Philip O. Coakley Middle School", "lat": 42.172428, "lon": -71.210773, "proficiency": 0.32, "district": "Norwood", "city": "Norwood", "ncessch": "250906001468"}, {"name": "Edgartown Elementary", "lat": 41.389828, "lon": -70.521811, "proficiency": 0.345, "district": "Edgartown", "city": "Edgartown", "ncessch": "250909001469"}, {"name": "Old Rochester Regional Jr High", "lat": 41.671421, "lon": -70.777404, "proficiency": 0.37, "district": "Old Rochester", "city": "Mattapoisett", "ncessch": "250915001473"}, {"name": "Oxford High", "lat": 42.13696, "lon": -71.872075, "proficiency": 0.12, "district": "Oxford", "city": "Oxford", "ncessch": "250927001482"}, {"name": "Palmer High", "lat": 42.185599, "lon": -72.339622, "proficiency": 0.22, "district": "Palmer", "city": "Palmer", "ncessch": "250930001485"}, {"name": "J Henry Higgins Middle", "lat": 42.525684, "lon": -70.941094, "proficiency": 0.25, "district": "Peabody", "city": "Peabody", "ncessch": "250936001495"}, {"name": "Pembroke Community Middle School", "lat": 42.031636, "lon": -70.802335, "proficiency": 0.52, "district": "Pembroke", "city": "Pembroke", "ncessch": "250942001823"}, {"name": "Pentucket Regional Middle", "lat": 42.780872, "lon": -71.01358, "proficiency": 0.32, "district": "Pentucket", "city": "West Newbury", "ncessch": "250945001512"}, {"name": "Pioneer Valley Regional", "lat": 42.683668, "lon": -72.484978, "proficiency": 0.15, "district": "Pioneer Valley", "city": "Northfield", "ncessch": "250960001515"}, {"name": "John T Reid Middle", "lat": 42.466247, "lon": -73.243438, "proficiency": 0.075, "district": "Pittsfield", "city": "Pittsfield", "ncessch": "250963001525"}, {"name": "Theodore Herberg Middle", "lat": 42.433855, "lon": -73.241745, "proficiency": 0.12, "district": "Pittsfield", "city": "Pittsfield", "ncessch": "250963001532"}, {"name": "Eagle Education Academy", "lat": 42.451593, "lon": -73.251837, "proficiency": 0.245, "district": "Pittsfield", "city": "Pittsfield", "ncessch": "250963002915"}, {"name": "Plymouth South Middle", "lat": 41.886658, "lon": -70.613959, "proficiency": 0.27, "district": "Plymouth", "city": "Plymouth", "ncessch": "250972001380"}, {"name": "Plymouth Commun Intermediate", "lat": 41.92263, "lon": -70.65907, "proficiency": 0.21, "district": "Plymouth", "city": "Plymouth", "ncessch": "250972002531"}, {"name": "Provincetown Schools", "lat": 42.051539, "lon": -70.190348, "proficiency": 0.245, "district": "Provincetown", "city": "Provincetown", "ncessch": "250984002694"}, {"name": "Point Webster Middle", "lat": 42.247432, "lon": -70.991061, "proficiency": 0.22, "district": "Quincy", "city": "Quincy", "ncessch": "250987001381"}, {"name": "Atlantic Middle", "lat": 42.277857, "lon": -71.024319, "proficiency": 0.42, "district": "Quincy", "city": "Quincy", "ncessch": "250987001561"}, {"name": "Broad Meadows Middle", "lat": 42.260183, "lon": -70.985278, "proficiency": 0.17, "district": "Quincy", "city": "Quincy", "ncessch": "250987001563"}, {"name": "Central Middle", "lat": 42.261568, "lon": -71.012076, "proficiency": 0.52, "district": "Quincy", "city": "Quincy", "ncessch": "250987001564"}, {"name": "South West Middle School", "lat": 42.240087, "lon": -71.016042, "proficiency": 0.27, "district": "Quincy", "city": "Quincy", "ncessch": "250987001581"}, {"name": "Ralph C Mahar Regional", "lat": 42.574559, "lon": -72.302801, "proficiency": 0.27, "district": "Ralph C Mahar", "city": "Orange", "ncessch": "250990001587"}, {"name": "Randolph Community Middle", "lat": 42.18378, "lon": -71.06511, "proficiency": 0.27, "district": "Randolph", "city": "Randolph", "ncessch": "250993001392"}, {"name": "Arthur W Coolidge Middle", "lat": 42.538365, "lon": -71.110204, "proficiency": 0.47, "district": "Reading", "city": "Reading", "ncessch": "250999001605"}, {"name": "Walter S Parker Middle", "lat": 42.52291, "lon": -71.11553, "proficiency": 0.42, "district": "Reading", "city": "Reading", "ncessch": "250999001612"}, {"name": "Rumney Marsh Academy", "lat": 42.413892, "lon": -71.004362, "proficiency": 0.17, "district": "Revere", "city": "Revere", "ncessch": "251005001963"}, {"name": "Garfield Middle School", "lat": 42.40366, "lon": -70.992637, "proficiency": 0.22, "district": "Revere", "city": "Revere", "ncessch": "251005001976"}, {"name": "Susan B. Anthony Middle School", "lat": 42.419559, "lon": -71.020421, "proficiency": 0.12, "district": "Revere", "city": "Revere", "ncessch": "251005002113"}, {"name": "Richmond Consolidated", "lat": 42.381855, "lon": -73.367009, "proficiency": 0.245, "district": "Richmond", "city": "Richmond", "ncessch": "251008001635"}, {"name": "Rochester Memorial", "lat": 41.747139, "lon": -70.86672, "proficiency": -0.03, "district": "Rochester", "city": "Rochester", "ncessch": "251014001637"}, {"name": "John W Rogers Middle", "lat": 42.12826, "lon": -70.918133, "proficiency": 0.27, "district": "Rockland", "city": "Rockland", "ncessch": "251017001642"}, {"name": "Rockport Middle", "lat": 42.651875, "lon": -70.610152, "proficiency": 0.27, "district": "Rockport", "city": "Rockport", "ncessch": "251020000506"}, {"name": "Saltonstall School", "lat": 42.513486, "lon": -70.89154, "proficiency": 0.15, "district": "Salem", "city": "Salem", "ncessch": "251038000773"}, {"name": "Collins Middle", "lat": 42.514502, "lon": -70.905388, "proficiency": 0.17, "district": "Salem", "city": "Salem", "ncessch": "251038002404"}, {"name": "Sandwich Middle High School", "lat": 41.735678, "lon": -70.458785, "proficiency": -0.03, "district": "Sandwich", "city": "East Sandwich", "ncessch": "251047001673"}, {"name": "Sandwich STEM Academy", "lat": 41.735678, "lon": -70.458785, "proficiency": 0.27, "district": "Sandwich", "city": "Sandwich", "ncessch": "251047002824"}, {"name": "Saugus Middle School", "lat": 42.458547, "lon": -71.014575, "proficiency": 0.32, "district": "Saugus", "city": "Saugus", "ncessch": "251050001685"}, {"name": "Gates Middle School", "lat": 42.199498, "lon": -70.76836, "proficiency": 0.47, "district": "Scituate", "city": "Scituate", "ncessch": "251056001690"}, {"name": "Dr. Kevin M. Hurley Middle School", "lat": 41.860197, "lon": -71.330813, "proficiency": 0.42, "district": "Seekonk", "city": "Seekonk", "ncessch": "251059001700"}, {"name": "Sharon Middle", "lat": 42.10629, "lon": -71.16481, "proficiency": 0.52, "district": "Sharon", "city": "Sharon", "ncessch": "251062002560"}, {"name": "Oak Middle School", "lat": 42.28239, "lon": -71.72713, "proficiency": 0.63, "district": "Shrewsbury", "city": "Shrewsbury", "ncessch": "251077001825"}, {"name": "Silver Lake Regional Middle School", "lat": 42.014337, "lon": -70.782104, "proficiency": 0.42, "district": "Silver Lake", "city": "Kingston", "ncessch": "251083001721"}, {"name": "Somerset Middle School", "lat": 41.739168, "lon": -71.164068, "proficiency": 0.17, "district": "Somerset", "city": "Somerset", "ncessch": "251086002537"}, {"name": "West Somerville Neighborhood", "lat": 42.406302, "lon": -71.126643, "proficiency": 0.495, "district": "Somerville", "city": "Somerville", "ncessch": "251089000891"}, {"name": "Arthur D Healey", "lat": 42.39752, "lon": -71.0953, "proficiency": 0.245, "district": "Somerville", "city": "Somerville", "ncessch": "251089001731"}, {"name": "E Somerville Community", "lat": 42.385991, "lon": -71.086355, "proficiency": 0.27, "district": "Somerville", "city": "Somerville", "ncessch": "251089001736"}, {"name": "John F Kennedy", "lat": 42.38936, "lon": -71.11547, "proficiency": 0.645, "district": "Somerville", "city": "Somerville", "ncessch": "251089001738"}, {"name": "Albert F. Argenziano School at Lincoln Park", "lat": 42.379231, "lon": -71.098828, "proficiency": 0.445, "district": "Somerville", "city": "Somerville", "ncessch": "251089001739"}, {"name": "Winter Hill Community", "lat": 42.39187, "lon": -71.09867, "proficiency": 0.15, "district": "Somerville", "city": "Somerville", "ncessch": "251089001749"}, {"name": "Next Wave Junior High", "lat": 42.387619, "lon": -71.087266, "proficiency": 0.245, "district": "Somerville", "city": "Somerville", "ncessch": "251089002498"}, {"name": "Michael E. Smith Middle School", "lat": 42.245943, "lon": -72.577518, "proficiency": 0.17, "district": "South Hadley", "city": "South Hadley", "ncessch": "251092001752"}, {"name": "P Brent Trottier", "lat": 42.299391, "lon": -71.542171, "proficiency": 0.72, "district": "Southborough", "city": "Southborough", "ncessch": "251098001221"}, {"name": "Southbridge Middle School", "lat": 42.08226, "lon": -72.006143, "proficiency": 0.075, "district": "Southbridge", "city": "Southbridge", "ncessch": "251101002865"}, {"name": "Southbridge Academy", "lat": 42.075285, "lon": -72.040462, "proficiency": 0.245, "district": "Southbridge", "city": "Southbridge", "ncessch": "251101002896"}, {"name": "Mt Everett Regional", "lat": 42.106196, "lon": -73.374486, "proficiency": 0.05, "district": "Southern Berkshire", "city": "Sheffield", "ncessch": "251104001774"}, {"name": "Alfred G. Zanetti Montessori Magnet School", "lat": 42.121139, "lon": -72.588307, "proficiency": 0.3, "district": "Springfield", "city": "Springfield", "ncessch": "251113001809"}, {"name": "The Springfield Renaissance School an Expeditionary Learning", "lat": 42.133086, "lon": -72.573708, "proficiency": 0.17, "district": "Springfield", "city": "Springfield", "ncessch": "251113002137"}, {"name": "John J Duggan Academy", "lat": 42.114295, "lon": -72.526619, "proficiency": 0.12, "district": "Springfield", "city": "Springfield", "ncessch": "251113002599"}, {"name": "Forest Park Middle", "lat": 42.085984, "lon": -72.56416, "proficiency": 0.12, "district": "Springfield", "city": "Springfield", "ncessch": "251113002600"}, {"name": "John F Kennedy Middle", "lat": 42.154736, "lon": -72.511515, "proficiency": 0.025, "district": "Springfield", "city": "Springfield", "ncessch": "251113002601"}, {"name": "M Marcus Kiley Middle", "lat": 42.0986, "lon": -72.500828, "proficiency": 0.12, "district": "Springfield", "city": "Springfield", "ncessch": "251113002602"}, {"name": "STEM Middle Academy", "lat": 42.119313, "lon": -72.551308, "proficiency": 0.12, "district": "Springfield", "city": "Springfield", "ncessch": "251113002642"}, {"name": "South End Middle School", "lat": 42.096873, "lon": -72.583716, "proficiency": 0.025, "district": "Springfield", "city": "Springfield", "ncessch": "251113002733"}, {"name": "Springfield Public Day Middle School", "lat": 42.119906, "lon": -72.605572, "proficiency": 0.1, "district": "Springfield", "city": "Springfield", "ncessch": "251113002740"}, {"name": "Springfield Middle School", "lat": 42.119906, "lon": -72.605572, "proficiency": 0.245, "district": "Springfield", "city": "Springfield", "ncessch": "251113002744"}, {"name": "Conservatory of the Arts", "lat": 42.105612, "lon": -72.580545, "proficiency": -0.03, "district": "Springfield", "city": "Springfield", "ncessch": "251113002818"}, {"name": "Impact Prep at Chestnut", "lat": 42.1187, "lon": -72.611931, "proficiency": 0.15, "district": "Springfield", "city": "Springfield", "ncessch": "251113002837"}, {"name": "Chestnut Accelerated Middle School (Talented and Gifted)", "lat": 42.1187, "lon": -72.611931, "proficiency": 0.47, "district": "Springfield", "city": "Springfield", "ncessch": "251113002840"}, {"name": "Van Sickle Academy", "lat": 42.133086, "lon": -72.573708, "proficiency": 0.12, "district": "Springfield", "city": "Springfield", "ncessch": "251113002855"}, {"name": "Rise Academy at Van Sickle", "lat": 42.133086, "lon": -72.573708, "proficiency": 0.075, "district": "Springfield", "city": "Springfield", "ncessch": "251113002859"}, {"name": "Emergence Academy", "lat": 42.133086, "lon": -72.573708, "proficiency": -0.03, "district": "Springfield", "city": "Springfield", "ncessch": "251113002916"}, {"name": "Springfield Legacy Academy", "lat": 42.1187, "lon": -72.611931, "proficiency": 0.05, "district": "Springfield", "city": "Springfield", "ncessch": "251113002917"}, {"name": "Stoneham Central Middle School", "lat": 42.484976, "lon": -71.096406, "proficiency": 0.42, "district": "Stoneham", "city": "Stoneham", "ncessch": "251122001857"}, {"name": "O'Donnell Middle School", "lat": 42.129669, "lon": -71.112336, "proficiency": 0.27, "district": "Stoughton", "city": "Stoughton", "ncessch": "251125001865"}, {"name": "Ephraim Curtis Middle", "lat": 42.380676, "lon": -71.433501, "proficiency": 0.62, "district": "Sudbury", "city": "Sudbury", "ncessch": "251134001872"}, {"name": "Sutton Middle School", "lat": 42.144133, "lon": -71.770594, "proficiency": 0.17, "district": "Sutton", "city": "Sutton", "ncessch": "251140001413"}, {"name": "Swampscott Middle", "lat": 42.47382, "lon": -70.902819, "proficiency": 0.32, "district": "Swampscott", "city": "Swampscott", "ncessch": "251143002562"}, {"name": "Joseph Case Jr High", "lat": 41.749975, "lon": -71.193681, "proficiency": 0.32, "district": "Swansea", "city": "Swansea", "ncessch": "251146001894"}, {"name": "Tantasqua Regional Jr High", "lat": 42.160097, "lon": -72.126921, "proficiency": 0.42, "district": "Tantasqua", "city": "Fiskdale", "ncessch": "251149001899"}, {"name": "Taunton High", "lat": 41.901542, "lon": -71.071216, "proficiency": 0.16, "district": "Taunton", "city": "Taunton", "ncessch": "251152001915"}, {"name": "John W. Wynn Middle", "lat": 42.601489, "lon": -71.213741, "proficiency": 0.42, "district": "Tewksbury", "city": "Tewksbury", "ncessch": "251158000366"}, {"name": "Triton Regional Middle School", "lat": 42.744721, "lon": -70.919401, "proficiency": 0.27, "district": "Triton", "city": "Byfield", "ncessch": "251174001470"}, {"name": "Tyngsborough Middle", "lat": 42.69671, "lon": -71.4067, "proficiency": 0.47, "district": "Tyngsborough", "city": "Tyngsborough", "ncessch": "251176001715"}, {"name": "Uxbridge High", "lat": 42.051153, "lon": -71.618045, "proficiency": 0.17, "district": "Uxbridge", "city": "Uxbridge", "ncessch": "251185001938"}, {"name": "Mountview Middle", "lat": 42.33492, "lon": -71.824062, "proficiency": 0.32, "district": "Wachusett", "city": "Holden", "ncessch": "251188000888"}, {"name": "Central Tree Middle", "lat": 42.369704, "lon": -71.95475, "proficiency": 0.42, "district": "Wachusett", "city": "Rutland", "ncessch": "251188001280"}, {"name": "Paxton Center", "lat": 42.310014, "lon": -71.929581, "proficiency": 0.12, "district": "Wachusett", "city": "Paxton", "ncessch": "251188001492"}, {"name": "Chocksett Middle School", "lat": 42.413791, "lon": -71.778185, "proficiency": 0.37, "district": "Wachusett", "city": "Sterling", "ncessch": "251188001494"}, {"name": "Thomas Prince", "lat": 42.44243, "lon": -71.84371, "proficiency": 0.645, "district": "Wachusett", "city": "Princeton", "ncessch": "251188001553"}, {"name": "Galvin Middle School", "lat": 42.499668, "lon": -71.071132, "proficiency": 0.27, "district": "Wakefield", "city": "Wakefield", "ncessch": "251191000776"}, {"name": "Bird Middle", "lat": 42.148491, "lon": -71.232057, "proficiency": 0.37, "district": "Walpole", "city": "East Walpole", "ncessch": "251197001959"}, {"name": "Eleanor N Johnson Middle", "lat": 42.150981, "lon": -71.256564, "proficiency": 0.62, "district": "Walpole", "city": "Walpole", "ncessch": "251197001965"}, {"name": "John F Kennedy Middle", "lat": 42.397106, "lon": -71.232836, "proficiency": 0.37, "district": "Waltham", "city": "Waltham", "ncessch": "251200001971"}, {"name": "John W. McDevitt Middle School", "lat": 42.37847, "lon": -71.23293, "proficiency": 0.32, "district": "Waltham", "city": "Waltham", "ncessch": "251200001977"}, {"name": "Ware Junior/Senior High School", "lat": 42.250131, "lon": -72.263203, "proficiency": 0.025, "district": "Ware", "city": "Ware", "ncessch": "251203001983"}, {"name": "Wareham Senior High", "lat": 41.755448, "lon": -70.719578, "proficiency": 0.17, "district": "Wareham", "city": "Wareham", "ncessch": "251206001991"}, {"name": "Quaboag Regional Middle Innovation School", "lat": 42.220584, "lon": -72.188142, "proficiency": 0.22, "district": "Quaboag Regional", "city": "Warren", "ncessch": "251210002794"}, {"name": "Watertown Middle", "lat": 42.372839, "lon": -71.191657, "proficiency": 0.37, "district": "Watertown", "city": "Watertown", "ncessch": "251218002501"}, {"name": "Wayland Middle School", "lat": 42.324205, "lon": -71.36144, "proficiency": 0.72, "district": "Wayland", "city": "Wayland", "ncessch": "251221002502"}, {"name": "Webster Middle School", "lat": 42.043769, "lon": -71.870216, "proficiency": 0.12, "district": "Webster", "city": "Webster", "ncessch": "251224002849"}, {"name": "Wellesley Middle", "lat": 42.303926, "lon": -71.289662, "proficiency": 0.59, "district": "Wellesley", "city": "Wellesley", "ncessch": "251227002029"}, {"name": "West Boylston Junior/Senior High", "lat": 42.37347, "lon": -71.7909, "proficiency": 0.42, "district": "West Boylston", "city": "West Boylston", "ncessch": "251239002035"}, {"name": "West Bridgewater Junior/Senior", "lat": 42.020267, "lon": -71.01689, "proficiency": 0.17, "district": "West Bridgewater", "city": "West Bridgewater", "ncessch": "251242002039"}, {"name": "West Springfield Middle", "lat": 42.126108, "lon": -72.646944, "proficiency": 0.22, "district": "West Springfield", "city": "West Springfield", "ncessch": "251251001243"}, {"name": "Tisbury Elementary", "lat": 41.452659, "lon": -70.609834, "proficiency": 0.445, "district": "Tisbury", "city": "Vineyard Haven", "ncessch": "251257002054"}, {"name": "Sarah W Gibbons Middle", "lat": 42.270103, "lon": -71.625482, "proficiency": 0.67, "district": "Westborough", "city": "Westborough", "ncessch": "251260002604"}, {"name": "Westfield Middle School", "lat": 42.112984, "lon": -72.75116, "proficiency": 0.19, "district": "Westfield", "city": "Westfield", "ncessch": "251263001570"}, {"name": "Blanchard Middle", "lat": 42.592909, "lon": -71.480889, "proficiency": 0.57, "district": "Westford", "city": "Westford", "ncessch": "251266000170"}, {"name": "Stony Brook School", "lat": 42.60726, "lon": -71.4583, "proficiency": 0.67, "district": "Westford", "city": "Westford", "ncessch": "251266002080"}, {"name": "Weston Middle", "lat": 42.338791, "lon": -71.302003, "proficiency": 0.72, "district": "Weston", "city": "Weston", "ncessch": "251275000793"}, {"name": "Westport Middle-High School", "lat": 41.622667, "lon": -71.065103, "proficiency": 0.37, "district": "Westport", "city": "Westport", "ncessch": "251278002861"}, {"name": "E W Thurston Middle", "lat": 42.219328, "lon": -71.222367, "proficiency": 0.52, "district": "Westwood", "city": "Westwood", "ncessch": "251281002097"}, {"name": "Weymouth High School", "lat": 42.182452, "lon": -70.94268, "proficiency": 0.23, "district": "Weymouth", "city": "Weymouth", "ncessch": "251284002123"}, {"name": "Whitman Middle", "lat": 42.078583, "lon": -70.957482, "proficiency": 0.42, "district": "Whitman-Hanson", "city": "Whitman", "ncessch": "251293000207"}, {"name": "Hanson Middle School", "lat": 42.07677, "lon": -70.873913, "proficiency": 0.27, "district": "Whitman-Hanson", "city": "Hanson", "ncessch": "251293001286"}, {"name": "Whitman Hanson Regional", "lat": 42.073111, "lon": -70.904522, "proficiency": -0.03, "district": "Whitman-Hanson", "city": "Whitman", "ncessch": "251293002135"}, {"name": "Wilmington Middle School", "lat": 42.549341, "lon": -71.18809, "proficiency": 0.52, "district": "Wilmington", "city": "Wilmington", "ncessch": "251305001578"}, {"name": "Murdock Middle School", "lat": 42.698999, "lon": -72.043654, "proficiency": 0.17, "district": "Winchendon", "city": "Winchendon", "ncessch": "251308002796"}, {"name": "McCall Middle", "lat": 42.44994, "lon": -71.13485, "proficiency": 0.57, "district": "Winchester", "city": "Winchester", "ncessch": "251311002167"}, {"name": "Winthrop Middle School", "lat": 42.380677, "lon": -70.97984, "proficiency": 0.32, "district": "Winthrop", "city": "Winthrop", "ncessch": "251317002179"}, {"name": "Daniel L Joyce Middle School", "lat": 42.477894, "lon": -71.174478, "proficiency": 0.27, "district": "Woburn", "city": "Woburn", "ncessch": "251320002182"}, {"name": "John F Kennedy Middle School", "lat": 42.492448, "lon": -71.145356, "proficiency": 0.42, "district": "Woburn", "city": "Woburn", "ncessch": "251320002186"}, {"name": "University Pk Campus School", "lat": 42.246912, "lon": -71.825192, "proficiency": 0.245, "district": "Worcester", "city": "Worcester", "ncessch": "251323001076"}, {"name": "Claremont Academy", "lat": 42.25421, "lon": -71.817732, "proficiency": 0.025, "district": "Worcester", "city": "Worcester", "ncessch": "251323002121"}, {"name": "Burncoat Middle School", "lat": 42.296629, "lon": -71.789821, "proficiency": 0.14, "district": "Worcester", "city": "Worcester", "ncessch": "251323002202"}, {"name": "Forest Grove Middle", "lat": 42.288469, "lon": -71.813084, "proficiency": 0.16, "district": "Worcester", "city": "Worcester", "ncessch": "251323002213"}, {"name": "Sullivan Middle", "lat": 42.24361, "lon": -71.860754, "proficiency": 0.12, "district": "Worcester", "city": "Worcester", "ncessch": "251323002223"}, {"name": "Worcester East Middle", "lat": 42.252589, "lon": -71.783582, "proficiency": 0.075, "district": "Worcester", "city": "Worcester", "ncessch": "251323002253"}], "districts": [{"name": "Quabbin", "lat": 42.400522, "lon": -72.114976, "proficiency": 0.32, "schoolCount": 1}, {"name": "Spencer-E Brookfield", "lat": 42.24149, "lon": -71.98406, "proficiency": 0.075, "schoolCount": 1}, {"name": "Southwick-Tolland-Granville Regional School District", "lat": 42.060569, "lon": -72.747146, "proficiency": 0.22, "schoolCount": 1}, {"name": "Academy Of the Pacific Rim Charter Public (District)", "lat": 42.244384, "lon": -71.132363, "proficiency": 0.12, "schoolCount": 1}, {"name": "Cape Cod Lighthouse Charter (District)", "lat": 41.711505, "lon": -70.024331, "proficiency": 0.32, "schoolCount": 1}, {"name": "Innovation Academy Charter (District)", "lat": 42.659004, "lon": -71.408283, "proficiency": 0.32, "schoolCount": 1}, {"name": "Community Day Charter Public School (District)", "lat": 42.711195, "lon": -71.149251, "proficiency": 0.445, "schoolCount": 1}, {"name": "Springfield International Charter (District)", "lat": 42.125526, "lon": -72.484384, "proficiency": 0.075, "schoolCount": 1}, {"name": "Neighborhood House Charter (District)", "lat": 42.293365, "lon": -71.053553, "proficiency": 0.17, "schoolCount": 1}, {"name": "Benjamin Franklin Classical Charter Public (District)", "lat": 42.05868, "lon": -71.421026, "proficiency": 0.445, "schoolCount": 1}, {"name": "Hilltown Cooperative Charter Public (District)", "lat": 42.286671, "lon": -72.660132, "proficiency": 0.495, "schoolCount": 1}, {"name": "Lawrence Family Development Charter (District)", "lat": 42.708537, "lon": -71.173638, "proficiency": 0.22, "schoolCount": 1}, {"name": "Marblehead Community Charter Public (District)", "lat": 42.508593, "lon": -70.853273, "proficiency": 0.495, "schoolCount": 1}, {"name": "Martha's Vineyard Charter Public School (District)", "lat": 41.419303, "lon": -70.664466, "proficiency": 0.245, "schoolCount": 1}, {"name": "Francis W. Parker Charter Essential (District)", "lat": 42.548649, "lon": -71.606549, "proficiency": 0.32, "schoolCount": 1}, {"name": "South Shore Charter Public (District)", "lat": 42.156729, "lon": -70.881198, "proficiency": 0.17, "schoolCount": 1}, {"name": "Atlantis Charter (District)", "lat": 41.670113, "lon": -71.1437, "proficiency": 0.37, "schoolCount": 1}, {"name": "Up-Island Regional", "lat": 41.40327, "lon": -70.662033, "proficiency": 0.545, "schoolCount": 1}, {"name": "Pioneer Valley Performing Arts Charter Public (District)", "lat": 42.24129, "lon": -72.59941, "proficiency": 0.17, "schoolCount": 1}, {"name": "Learning First Charter Public School  (District)", "lat": 42.251166, "lon": -71.797712, "proficiency": 0.22, "schoolCount": 1}, {"name": "Prospect Hill Academy Charter (District)", "lat": 42.367515, "lon": -71.100874, "proficiency": 0.12, "schoolCount": 1}, {"name": "Abby Kelley Foster Charter Public (District)", "lat": 42.305635, "lon": -71.801599, "proficiency": 0.27, "schoolCount": 1}, {"name": "Foxborough Regional Charter (District)", "lat": 42.057287, "lon": -71.244753, "proficiency": 0.27, "schoolCount": 1}, {"name": "Boston Collegiate Charter (District)", "lat": 42.321724, "lon": -71.060802, "proficiency": 0.17, "schoolCount": 1}, {"name": "Mystic Valley Regional Charter (District)", "lat": 42.43493, "lon": -71.044171, "proficiency": 0.47, "schoolCount": 1}, {"name": "Rising Tide Charter Public (District)", "lat": 41.957336, "lon": -70.696781, "proficiency": 0.27, "schoolCount": 1}, {"name": "Conservatory Lab Charter (District)", "lat": 42.311391, "lon": -71.069476, "proficiency": 0.3, "schoolCount": 1}, {"name": "River Valley Charter (District)", "lat": 42.807224, "lon": -70.886686, "proficiency": 0.495, "schoolCount": 1}, {"name": "Roxbury Preparatory Charter (District)", "lat": 42.327624, "lon": -71.105146, "proficiency": 0.075, "schoolCount": 1}, {"name": "Lowell Community Charter Public (District)", "lat": 42.641347, "lon": -71.312117, "proficiency": 0.52, "schoolCount": 1}, {"name": "MATCH Charter Public School (District)", "lat": 42.352098, "lon": -71.121004, "proficiency": 0.17, "schoolCount": 1}, {"name": "Manchester Essex Regional", "lat": 42.582396, "lon": -70.765846, "proficiency": 0.47, "schoolCount": 1}, {"name": "Christa McAuliffe Charter School (District)", "lat": 42.30813, "lon": -71.394882, "proficiency": 0.32, "schoolCount": 1}, {"name": "Codman Academy Charter Public (District)", "lat": 42.289796, "lon": -71.071261, "proficiency": 0.1, "schoolCount": 1}, {"name": "Brooke Charter School (District)", "lat": 42.28193, "lon": -71.122109, "proficiency": 0.42, "schoolCount": 1}, {"name": "Sizer School: A North Central Charter Essential (District)", "lat": 42.602342, "lon": -71.802521, "proficiency": 0.075, "schoolCount": 1}, {"name": "Excel Academy Charter (District)", "lat": 42.382943, "lon": -71.018958, "proficiency": 0.17, "schoolCount": 1}, {"name": "Four Rivers Charter Public (District)", "lat": 42.59655, "lon": -72.621777, "proficiency": 0.1, "schoolCount": 1}, {"name": "Helen Y. Davis Leadership Academy Charter Public (District)", "lat": 42.3013, "lon": -71.0588, "proficiency": 0.22, "schoolCount": 1}, {"name": "Berkshire Arts and Technology Charter Public (District)", "lat": 42.619554, "lon": -73.12117, "proficiency": 0.22, "schoolCount": 1}, {"name": "Boston Preparatory Charter Public (District)", "lat": 42.262177, "lon": -71.110433, "proficiency": 0.12, "schoolCount": 1}, {"name": "KIPP Academy Lynn Charter (District)", "lat": 42.467758, "lon": -70.949409, "proficiency": 0.3, "schoolCount": 1}, {"name": "Hill View Montessori Charter Public (District)", "lat": 42.766253, "lon": -71.119835, "proficiency": 0.05, "schoolCount": 1}, {"name": "Salem Academy Charter (District)", "lat": 42.517675, "lon": -70.887931, "proficiency": 0.32, "schoolCount": 1}, {"name": "Advanced Math and Science Academy Charter (District)", "lat": 42.333658, "lon": -71.577779, "proficiency": 0.37, "schoolCount": 1}, {"name": "Community Charter School of Cambridge (District)", "lat": 42.367725, "lon": -71.085231, "proficiency": 0.32, "schoolCount": 1}, {"name": "Holyoke Community Charter (District)", "lat": 42.18584, "lon": -72.628668, "proficiency": 0.17, "schoolCount": 1}, {"name": "Pioneer Valley Chinese Immersion Charter (District)", "lat": 42.352984, "lon": -72.558161, "proficiency": 0.545, "schoolCount": 1}, {"name": "Pioneer Charter School of Science (District)", "lat": 42.408071, "lon": -71.051077, "proficiency": 0.745, "schoolCount": 1}, {"name": "Global Learning Charter Public (District)", "lat": 41.660053, "lon": -70.929282, "proficiency": 0.12, "schoolCount": 1}, {"name": "Hampden Charter School of Science East (District)", "lat": 42.19709, "lon": -72.563194, "proficiency": 0.27, "schoolCount": 1}, {"name": "Alma del Mar Charter School (District)", "lat": 41.665531, "lon": -70.923108, "proficiency": 0.15, "schoolCount": 1}, {"name": "Boston Green Academy Horace Mann Charter School (District)", "lat": 42.350353, "lon": -71.145895, "proficiency": 0.05, "schoolCount": 1}, {"name": "Bridge Boston Charter School (District)", "lat": 42.316841, "lon": -71.083254, "proficiency": 0.1, "schoolCount": 1}, {"name": "UP Academy Charter School of Boston (District)", "lat": 42.333615, "lon": -71.050763, "proficiency": 0.12, "schoolCount": 1}, {"name": "Community Day Charter Public School - R. Kingman Webster (Di", "lat": 42.690909, "lon": -71.155873, "proficiency": 0.545, "schoolCount": 1}, {"name": "Veritas Preparatory Charter School (District)", "lat": 42.094324, "lon": -72.574907, "proficiency": 0.37, "schoolCount": 1}, {"name": "KIPP Academy Boston Charter School (District)", "lat": 42.274575, "lon": -71.092442, "proficiency": 0.15, "schoolCount": 1}, {"name": "Community Day Charter Public School - Gateway (District)", "lat": 42.712677, "lon": -71.144901, "proficiency": 0.545, "schoolCount": 1}, {"name": "Ayer Shirley School District", "lat": 42.546083, "lon": -71.639291, "proficiency": 0.22, "schoolCount": 1}, {"name": "Monomoy Regional School District", "lat": 41.689968, "lon": -70.066924, "proficiency": 0.37, "schoolCount": 1}, {"name": "Collegiate Charter School of Lowell (District)", "lat": 42.636756, "lon": -71.359121, "proficiency": 0.32, "schoolCount": 1}, {"name": "Pioneer Charter School of Science II (District)", "lat": 42.465301, "lon": -71.018412, "proficiency": 0.42, "schoolCount": 1}, {"name": "UP Academy Charter School of Dorchester (District)", "lat": 42.299787, "lon": -71.070967, "proficiency": 0.025, "schoolCount": 1}, {"name": "Baystate Academy Charter Public School (District)", "lat": 42.134936, "lon": -72.545393, "proficiency": 0.025, "schoolCount": 1}, {"name": "Greater Commonwealth Virtual District", "lat": 42.58823, "lon": -72.602291, "proficiency": 0.27, "schoolCount": 1}, {"name": "Argosy Collegiate Charter School (District)", "lat": 41.688684, "lon": -71.161589, "proficiency": 0.17, "schoolCount": 1}, {"name": "TEC Connections Academy Commonwealth Virtual School District", "lat": 42.164095, "lon": -71.220644, "proficiency": 0.27, "schoolCount": 1}, {"name": "New Heights Charter School of Brockton (District)", "lat": 42.051907, "lon": -71.010729, "proficiency": 0.12, "schoolCount": 1}, {"name": "Libertas Academy Charter School (District)", "lat": 42.105537, "lon": -72.589495, "proficiency": 0.17, "schoolCount": 1}, {"name": "Hampden Charter School of Science West (District)", "lat": 42.102932, "lon": -72.60878, "proficiency": 0.22, "schoolCount": 1}, {"name": "Abington", "lat": 42.119058, "lon": -70.954519, "proficiency": 0.17, "schoolCount": 1}, {"name": "Acton-Boxborough", "lat": 42.477002, "lon": -71.457641, "proficiency": 0.78, "schoolCount": 1}, {"name": "Acushnet", "lat": 41.723346, "lon": -70.905145, "proficiency": 0.32, "schoolCount": 1}, {"name": "Hoosac Valley Regional", "lat": 42.594074, "lon": -73.115223, "proficiency": 0.12, "schoolCount": 1}, {"name": "Agawam", "lat": 42.063976, "lon": -72.673853, "proficiency": 0.37, "schoolCount": 1}, {"name": "Amesbury", "lat": 42.848845, "lon": -70.929489, "proficiency": 0.32, "schoolCount": 1}, {"name": "Amherst-Pelham", "lat": 42.384218, "lon": -72.510419, "proficiency": 0.445, "schoolCount": 1}, {"name": "Andover", "lat": 42.65945333333334, "lon": -71.16706633333332, "proficiency": 0.5867, "schoolCount": 3}, {"name": "Arlington", "lat": 42.421276, "lon": -71.175266, "proficiency": 0.65, "schoolCount": 1}, {"name": "Ashburnham-Westminster", "lat": 42.602873, "lon": -71.926083, "proficiency": 0.37, "schoolCount": 1}, {"name": "Ashland", "lat": 42.25135, "lon": -71.47454, "proficiency": 0.47, "schoolCount": 1}, {"name": "Athol-Royalston", "lat": 42.573104, "lon": -72.211104, "proficiency": 0.27, "schoolCount": 1}, {"name": "Attleboro", "lat": 41.920348999999995, "lon": -71.31912233333334, "proficiency": 0.32, "schoolCount": 3}, {"name": "Auburn", "lat": 42.183779, "lon": -71.869576, "proficiency": 0.42, "schoolCount": 1}, {"name": "Avon", "lat": 42.129677, "lon": -71.043032, "proficiency": 0.345, "schoolCount": 1}, {"name": "Barnstable", "lat": 41.654603, "lon": -70.320358, "proficiency": 0.16, "schoolCount": 1}, {"name": "Bedford", "lat": 42.4883, "lon": -71.28612, "proficiency": 0.62, "schoolCount": 1}, {"name": "Belchertown", "lat": 42.267451, "lon": -72.399305, "proficiency": 0.32, "schoolCount": 1}, {"name": "Bellingham", "lat": 42.0539385, "lon": -71.4797025, "proficiency": 0.07, "schoolCount": 2}, {"name": "Belmont", "lat": 42.386119, "lon": -71.170911, "proficiency": 0.59, "schoolCount": 1}, {"name": "Berkley", "lat": 41.848295, "lon": -71.086556, "proficiency": 0.37, "schoolCount": 1}, {"name": "Berkshire Hills", "lat": 42.245458, "lon": -73.330991, "proficiency": 0.22, "schoolCount": 1}, {"name": "Berlin-Boylston", "lat": 42.372469, "lon": -71.719192, "proficiency": 0.37, "schoolCount": 1}, {"name": "Beverly", "lat": 42.56491, "lon": -70.887741, "proficiency": 0.3, "schoolCount": 1}, {"name": "Billerica", "lat": 42.56196, "lon": -71.273371, "proficiency": 0.16, "schoolCount": 1}, {"name": "Blackstone-Millville", "lat": 42.02243, "lon": -71.52918, "proficiency": 0.32, "schoolCount": 1}, {"name": "Boston", "lat": 42.318223333333336, "lon": -71.09543164444445, "proficiency": 0.1464, "schoolCount": 45}, {"name": "Bourne", "lat": 41.73803, "lon": -70.589856, "proficiency": 0.27, "schoolCount": 1}, {"name": "Braintree", "lat": 42.202034, "lon": -70.9926525, "proficiency": 0.495, "schoolCount": 2}, {"name": "Bridgewater-Raynham", "lat": 41.97486266666667, "lon": -71.00165933333334, "proficiency": 0.27, "schoolCount": 3}, {"name": "Brockton", "lat": 42.076187374999996, "lon": -71.014615, "proficiency": 0.1244, "schoolCount": 8}, {"name": "Brookline", "lat": 42.3316705, "lon": -71.13407775, "proficiency": 0.7356, "schoolCount": 8}, {"name": "Burlington", "lat": 42.501449, "lon": -71.180931, "proficiency": 0.52, "schoolCount": 1}, {"name": "Cambridge", "lat": 42.372751199999996, "lon": -71.1054776, "proficiency": 0.406, "schoolCount": 5}, {"name": "Canton", "lat": 42.185788, "lon": -71.132052, "proficiency": 0.42, "schoolCount": 1}, {"name": "Carlisle", "lat": 42.526386, "lon": -71.349013, "proficiency": 0.72, "schoolCount": 1}, {"name": "Carver", "lat": 41.893506, "lon": -70.755686, "proficiency": 0.27, "schoolCount": 1}, {"name": "Central Berkshire", "lat": 42.46822, "lon": -73.13862, "proficiency": 0.27, "schoolCount": 1}, {"name": "Chelmsford", "lat": 42.619011, "lon": -71.3750465, "proficiency": 0.345, "schoolCount": 2}, {"name": "Chelsea", "lat": 42.39454733333333, "lon": -71.03492166666666, "proficiency": 0.1367, "schoolCount": 3}, {"name": "Chicopee", "lat": 42.17836233333333, "lon": -72.58035633333333, "proficiency": 0.1783, "schoolCount": 3}, {"name": "Clarksburg", "lat": 42.718343, "lon": -73.103528, "proficiency": 0.1, "schoolCount": 1}, {"name": "Clinton", "lat": 42.408692, "lon": -71.702251, "proficiency": 0.075, "schoolCount": 1}, {"name": "Cohasset", "lat": 42.232307, "lon": -70.809113, "proficiency": 0.47, "schoolCount": 1}, {"name": "Concord", "lat": 42.440268, "lon": -71.395426, "proficiency": 0.47, "schoolCount": 1}, {"name": "Danvers", "lat": 42.567834, "lon": -70.929187, "proficiency": 0.22, "schoolCount": 1}, {"name": "Dartmouth", "lat": 41.626959, "lon": -70.964567, "proficiency": 0.37, "schoolCount": 1}, {"name": "Dedham", "lat": 42.244548, "lon": -71.166157, "proficiency": 0.37, "schoolCount": 1}, {"name": "Dennis-Yarmouth", "lat": 41.677336, "lon": -70.194188, "proficiency": 0.32, "schoolCount": 1}, {"name": "Dighton-Rehoboth", "lat": 41.841341, "lon": -71.1892805, "proficiency": 0.195, "schoolCount": 2}, {"name": "Douglas", "lat": 42.070877, "lon": -71.705077, "proficiency": 0.27, "schoolCount": 1}, {"name": "Dover-Sherborn", "lat": 42.219744, "lon": -71.32332, "proficiency": 0.72, "schoolCount": 1}, {"name": "Dracut", "lat": 42.674917, "lon": -71.340195, "proficiency": 0.27, "schoolCount": 1}, {"name": "Dudley-Charlton Reg", "lat": 42.092433, "lon": -71.92707300000001, "proficiency": 0.245, "schoolCount": 2}, {"name": "Duxbury", "lat": 42.045715, "lon": -70.678669, "proficiency": 0.47, "schoolCount": 1}, {"name": "East Bridgewater", "lat": 42.027304, "lon": -70.957022, "proficiency": 0.27, "schoolCount": 1}, {"name": "East Longmeadow", "lat": 42.071291, "lon": -72.507974, "proficiency": 0.37, "schoolCount": 1}, {"name": "Nauset", "lat": 41.784025, "lon": -69.988638, "proficiency": 0.27, "schoolCount": 1}, {"name": "Easthampton", "lat": 42.252919, "lon": -72.671692, "proficiency": 0.32, "schoolCount": 1}, {"name": "Easton", "lat": 42.05863, "lon": -71.11159, "proficiency": 0.47, "schoolCount": 1}, {"name": "Oak Bluffs", "lat": 41.446514, "lon": -70.568771, "proficiency": 0.545, "schoolCount": 1}, {"name": "Everett", "lat": 42.41128716666666, "lon": -71.05482916666666, "proficiency": 0.17, "schoolCount": 6}, {"name": "Fairhaven", "lat": 41.646915, "lon": -70.898112, "proficiency": 0.37, "schoolCount": 1}, {"name": "Fall River", "lat": 41.69845828571429, "lon": -71.15631142857143, "proficiency": 0.2036, "schoolCount": 7}, {"name": "Falmouth", "lat": 41.555501, "lon": -70.615615, "proficiency": 0.27, "schoolCount": 1}, {"name": "Fitchburg", "lat": 42.58423366666667, "lon": -71.80045433333333, "proficiency": 0.1467, "schoolCount": 3}, {"name": "Florida", "lat": 42.693107, "lon": -73.03766, "proficiency": 0.245, "schoolCount": 1}, {"name": "Foxborough", "lat": 42.070432, "lon": -71.239076, "proficiency": 0.37, "schoolCount": 1}, {"name": "Framingham", "lat": 42.31653133333334, "lon": -71.41475566666666, "proficiency": 0.2717, "schoolCount": 3}, {"name": "Franklin", "lat": 42.08451233333333, "lon": -71.40717466666666, "proficiency": 0.4033, "schoolCount": 3}, {"name": "Freetown-Lakeville", "lat": 41.78962, "lon": -70.98612, "proficiency": 0.42, "schoolCount": 1}, {"name": "Frontier", "lat": 42.483477, "lon": -72.605638, "proficiency": 0.37, "schoolCount": 1}, {"name": "Gardner", "lat": 42.58351, "lon": -71.97929, "proficiency": 0.075, "schoolCount": 1}, {"name": "Gateway", "lat": 42.251029, "lon": -72.870161, "proficiency": 0.15, "schoolCount": 1}, {"name": "Georgetown", "lat": 42.724119, "lon": -70.986499, "proficiency": 0.12, "schoolCount": 1}, {"name": "Gill-Montague", "lat": 42.587467, "lon": -72.542768, "proficiency": 0.15, "schoolCount": 1}, {"name": "Gloucester", "lat": 42.629752, "lon": -70.672321, "proficiency": 0.17, "schoolCount": 1}, {"name": "Grafton", "lat": 42.212343, "lon": -71.693838, "proficiency": 0.57, "schoolCount": 1}, {"name": "Granby", "lat": 42.264668, "lon": -72.494036, "proficiency": 0.245, "schoolCount": 1}, {"name": "Greenfield", "lat": 42.605244, "lon": -72.59456, "proficiency": 0.17, "schoolCount": 1}, {"name": "Groton-Dunstable", "lat": 42.617038, "lon": -71.579915, "proficiency": 0.62, "schoolCount": 1}, {"name": "Hadley", "lat": 42.341285, "lon": -72.591522, "proficiency": 0.15, "schoolCount": 1}, {"name": "Halifax", "lat": 41.990928, "lon": -70.857868, "proficiency": -0.03, "schoolCount": 1}, {"name": "Hamilton-Wenham", "lat": 42.629386, "lon": -70.846765, "proficiency": 0.62, "schoolCount": 1}, {"name": "Hampden-Wilbraham", "lat": 42.103658, "lon": -72.43821966666667, "proficiency": 0.2117, "schoolCount": 3}, {"name": "Hampshire", "lat": 42.302622, "lon": -72.771787, "proficiency": 0.22, "schoolCount": 1}, {"name": "Hanover", "lat": 42.132146, "lon": -70.87753, "proficiency": 0.52, "schoolCount": 1}, {"name": "Harvard", "lat": 42.498337, "lon": -71.585263, "proficiency": 0.42, "schoolCount": 1}, {"name": "Hatfield", "lat": 42.375684, "lon": -72.600775, "proficiency": 0.15, "schoolCount": 1}, {"name": "Haverhill", "lat": 42.77315383333333, "lon": -71.084557, "proficiency": 0.1117, "schoolCount": 6}, {"name": "Hingham", "lat": 42.18101, "lon": -70.887595, "proficiency": 0.57, "schoolCount": 1}, {"name": "Holbrook", "lat": 42.149041, "lon": -71.005442, "proficiency": 0.27, "schoolCount": 1}, {"name": "Holliston", "lat": 42.204649, "lon": -71.423496, "proficiency": 0.37, "schoolCount": 1}, {"name": "Holyoke", "lat": 42.190943833333336, "lon": -72.63141966666667, "proficiency": 0.0625, "schoolCount": 6}, {"name": "Hopedale", "lat": 42.12889, "lon": -71.53757, "proficiency": 0.42, "schoolCount": 1}, {"name": "Hopkinton", "lat": 42.219009, "lon": -71.519116, "proficiency": 0.74, "schoolCount": 1}, {"name": "Hudson", "lat": 42.380377, "lon": -71.58054, "proficiency": 0.22, "schoolCount": 1}, {"name": "Hull", "lat": 42.297674, "lon": -70.885022, "proficiency": 0.345, "schoolCount": 1}, {"name": "Ipswich", "lat": 42.688641, "lon": -70.851354, "proficiency": 0.42, "schoolCount": 1}, {"name": "King Philip", "lat": 42.09727, "lon": -71.32754, "proficiency": 0.28, "schoolCount": 1}, {"name": "Lawrence", "lat": 42.704451899999995, "lon": -71.16371269999999, "proficiency": 0.168, "schoolCount": 10}, {"name": "Lee", "lat": 42.30653, "lon": -73.23934, "proficiency": 0.245, "schoolCount": 1}, {"name": "Leicester", "lat": 42.251369, "lon": -71.904727, "proficiency": 0.22, "schoolCount": 1}, {"name": "Lenox", "lat": 42.351705, "lon": -73.259082, "proficiency": 0.245, "schoolCount": 1}, {"name": "Leominster", "lat": 42.5169065, "lon": -71.742545, "proficiency": 0.245, "schoolCount": 2}, {"name": "Lexington", "lat": 42.4468075, "lon": -71.228768, "proficiency": 0.72, "schoolCount": 2}, {"name": "Lincoln", "lat": 42.4408315, "lon": -71.2958335, "proficiency": 0.545, "schoolCount": 2}, {"name": "Littleton", "lat": 42.542979, "lon": -71.485291, "proficiency": 0.42, "schoolCount": 1}, {"name": "Longmeadow", "lat": 42.0483265, "lon": -72.5586975, "proficiency": 0.37, "schoolCount": 2}, {"name": "Lowell", "lat": 42.63504018181818, "lon": -71.31421954545455, "proficiency": 0.1809, "schoolCount": 11}, {"name": "Ludlow", "lat": 42.172297, "lon": -72.459785, "proficiency": 0.17, "schoolCount": 1}, {"name": "Lunenburg", "lat": 42.599267, "lon": -71.720472, "proficiency": 0.37, "schoolCount": 1}, {"name": "Lynn", "lat": 42.4705122, "lon": -70.95657220000001, "proficiency": 0.124, "schoolCount": 5}, {"name": "Lynnfield", "lat": 42.537423, "lon": -71.051388, "proficiency": 0.62, "schoolCount": 1}, {"name": "Malden", "lat": 42.430902, "lon": -71.0554248, "proficiency": 0.345, "schoolCount": 5}, {"name": "Mansfield", "lat": 42.02909, "lon": -71.206362, "proficiency": 0.47, "schoolCount": 1}, {"name": "Marblehead", "lat": 42.497987, "lon": -70.861351, "proficiency": 0.72, "schoolCount": 1}, {"name": "Marlborough", "lat": 42.357383, "lon": -71.548459, "proficiency": 0.22, "schoolCount": 1}, {"name": "Marshfield", "lat": 42.106724, "lon": -70.737942, "proficiency": 0.45, "schoolCount": 1}, {"name": "Masconomet", "lat": 42.627798, "lon": -70.974842, "proficiency": 0.47, "schoolCount": 1}, {"name": "Mashpee", "lat": 41.614857, "lon": -70.506235, "proficiency": 0.22, "schoolCount": 1}, {"name": "Maynard", "lat": 42.421524, "lon": -71.456675, "proficiency": 0.37, "schoolCount": 1}, {"name": "Medfield", "lat": 42.18638, "lon": -71.29552, "proficiency": 0.57, "schoolCount": 1}, {"name": "Medford", "lat": 42.4103845, "lon": -71.098226, "proficiency": 0.27, "schoolCount": 2}, {"name": "Medway", "lat": 42.145756, "lon": -71.406989, "proficiency": 0.52, "schoolCount": 1}, {"name": "Melrose", "lat": 42.464275, "lon": -71.066568, "proficiency": 0.42, "schoolCount": 1}, {"name": "Mendon-Upton", "lat": 42.1305, "lon": -71.57269, "proficiency": 0.32, "schoolCount": 1}, {"name": "Methuen", "lat": 42.734947500000004, "lon": -71.189583, "proficiency": 0.2575, "schoolCount": 4}, {"name": "Middleborough", "lat": 41.888749, "lon": -70.895072, "proficiency": 0.32, "schoolCount": 1}, {"name": "Milford", "lat": 42.14339, "lon": -71.520105, "proficiency": 0.23, "schoolCount": 1}, {"name": "Millbury", "lat": 42.19995, "lon": -71.76752, "proficiency": 0.32, "schoolCount": 1}, {"name": "Millis", "lat": 42.162639, "lon": -71.35774, "proficiency": 0.47, "schoolCount": 1}, {"name": "Milton", "lat": 42.257856, "lon": -71.083598, "proficiency": 0.42, "schoolCount": 1}, {"name": "Mohawk Trail", "lat": 42.616376, "lon": -72.755787, "proficiency": 0.15, "schoolCount": 1}, {"name": "Monson", "lat": 42.115341, "lon": -72.324032, "proficiency": 0.245, "schoolCount": 1}, {"name": "Mount Greylock", "lat": 42.671437, "lon": -73.241091, "proficiency": 0.37, "schoolCount": 1}, {"name": "Nantucket", "lat": 41.273095, "lon": -70.098876, "proficiency": 0.17, "schoolCount": 1}, {"name": "Narragansett", "lat": 42.587922, "lon": -72.074137, "proficiency": 0.22, "schoolCount": 1}, {"name": "Nashoba", "lat": 42.44627366666666, "lon": -71.59697466666667, "proficiency": 0.57, "schoolCount": 3}, {"name": "Natick", "lat": 42.296497, "lon": -71.370456, "proficiency": 0.595, "schoolCount": 2}, {"name": "Needham", "lat": 42.27674, "lon": -71.22661, "proficiency": 0.69, "schoolCount": 1}, {"name": "New Bedford", "lat": 41.64228, "lon": -70.931704, "proficiency": 0.112, "schoolCount": 5}, {"name": "Newburyport", "lat": 42.808714, "lon": -70.887204, "proficiency": 0.47, "schoolCount": 1}, {"name": "Newton", "lat": 42.3326505, "lon": -71.1940985, "proficiency": 0.695, "schoolCount": 4}, {"name": "North Adams", "lat": 42.6698, "lon": -73.096031, "proficiency": 0.17, "schoolCount": 1}, {"name": "North Andover", "lat": 42.69286, "lon": -71.121721, "proficiency": 0.38, "schoolCount": 1}, {"name": "North Attleborough", "lat": 41.983236, "lon": -71.31058, "proficiency": 0.42, "schoolCount": 1}, {"name": "North Brookfield", "lat": 42.277207, "lon": -72.07855, "proficiency": 0.05, "schoolCount": 1}, {"name": "North Middlesex", "lat": 42.6742155, "lon": -71.646942, "proficiency": 0.42, "schoolCount": 2}, {"name": "North Reading", "lat": 42.578309, "lon": -71.084864, "proficiency": 0.57, "schoolCount": 1}, {"name": "Northampton", "lat": 42.345372, "lon": -72.677196, "proficiency": 0.22, "schoolCount": 1}, {"name": "Northborough", "lat": 42.319991, "lon": -71.659344, "proficiency": 0.47, "schoolCount": 1}, {"name": "Northbridge", "lat": 42.10877, "lon": -71.657529, "proficiency": 0.42, "schoolCount": 1}, {"name": "Norton", "lat": 41.959079, "lon": -71.213599, "proficiency": 0.32, "schoolCount": 1}, {"name": "Norwell", "lat": 42.156141, "lon": -70.819877, "proficiency": 0.47, "schoolCount": 1}, {"name": "Norwood", "lat": 42.172428, "lon": -71.210773, "proficiency": 0.32, "schoolCount": 1}, {"name": "Edgartown", "lat": 41.389828, "lon": -70.521811, "proficiency": 0.345, "schoolCount": 1}, {"name": "Old Rochester", "lat": 41.671421, "lon": -70.777404, "proficiency": 0.37, "schoolCount": 1}, {"name": "Oxford", "lat": 42.13696, "lon": -71.872075, "proficiency": 0.12, "schoolCount": 1}, {"name": "Palmer", "lat": 42.185599, "lon": -72.339622, "proficiency": 0.22, "schoolCount": 1}, {"name": "Peabody", "lat": 42.525684, "lon": -70.941094, "proficiency": 0.25, "schoolCount": 1}, {"name": "Pembroke", "lat": 42.031636, "lon": -70.802335, "proficiency": 0.52, "schoolCount": 1}, {"name": "Pentucket", "lat": 42.780872, "lon": -71.01358, "proficiency": 0.32, "schoolCount": 1}, {"name": "Pioneer Valley", "lat": 42.683668, "lon": -72.484978, "proficiency": 0.15, "schoolCount": 1}, {"name": "Pittsfield", "lat": 42.450565000000005, "lon": -73.24567333333333, "proficiency": 0.1467, "schoolCount": 3}, {"name": "Plymouth", "lat": 41.904644, "lon": -70.6365145, "proficiency": 0.24, "schoolCount": 2}, {"name": "Provincetown", "lat": 42.051539, "lon": -70.190348, "proficiency": 0.245, "schoolCount": 1}, {"name": "Quincy", "lat": 42.2574254, "lon": -71.0057552, "proficiency": 0.32, "schoolCount": 5}, {"name": "Ralph C Mahar", "lat": 42.574559, "lon": -72.302801, "proficiency": 0.27, "schoolCount": 1}, {"name": "Randolph", "lat": 42.18378, "lon": -71.06511, "proficiency": 0.27, "schoolCount": 1}, {"name": "Reading", "lat": 42.5306375, "lon": -71.112867, "proficiency": 0.445, "schoolCount": 2}, {"name": "Revere", "lat": 42.412370333333335, "lon": -71.00580666666667, "proficiency": 0.17, "schoolCount": 3}, {"name": "Richmond", "lat": 42.381855, "lon": -73.367009, "proficiency": 0.245, "schoolCount": 1}, {"name": "Rochester", "lat": 41.747139, "lon": -70.86672, "proficiency": -0.03, "schoolCount": 1}, {"name": "Rockland", "lat": 42.12826, "lon": -70.918133, "proficiency": 0.27, "schoolCount": 1}, {"name": "Rockport", "lat": 42.651875, "lon": -70.610152, "proficiency": 0.27, "schoolCount": 1}, {"name": "Salem", "lat": 42.513994, "lon": -70.898464, "proficiency": 0.16, "schoolCount": 2}, {"name": "Sandwich", "lat": 41.735678, "lon": -70.458785, "proficiency": 0.12, "schoolCount": 2}, {"name": "Saugus", "lat": 42.458547, "lon": -71.014575, "proficiency": 0.32, "schoolCount": 1}, {"name": "Scituate", "lat": 42.199498, "lon": -70.76836, "proficiency": 0.47, "schoolCount": 1}, {"name": "Seekonk", "lat": 41.860197, "lon": -71.330813, "proficiency": 0.42, "schoolCount": 1}, {"name": "Sharon", "lat": 42.10629, "lon": -71.16481, "proficiency": 0.52, "schoolCount": 1}, {"name": "Shrewsbury", "lat": 42.28239, "lon": -71.72713, "proficiency": 0.63, "schoolCount": 1}, {"name": "Silver Lake", "lat": 42.014337, "lon": -70.782104, "proficiency": 0.42, "schoolCount": 1}, {"name": "Somerset", "lat": 41.739168, "lon": -71.164068, "proficiency": 0.17, "schoolCount": 1}, {"name": "Somerville", "lat": 42.39112757142857, "lon": -71.10121885714285, "proficiency": 0.3564, "schoolCount": 7}, {"name": "South Hadley", "lat": 42.245943, "lon": -72.577518, "proficiency": 0.17, "schoolCount": 1}, {"name": "Southborough", "lat": 42.299391, "lon": -71.542171, "proficiency": 0.72, "schoolCount": 1}, {"name": "Southbridge", "lat": 42.0787725, "lon": -72.0233025, "proficiency": 0.16, "schoolCount": 2}, {"name": "Southern Berkshire", "lat": 42.106196, "lon": -73.374486, "proficiency": 0.05, "schoolCount": 1}, {"name": "Springfield", "lat": 42.119106352941174, "lon": -72.57345688235294, "proficiency": 0.1265, "schoolCount": 17}, {"name": "Stoneham", "lat": 42.484976, "lon": -71.096406, "proficiency": 0.42, "schoolCount": 1}, {"name": "Stoughton", "lat": 42.129669, "lon": -71.112336, "proficiency": 0.27, "schoolCount": 1}, {"name": "Sudbury", "lat": 42.380676, "lon": -71.433501, "proficiency": 0.62, "schoolCount": 1}, {"name": "Sutton", "lat": 42.144133, "lon": -71.770594, "proficiency": 0.17, "schoolCount": 1}, {"name": "Swampscott", "lat": 42.47382, "lon": -70.902819, "proficiency": 0.32, "schoolCount": 1}, {"name": "Swansea", "lat": 41.749975, "lon": -71.193681, "proficiency": 0.32, "schoolCount": 1}, {"name": "Tantasqua", "lat": 42.160097, "lon": -72.126921, "proficiency": 0.42, "schoolCount": 1}, {"name": "Taunton", "lat": 41.901542, "lon": -71.071216, "proficiency": 0.16, "schoolCount": 1}, {"name": "Tewksbury", "lat": 42.601489, "lon": -71.213741, "proficiency": 0.42, "schoolCount": 1}, {"name": "Triton", "lat": 42.744721, "lon": -70.919401, "proficiency": 0.27, "schoolCount": 1}, {"name": "Tyngsborough", "lat": 42.69671, "lon": -71.4067, "proficiency": 0.47, "schoolCount": 1}, {"name": "Uxbridge", "lat": 42.051153, "lon": -71.618045, "proficiency": 0.17, "schoolCount": 1}, {"name": "Wachusett", "lat": 42.3741718, "lon": -71.8660576, "proficiency": 0.375, "schoolCount": 5}, {"name": "Wakefield", "lat": 42.499668, "lon": -71.071132, "proficiency": 0.27, "schoolCount": 1}, {"name": "Walpole", "lat": 42.149736000000004, "lon": -71.2443105, "proficiency": 0.495, "schoolCount": 2}, {"name": "Waltham", "lat": 42.387788, "lon": -71.232883, "proficiency": 0.345, "schoolCount": 2}, {"name": "Ware", "lat": 42.250131, "lon": -72.263203, "proficiency": 0.025, "schoolCount": 1}, {"name": "Wareham", "lat": 41.755448, "lon": -70.719578, "proficiency": 0.17, "schoolCount": 1}, {"name": "Quaboag Regional", "lat": 42.220584, "lon": -72.188142, "proficiency": 0.22, "schoolCount": 1}, {"name": "Watertown", "lat": 42.372839, "lon": -71.191657, "proficiency": 0.37, "schoolCount": 1}, {"name": "Wayland", "lat": 42.324205, "lon": -71.36144, "proficiency": 0.72, "schoolCount": 1}, {"name": "Webster", "lat": 42.043769, "lon": -71.870216, "proficiency": 0.12, "schoolCount": 1}, {"name": "Wellesley", "lat": 42.303926, "lon": -71.289662, "proficiency": 0.59, "schoolCount": 1}, {"name": "West Boylston", "lat": 42.37347, "lon": -71.7909, "proficiency": 0.42, "schoolCount": 1}, {"name": "West Bridgewater", "lat": 42.020267, "lon": -71.01689, "proficiency": 0.17, "schoolCount": 1}, {"name": "West Springfield", "lat": 42.126108, "lon": -72.646944, "proficiency": 0.22, "schoolCount": 1}, {"name": "Tisbury", "lat": 41.452659, "lon": -70.609834, "proficiency": 0.445, "schoolCount": 1}, {"name": "Westborough", "lat": 42.270103, "lon": -71.625482, "proficiency": 0.67, "schoolCount": 1}, {"name": "Westfield", "lat": 42.112984, "lon": -72.75116, "proficiency": 0.19, "schoolCount": 1}, {"name": "Westford", "lat": 42.600084499999994, "lon": -71.4695945, "proficiency": 0.62, "schoolCount": 2}, {"name": "Weston", "lat": 42.338791, "lon": -71.302003, "proficiency": 0.72, "schoolCount": 1}, {"name": "Westport", "lat": 41.622667, "lon": -71.065103, "proficiency": 0.37, "schoolCount": 1}, {"name": "Westwood", "lat": 42.219328, "lon": -71.222367, "proficiency": 0.52, "schoolCount": 1}, {"name": "Weymouth", "lat": 42.182452, "lon": -70.94268, "proficiency": 0.23, "schoolCount": 1}, {"name": "Whitman-Hanson", "lat": 42.07615466666667, "lon": -70.91197233333334, "proficiency": 0.22, "schoolCount": 3}, {"name": "Wilmington", "lat": 42.549341, "lon": -71.18809, "proficiency": 0.52, "schoolCount": 1}, {"name": "Winchendon", "lat": 42.698999, "lon": -72.043654, "proficiency": 0.17, "schoolCount": 1}, {"name": "Winchester", "lat": 42.44994, "lon": -71.13485, "proficiency": 0.57, "schoolCount": 1}, {"name": "Winthrop", "lat": 42.380677, "lon": -70.97984, "proficiency": 0.32, "schoolCount": 1}, {"name": "Woburn", "lat": 42.485171, "lon": -71.15991700000001, "proficiency": 0.345, "schoolCount": 2}, {"name": "Worcester", "lat": 42.2637365, "lon": -71.8150275, "proficiency": 0.1275, "schoolCount": 6}], "cities": [{"name": "Barre", "lat": 42.400522, "lon": -72.114976, "proficiency": 0.32, "schoolCount": 1}, {"name": "Spencer", "lat": 42.24149, "lon": -71.98406, "proficiency": 0.075, "schoolCount": 1}, {"name": "Southwick", "lat": 42.060569, "lon": -72.747146, "proficiency": 0.22, "schoolCount": 1}, {"name": "Hyde Park", "lat": 42.2531835, "lon": -71.12123174999999, "proficiency": 0.1338, "schoolCount": 4}, {"name": "East Harwich", "lat": 41.711505, "lon": -70.024331, "proficiency": 0.32, "schoolCount": 1}, {"name": "Tyngsboro", "lat": 42.659004, "lon": -71.408283, "proficiency": 0.32, "schoolCount": 1}, {"name": "Lawrence", "lat": 42.7048455, "lon": -71.161485, "proficiency": 0.2454, "schoolCount": 14}, {"name": "Springfield", "lat": 42.11833957142857, "lon": -72.56871171428571, "proficiency": 0.1329, "schoolCount": 21}, {"name": "Dorchester", "lat": 42.30418085714286, "lon": -71.07270257142856, "proficiency": 0.1761, "schoolCount": 14}, {"name": "Franklin", "lat": 42.07805425, "lon": -71.4106375, "proficiency": 0.4138, "schoolCount": 4}, {"name": "Easthampton", "lat": 42.269795, "lon": -72.66591199999999, "proficiency": 0.4075, "schoolCount": 2}, {"name": "Marblehead", "lat": 42.50329, "lon": -70.85731200000001, "proficiency": 0.6075, "schoolCount": 2}, {"name": "West Tisbury", "lat": 41.4112865, "lon": -70.6632495, "proficiency": 0.395, "schoolCount": 2}, {"name": "Devens", "lat": 42.548649, "lon": -71.606549, "proficiency": 0.32, "schoolCount": 1}, {"name": "Norwell", "lat": 42.156435, "lon": -70.8505375, "proficiency": 0.32, "schoolCount": 2}, {"name": "Fall River", "lat": 41.69422277777778, "lon": -71.15549655555554, "proficiency": 0.2183, "schoolCount": 9}, {"name": "South Hadley", "lat": 42.2436165, "lon": -72.588464, "proficiency": 0.17, "schoolCount": 2}, {"name": "Worcester", "lat": 42.2674025, "lon": -71.8111845, "proficiency": 0.1569, "schoolCount": 8}, {"name": "Cambridge", "lat": 42.37128514285714, "lon": -71.10192757142856, "proficiency": 0.3529, "schoolCount": 7}, {"name": "Foxborough", "lat": 42.0638595, "lon": -71.24191450000001, "proficiency": 0.32, "schoolCount": 2}, {"name": "Malden", "lat": 42.43157333333333, "lon": -71.05354916666667, "proficiency": 0.3658, "schoolCount": 6}, {"name": "Plymouth", "lat": 41.922208, "lon": -70.65660333333334, "proficiency": 0.25, "schoolCount": 3}, {"name": "Newburyport", "lat": 42.807969, "lon": -70.886945, "proficiency": 0.4825, "schoolCount": 2}, {"name": "Roxbury", "lat": 42.325670555555554, "lon": -71.09001355555556, "proficiency": 0.1356, "schoolCount": 9}, {"name": "Lowell", "lat": 42.637942333333335, "lon": -71.31861316666667, "proficiency": 0.2383, "schoolCount": 12}, {"name": "Boston", "lat": 42.33611775, "lon": -71.07823125, "proficiency": 0.2244, "schoolCount": 8}, {"name": "Manchester", "lat": 42.582396, "lon": -70.765846, "proficiency": 0.47, "schoolCount": 1}, {"name": "Framingham", "lat": 42.314431, "lon": -71.40978725, "proficiency": 0.2838, "schoolCount": 4}, {"name": "Roslindale", "lat": 42.284038, "lon": -71.11819, "proficiency": 0.1817, "schoolCount": 3}, {"name": "Fitchburg", "lat": 42.58876075, "lon": -71.800971, "proficiency": 0.1288, "schoolCount": 4}, {"name": "East Boston", "lat": 42.37684266666667, "lon": -71.03129433333334, "proficiency": 0.1367, "schoolCount": 3}, {"name": "Greenfield", "lat": 42.596674666666665, "lon": -72.60620933333333, "proficiency": 0.18, "schoolCount": 3}, {"name": "Adams", "lat": 42.619554, "lon": -73.12117, "proficiency": 0.22, "schoolCount": 1}, {"name": "Lynn", "lat": 42.470053166666666, "lon": -70.95537833333333, "proficiency": 0.1533, "schoolCount": 6}, {"name": "Haverhill", "lat": 42.77268900000001, "lon": -71.09136733333334, "proficiency": 0.125, "schoolCount": 6}, {"name": "Salem", "lat": 42.515221, "lon": -70.894953, "proficiency": 0.2133, "schoolCount": 3}, {"name": "Marlborough", "lat": 42.3455205, "lon": -71.563119, "proficiency": 0.295, "schoolCount": 2}, {"name": "Holyoke", "lat": 42.190214714285716, "lon": -72.63102657142858, "proficiency": 0.0779, "schoolCount": 7}, {"name": "Hadley", "lat": 42.347134499999996, "lon": -72.57484149999999, "proficiency": 0.3475, "schoolCount": 2}, {"name": "Everett", "lat": 42.41082771428571, "lon": -71.05429314285713, "proficiency": 0.2521, "schoolCount": 7}, {"name": "New Bedford", "lat": 41.64814057142858, "lon": -70.93012999999999, "proficiency": 0.1186, "schoolCount": 7}, {"name": "Chicopee", "lat": 42.18304425, "lon": -72.57606575, "proficiency": 0.2013, "schoolCount": 4}, {"name": "Brighton", "lat": 42.34897466666666, "lon": -71.15588100000001, "proficiency": 0.1, "schoolCount": 3}, {"name": "South Boston", "lat": 42.334628, "lon": -71.04464166666666, "proficiency": 0.1467, "schoolCount": 3}, {"name": "Mattapan", "lat": 42.277651, "lon": -71.09292966666668, "proficiency": 0.075, "schoolCount": 3}, {"name": "Shirley", "lat": 42.546083, "lon": -71.639291, "proficiency": 0.22, "schoolCount": 1}, {"name": "Harwich", "lat": 41.689968, "lon": -70.066924, "proficiency": 0.37, "schoolCount": 1}, {"name": "Saugus", "lat": 42.461923999999996, "lon": -71.0164935, "proficiency": 0.37, "schoolCount": 2}, {"name": "East Walpole", "lat": 42.156293000000005, "lon": -71.2263505, "proficiency": 0.32, "schoolCount": 2}, {"name": "Brockton", "lat": 42.073489555555554, "lon": -71.01418322222223, "proficiency": 0.1239, "schoolCount": 9}, {"name": "West Springfield", "lat": 42.11452, "lon": -72.627862, "proficiency": 0.22, "schoolCount": 2}, {"name": "Abington", "lat": 42.119058, "lon": -70.954519, "proficiency": 0.17, "schoolCount": 1}, {"name": "Acton", "lat": 42.477002, "lon": -71.457641, "proficiency": 0.78, "schoolCount": 1}, {"name": "Acushnet", "lat": 41.723346, "lon": -70.905145, "proficiency": 0.32, "schoolCount": 1}, {"name": "Cheshire", "lat": 42.594074, "lon": -73.115223, "proficiency": 0.12, "schoolCount": 1}, {"name": "Feeding Hills", "lat": 42.063976, "lon": -72.673853, "proficiency": 0.37, "schoolCount": 1}, {"name": "Amesbury", "lat": 42.848845, "lon": -70.929489, "proficiency": 0.32, "schoolCount": 1}, {"name": "Amherst", "lat": 42.384218, "lon": -72.510419, "proficiency": 0.445, "schoolCount": 1}, {"name": "Andover", "lat": 42.65945333333334, "lon": -71.16706633333332, "proficiency": 0.5867, "schoolCount": 3}, {"name": "Arlington", "lat": 42.421276, "lon": -71.175266, "proficiency": 0.65, "schoolCount": 1}, {"name": "Ashburnham", "lat": 42.602873, "lon": -71.926083, "proficiency": 0.37, "schoolCount": 1}, {"name": "Ashland", "lat": 42.25135, "lon": -71.47454, "proficiency": 0.47, "schoolCount": 1}, {"name": "Athol", "lat": 42.573104, "lon": -72.211104, "proficiency": 0.27, "schoolCount": 1}, {"name": "Attleboro", "lat": 41.920348999999995, "lon": -71.31912233333334, "proficiency": 0.32, "schoolCount": 3}, {"name": "Auburn", "lat": 42.183779, "lon": -71.869576, "proficiency": 0.42, "schoolCount": 1}, {"name": "Avon", "lat": 42.129677, "lon": -71.043032, "proficiency": 0.345, "schoolCount": 1}, {"name": "Hyannis", "lat": 41.654603, "lon": -70.320358, "proficiency": 0.16, "schoolCount": 1}, {"name": "Bedford", "lat": 42.4883, "lon": -71.28612, "proficiency": 0.62, "schoolCount": 1}, {"name": "Belchertown", "lat": 42.267451, "lon": -72.399305, "proficiency": 0.32, "schoolCount": 1}, {"name": "Bellingham", "lat": 42.0539385, "lon": -71.4797025, "proficiency": 0.07, "schoolCount": 2}, {"name": "Belmont", "lat": 42.386119, "lon": -71.170911, "proficiency": 0.59, "schoolCount": 1}, {"name": "Berkley", "lat": 41.848295, "lon": -71.086556, "proficiency": 0.37, "schoolCount": 1}, {"name": "Great Barrington", "lat": 42.245458, "lon": -73.330991, "proficiency": 0.22, "schoolCount": 1}, {"name": "Boylston", "lat": 42.372469, "lon": -71.719192, "proficiency": 0.37, "schoolCount": 1}, {"name": "Beverly", "lat": 42.56491, "lon": -70.887741, "proficiency": 0.3, "schoolCount": 1}, {"name": "Billerica", "lat": 42.56196, "lon": -71.273371, "proficiency": 0.16, "schoolCount": 1}, {"name": "Blackstone", "lat": 42.02243, "lon": -71.52918, "proficiency": 0.32, "schoolCount": 1}, {"name": "Allston", "lat": 42.355435, "lon": -71.13645233333334, "proficiency": 0.115, "schoolCount": 3}, {"name": "Jamaica Plain", "lat": 42.311652, "lon": -71.11249749999999, "proficiency": 0.0425, "schoolCount": 4}, {"name": "West Roxbury", "lat": 42.27178166666667, "lon": -71.156775, "proficiency": 0.1067, "schoolCount": 3}, {"name": "Charlestown", "lat": 42.378049, "lon": -71.064433, "proficiency": 0.3, "schoolCount": 1}, {"name": "Bourne", "lat": 41.73803, "lon": -70.589856, "proficiency": 0.27, "schoolCount": 1}, {"name": "Braintree", "lat": 42.202034, "lon": -70.9926525, "proficiency": 0.495, "schoolCount": 2}, {"name": "Raynham", "lat": 41.945946, "lon": -71.035824, "proficiency": 0.42, "schoolCount": 1}, {"name": "Bridgewater", "lat": 41.989321000000004, "lon": -70.984577, "proficiency": 0.195, "schoolCount": 2}, {"name": "Chestnut Hill", "lat": 42.3153485, "lon": -71.1532465, "proficiency": 0.7325, "schoolCount": 2}, {"name": "Brookline", "lat": 42.337111166666666, "lon": -71.12768816666666, "proficiency": 0.7367, "schoolCount": 6}, {"name": "Burlington", "lat": 42.501449, "lon": -71.180931, "proficiency": 0.52, "schoolCount": 1}, {"name": "Canton", "lat": 42.185788, "lon": -71.132052, "proficiency": 0.42, "schoolCount": 1}, {"name": "Carlisle", "lat": 42.526386, "lon": -71.349013, "proficiency": 0.72, "schoolCount": 1}, {"name": "Carver", "lat": 41.893506, "lon": -70.755686, "proficiency": 0.27, "schoolCount": 1}, {"name": "Dalton", "lat": 42.46822, "lon": -73.13862, "proficiency": 0.27, "schoolCount": 1}, {"name": "Chelmsford", "lat": 42.61541966666667, "lon": -71.35146266666668, "proficiency": 0.22, "schoolCount": 3}, {"name": "Chelsea", "lat": 42.39454733333333, "lon": -71.03492166666666, "proficiency": 0.1367, "schoolCount": 3}, {"name": "Clarksburg", "lat": 42.718343, "lon": -73.103528, "proficiency": 0.1, "schoolCount": 1}, {"name": "Clinton", "lat": 42.408692, "lon": -71.702251, "proficiency": 0.075, "schoolCount": 1}, {"name": "Cohasset", "lat": 42.232307, "lon": -70.809113, "proficiency": 0.47, "schoolCount": 1}, {"name": "Concord", "lat": 42.440268, "lon": -71.395426, "proficiency": 0.47, "schoolCount": 1}, {"name": "Danvers", "lat": 42.567834, "lon": -70.929187, "proficiency": 0.22, "schoolCount": 1}, {"name": "North Dartmouth", "lat": 41.626959, "lon": -70.964567, "proficiency": 0.37, "schoolCount": 1}, {"name": "Dedham", "lat": 42.244548, "lon": -71.166157, "proficiency": 0.37, "schoolCount": 1}, {"name": "South Yarmouth", "lat": 41.677336, "lon": -70.194188, "proficiency": 0.32, "schoolCount": 1}, {"name": "Dighton", "lat": 41.8351, "lon": -71.122579, "proficiency": 0.12, "schoolCount": 1}, {"name": "Rehoboth", "lat": 41.847582, "lon": -71.255982, "proficiency": 0.27, "schoolCount": 1}, {"name": "Douglas", "lat": 42.070877, "lon": -71.705077, "proficiency": 0.27, "schoolCount": 1}, {"name": "Dover", "lat": 42.219744, "lon": -71.32332, "proficiency": 0.72, "schoolCount": 1}, {"name": "Dracut", "lat": 42.674917, "lon": -71.340195, "proficiency": 0.27, "schoolCount": 1}, {"name": "Dudley", "lat": 42.055018, "lon": -71.914052, "proficiency": 0.27, "schoolCount": 1}, {"name": "Charlton", "lat": 42.129848, "lon": -71.940094, "proficiency": 0.22, "schoolCount": 1}, {"name": "Duxbury", "lat": 42.045715, "lon": -70.678669, "proficiency": 0.47, "schoolCount": 1}, {"name": "East Bridgewater", "lat": 42.027304, "lon": -70.957022, "proficiency": 0.27, "schoolCount": 1}, {"name": "East Longmeadow", "lat": 42.071291, "lon": -72.507974, "proficiency": 0.37, "schoolCount": 1}, {"name": "Orleans", "lat": 41.784025, "lon": -69.988638, "proficiency": 0.27, "schoolCount": 1}, {"name": "North Easton", "lat": 42.05863, "lon": -71.11159, "proficiency": 0.47, "schoolCount": 1}, {"name": "Oak Bluffs", "lat": 41.446514, "lon": -70.568771, "proficiency": 0.545, "schoolCount": 1}, {"name": "Fairhaven", "lat": 41.646915, "lon": -70.898112, "proficiency": 0.37, "schoolCount": 1}, {"name": "Falmouth", "lat": 41.555501, "lon": -70.615615, "proficiency": 0.27, "schoolCount": 1}, {"name": "Florida", "lat": 42.693107, "lon": -73.03766, "proficiency": 0.245, "schoolCount": 1}, {"name": "Lakeville", "lat": 41.78962, "lon": -70.98612, "proficiency": 0.42, "schoolCount": 1}, {"name": "South Deerfield", "lat": 42.483477, "lon": -72.605638, "proficiency": 0.37, "schoolCount": 1}, {"name": "Gardner", "lat": 42.58351, "lon": -71.97929, "proficiency": 0.075, "schoolCount": 1}, {"name": "Huntington", "lat": 42.251029, "lon": -72.870161, "proficiency": 0.15, "schoolCount": 1}, {"name": "Georgetown", "lat": 42.724119, "lon": -70.986499, "proficiency": 0.12, "schoolCount": 1}, {"name": "Montague", "lat": 42.587467, "lon": -72.542768, "proficiency": 0.15, "schoolCount": 1}, {"name": "Gloucester", "lat": 42.629752, "lon": -70.672321, "proficiency": 0.17, "schoolCount": 1}, {"name": "Grafton", "lat": 42.212343, "lon": -71.693838, "proficiency": 0.57, "schoolCount": 1}, {"name": "Granby", "lat": 42.264668, "lon": -72.494036, "proficiency": 0.245, "schoolCount": 1}, {"name": "Groton", "lat": 42.617038, "lon": -71.579915, "proficiency": 0.62, "schoolCount": 1}, {"name": "Halifax", "lat": 41.990928, "lon": -70.857868, "proficiency": -0.03, "schoolCount": 1}, {"name": "Hamilton", "lat": 42.629386, "lon": -70.846765, "proficiency": 0.62, "schoolCount": 1}, {"name": "Hampden", "lat": 42.066664, "lon": -72.412134, "proficiency": 0.245, "schoolCount": 1}, {"name": "Wilbraham", "lat": 42.122155, "lon": -72.4512625, "proficiency": 0.195, "schoolCount": 2}, {"name": "Westhampton", "lat": 42.302622, "lon": -72.771787, "proficiency": 0.22, "schoolCount": 1}, {"name": "Hanover", "lat": 42.132146, "lon": -70.87753, "proficiency": 0.52, "schoolCount": 1}, {"name": "Harvard", "lat": 42.498337, "lon": -71.585263, "proficiency": 0.42, "schoolCount": 1}, {"name": "Hatfield", "lat": 42.375684, "lon": -72.600775, "proficiency": 0.15, "schoolCount": 1}, {"name": "Bradford", "lat": 42.769042, "lon": -71.078973, "proficiency": -0.03, "schoolCount": 1}, {"name": "Hingham", "lat": 42.18101, "lon": -70.887595, "proficiency": 0.57, "schoolCount": 1}, {"name": "Holbrook", "lat": 42.149041, "lon": -71.005442, "proficiency": 0.27, "schoolCount": 1}, {"name": "Holliston", "lat": 42.204649, "lon": -71.423496, "proficiency": 0.37, "schoolCount": 1}, {"name": "Hopedale", "lat": 42.12889, "lon": -71.53757, "proficiency": 0.42, "schoolCount": 1}, {"name": "Hopkinton", "lat": 42.219009, "lon": -71.519116, "proficiency": 0.74, "schoolCount": 1}, {"name": "Hudson", "lat": 42.380377, "lon": -71.58054, "proficiency": 0.22, "schoolCount": 1}, {"name": "Hull", "lat": 42.297674, "lon": -70.885022, "proficiency": 0.345, "schoolCount": 1}, {"name": "Ipswich", "lat": 42.688641, "lon": -70.851354, "proficiency": 0.42, "schoolCount": 1}, {"name": "Norfolk", "lat": 42.09727, "lon": -71.32754, "proficiency": 0.28, "schoolCount": 1}, {"name": "Lee", "lat": 42.30653, "lon": -73.23934, "proficiency": 0.245, "schoolCount": 1}, {"name": "Leicester", "lat": 42.251369, "lon": -71.904727, "proficiency": 0.22, "schoolCount": 1}, {"name": "Lenox", "lat": 42.351705, "lon": -73.259082, "proficiency": 0.245, "schoolCount": 1}, {"name": "Leominster", "lat": 42.5169065, "lon": -71.742545, "proficiency": 0.245, "schoolCount": 2}, {"name": "Lexington", "lat": 42.4468075, "lon": -71.228768, "proficiency": 0.72, "schoolCount": 2}, {"name": "Hanscom Air Force Bs", "lat": 42.456528, "lon": -71.277884, "proficiency": 0.245, "schoolCount": 1}, {"name": "Lincoln", "lat": 42.425135, "lon": -71.313783, "proficiency": 0.845, "schoolCount": 1}, {"name": "Littleton", "lat": 42.542979, "lon": -71.485291, "proficiency": 0.42, "schoolCount": 1}, {"name": "Longmeadow", "lat": 42.0483265, "lon": -72.5586975, "proficiency": 0.37, "schoolCount": 2}, {"name": "Ludlow", "lat": 42.172297, "lon": -72.459785, "proficiency": 0.17, "schoolCount": 1}, {"name": "Lunenburg", "lat": 42.599267, "lon": -71.720472, "proficiency": 0.37, "schoolCount": 1}, {"name": "Lynnfield", "lat": 42.537423, "lon": -71.051388, "proficiency": 0.62, "schoolCount": 1}, {"name": "Mansfield", "lat": 42.02909, "lon": -71.206362, "proficiency": 0.47, "schoolCount": 1}, {"name": "Marshfield", "lat": 42.106724, "lon": -70.737942, "proficiency": 0.45, "schoolCount": 1}, {"name": "Boxford", "lat": 42.627798, "lon": -70.974842, "proficiency": 0.47, "schoolCount": 1}, {"name": "Mashpee", "lat": 41.614857, "lon": -70.506235, "proficiency": 0.22, "schoolCount": 1}, {"name": "Maynard", "lat": 42.421524, "lon": -71.456675, "proficiency": 0.37, "schoolCount": 1}, {"name": "Medfield", "lat": 42.18638, "lon": -71.29552, "proficiency": 0.57, "schoolCount": 1}, {"name": "Medford", "lat": 42.4103845, "lon": -71.098226, "proficiency": 0.27, "schoolCount": 2}, {"name": "Medway", "lat": 42.145756, "lon": -71.406989, "proficiency": 0.52, "schoolCount": 1}, {"name": "Melrose", "lat": 42.464275, "lon": -71.066568, "proficiency": 0.42, "schoolCount": 1}, {"name": "Mendon", "lat": 42.1305, "lon": -71.57269, "proficiency": 0.32, "schoolCount": 1}, {"name": "Methuen", "lat": 42.734947500000004, "lon": -71.189583, "proficiency": 0.2575, "schoolCount": 4}, {"name": "Middleborough", "lat": 41.888749, "lon": -70.895072, "proficiency": 0.32, "schoolCount": 1}, {"name": "Milford", "lat": 42.14339, "lon": -71.520105, "proficiency": 0.23, "schoolCount": 1}, {"name": "Millbury", "lat": 42.19995, "lon": -71.76752, "proficiency": 0.32, "schoolCount": 1}, {"name": "Millis", "lat": 42.162639, "lon": -71.35774, "proficiency": 0.47, "schoolCount": 1}, {"name": "Milton", "lat": 42.257856, "lon": -71.083598, "proficiency": 0.42, "schoolCount": 1}, {"name": "Shelburne Falls", "lat": 42.616376, "lon": -72.755787, "proficiency": 0.15, "schoolCount": 1}, {"name": "Monson", "lat": 42.115341, "lon": -72.324032, "proficiency": 0.245, "schoolCount": 1}, {"name": "Williamstown", "lat": 42.671437, "lon": -73.241091, "proficiency": 0.37, "schoolCount": 1}, {"name": "Nantucket", "lat": 41.273095, "lon": -70.098876, "proficiency": 0.17, "schoolCount": 1}, {"name": "Baldwinville", "lat": 42.587922, "lon": -72.074137, "proficiency": 0.22, "schoolCount": 1}, {"name": "Lancaster", "lat": 42.46824, "lon": -71.67529, "proficiency": 0.57, "schoolCount": 1}, {"name": "Bolton", "lat": 42.429707, "lon": -71.608536, "proficiency": 0.52, "schoolCount": 1}, {"name": "Stow", "lat": 42.440874, "lon": -71.507098, "proficiency": 0.62, "schoolCount": 1}, {"name": "Natick", "lat": 42.296497, "lon": -71.370456, "proficiency": 0.595, "schoolCount": 2}, {"name": "Needham", "lat": 42.27674, "lon": -71.22661, "proficiency": 0.69, "schoolCount": 1}, {"name": "Newton", "lat": 42.353661, "lon": -71.181256, "proficiency": 0.67, "schoolCount": 1}, {"name": "Newton Centre", "lat": 42.309404, "lon": -71.19098199999999, "proficiency": 0.72, "schoolCount": 2}, {"name": "Newtonville", "lat": 42.358133, "lon": -71.213174, "proficiency": 0.67, "schoolCount": 1}, {"name": "North Adams", "lat": 42.6698, "lon": -73.096031, "proficiency": 0.17, "schoolCount": 1}, {"name": "North Andover", "lat": 42.69286, "lon": -71.121721, "proficiency": 0.38, "schoolCount": 1}, {"name": "North Attleborough", "lat": 41.983236, "lon": -71.31058, "proficiency": 0.42, "schoolCount": 1}, {"name": "North Brookfield", "lat": 42.277207, "lon": -72.07855, "proficiency": 0.05, "schoolCount": 1}, {"name": "Pepperell", "lat": 42.673864, "lon": -71.591346, "proficiency": 0.52, "schoolCount": 1}, {"name": "Townsend", "lat": 42.674567, "lon": -71.702538, "proficiency": 0.32, "schoolCount": 1}, {"name": "North Reading", "lat": 42.578309, "lon": -71.084864, "proficiency": 0.57, "schoolCount": 1}, {"name": "Florence", "lat": 42.345372, "lon": -72.677196, "proficiency": 0.22, "schoolCount": 1}, {"name": "Northborough", "lat": 42.319991, "lon": -71.659344, "proficiency": 0.47, "schoolCount": 1}, {"name": "Whitinsville", "lat": 42.10877, "lon": -71.657529, "proficiency": 0.42, "schoolCount": 1}, {"name": "Norton", "lat": 41.959079, "lon": -71.213599, "proficiency": 0.32, "schoolCount": 1}, {"name": "Norwood", "lat": 42.172428, "lon": -71.210773, "proficiency": 0.32, "schoolCount": 1}, {"name": "Edgartown", "lat": 41.389828, "lon": -70.521811, "proficiency": 0.345, "schoolCount": 1}, {"name": "Mattapoisett", "lat": 41.671421, "lon": -70.777404, "proficiency": 0.37, "schoolCount": 1}, {"name": "Oxford", "lat": 42.13696, "lon": -71.872075, "proficiency": 0.12, "schoolCount": 1}, {"name": "Palmer", "lat": 42.185599, "lon": -72.339622, "proficiency": 0.22, "schoolCount": 1}, {"name": "Peabody", "lat": 42.525684, "lon": -70.941094, "proficiency": 0.25, "schoolCount": 1}, {"name": "Pembroke", "lat": 42.031636, "lon": -70.802335, "proficiency": 0.52, "schoolCount": 1}, {"name": "West Newbury", "lat": 42.780872, "lon": -71.01358, "proficiency": 0.32, "schoolCount": 1}, {"name": "Northfield", "lat": 42.683668, "lon": -72.484978, "proficiency": 0.15, "schoolCount": 1}, {"name": "Pittsfield", "lat": 42.450565000000005, "lon": -73.24567333333333, "proficiency": 0.1467, "schoolCount": 3}, {"name": "Provincetown", "lat": 42.051539, "lon": -70.190348, "proficiency": 0.245, "schoolCount": 1}, {"name": "Quincy", "lat": 42.2574254, "lon": -71.0057552, "proficiency": 0.32, "schoolCount": 5}, {"name": "Orange", "lat": 42.574559, "lon": -72.302801, "proficiency": 0.27, "schoolCount": 1}, {"name": "Randolph", "lat": 42.18378, "lon": -71.06511, "proficiency": 0.27, "schoolCount": 1}, {"name": "Reading", "lat": 42.5306375, "lon": -71.112867, "proficiency": 0.445, "schoolCount": 2}, {"name": "Revere", "lat": 42.412370333333335, "lon": -71.00580666666667, "proficiency": 0.17, "schoolCount": 3}, {"name": "Richmond", "lat": 42.381855, "lon": -73.367009, "proficiency": 0.245, "schoolCount": 1}, {"name": "Rochester", "lat": 41.747139, "lon": -70.86672, "proficiency": -0.03, "schoolCount": 1}, {"name": "Rockland", "lat": 42.12826, "lon": -70.918133, "proficiency": 0.27, "schoolCount": 1}, {"name": "Rockport", "lat": 42.651875, "lon": -70.610152, "proficiency": 0.27, "schoolCount": 1}, {"name": "East Sandwich", "lat": 41.735678, "lon": -70.458785, "proficiency": -0.03, "schoolCount": 1}, {"name": "Sandwich", "lat": 41.735678, "lon": -70.458785, "proficiency": 0.27, "schoolCount": 1}, {"name": "Scituate", "lat": 42.199498, "lon": -70.76836, "proficiency": 0.47, "schoolCount": 1}, {"name": "Seekonk", "lat": 41.860197, "lon": -71.330813, "proficiency": 0.42, "schoolCount": 1}, {"name": "Sharon", "lat": 42.10629, "lon": -71.16481, "proficiency": 0.52, "schoolCount": 1}, {"name": "Shrewsbury", "lat": 42.28239, "lon": -71.72713, "proficiency": 0.63, "schoolCount": 1}, {"name": "Kingston", "lat": 42.014337, "lon": -70.782104, "proficiency": 0.42, "schoolCount": 1}, {"name": "Somerset", "lat": 41.739168, "lon": -71.164068, "proficiency": 0.17, "schoolCount": 1}, {"name": "Somerville", "lat": 42.39112757142857, "lon": -71.10121885714285, "proficiency": 0.3564, "schoolCount": 7}, {"name": "Southborough", "lat": 42.299391, "lon": -71.542171, "proficiency": 0.72, "schoolCount": 1}, {"name": "Southbridge", "lat": 42.0787725, "lon": -72.0233025, "proficiency": 0.16, "schoolCount": 2}, {"name": "Sheffield", "lat": 42.106196, "lon": -73.374486, "proficiency": 0.05, "schoolCount": 1}, {"name": "Stoneham", "lat": 42.484976, "lon": -71.096406, "proficiency": 0.42, "schoolCount": 1}, {"name": "Stoughton", "lat": 42.129669, "lon": -71.112336, "proficiency": 0.27, "schoolCount": 1}, {"name": "Sudbury", "lat": 42.380676, "lon": -71.433501, "proficiency": 0.62, "schoolCount": 1}, {"name": "Sutton", "lat": 42.144133, "lon": -71.770594, "proficiency": 0.17, "schoolCount": 1}, {"name": "Swampscott", "lat": 42.47382, "lon": -70.902819, "proficiency": 0.32, "schoolCount": 1}, {"name": "Swansea", "lat": 41.749975, "lon": -71.193681, "proficiency": 0.32, "schoolCount": 1}, {"name": "Fiskdale", "lat": 42.160097, "lon": -72.126921, "proficiency": 0.42, "schoolCount": 1}, {"name": "Taunton", "lat": 41.901542, "lon": -71.071216, "proficiency": 0.16, "schoolCount": 1}, {"name": "Tewksbury", "lat": 42.601489, "lon": -71.213741, "proficiency": 0.42, "schoolCount": 1}, {"name": "Byfield", "lat": 42.744721, "lon": -70.919401, "proficiency": 0.27, "schoolCount": 1}, {"name": "Tyngsborough", "lat": 42.69671, "lon": -71.4067, "proficiency": 0.47, "schoolCount": 1}, {"name": "Uxbridge", "lat": 42.051153, "lon": -71.618045, "proficiency": 0.17, "schoolCount": 1}, {"name": "Holden", "lat": 42.33492, "lon": -71.824062, "proficiency": 0.32, "schoolCount": 1}, {"name": "Rutland", "lat": 42.369704, "lon": -71.95475, "proficiency": 0.42, "schoolCount": 1}, {"name": "Paxton", "lat": 42.310014, "lon": -71.929581, "proficiency": 0.12, "schoolCount": 1}, {"name": "Sterling", "lat": 42.413791, "lon": -71.778185, "proficiency": 0.37, "schoolCount": 1}, {"name": "Princeton", "lat": 42.44243, "lon": -71.84371, "proficiency": 0.645, "schoolCount": 1}, {"name": "Wakefield", "lat": 42.499668, "lon": -71.071132, "proficiency": 0.27, "schoolCount": 1}, {"name": "Walpole", "lat": 42.150981, "lon": -71.256564, "proficiency": 0.62, "schoolCount": 1}, {"name": "Waltham", "lat": 42.387788, "lon": -71.232883, "proficiency": 0.345, "schoolCount": 2}, {"name": "Ware", "lat": 42.250131, "lon": -72.263203, "proficiency": 0.025, "schoolCount": 1}, {"name": "Wareham", "lat": 41.755448, "lon": -70.719578, "proficiency": 0.17, "schoolCount": 1}, {"name": "Warren", "lat": 42.220584, "lon": -72.188142, "proficiency": 0.22, "schoolCount": 1}, {"name": "Watertown", "lat": 42.372839, "lon": -71.191657, "proficiency": 0.37, "schoolCount": 1}, {"name": "Wayland", "lat": 42.324205, "lon": -71.36144, "proficiency": 0.72, "schoolCount": 1}, {"name": "Webster", "lat": 42.043769, "lon": -71.870216, "proficiency": 0.12, "schoolCount": 1}, {"name": "Wellesley", "lat": 42.303926, "lon": -71.289662, "proficiency": 0.59, "schoolCount": 1}, {"name": "West Boylston", "lat": 42.37347, "lon": -71.7909, "proficiency": 0.42, "schoolCount": 1}, {"name": "West Bridgewater", "lat": 42.020267, "lon": -71.01689, "proficiency": 0.17, "schoolCount": 1}, {"name": "Vineyard Haven", "lat": 41.452659, "lon": -70.609834, "proficiency": 0.445, "schoolCount": 1}, {"name": "Westborough", "lat": 42.270103, "lon": -71.625482, "proficiency": 0.67, "schoolCount": 1}, {"name": "Westfield", "lat": 42.112984, "lon": -72.75116, "proficiency": 0.19, "schoolCount": 1}, {"name": "Westford", "lat": 42.600084499999994, "lon": -71.4695945, "proficiency": 0.62, "schoolCount": 2}, {"name": "Weston", "lat": 42.338791, "lon": -71.302003, "proficiency": 0.72, "schoolCount": 1}, {"name": "Westport", "lat": 41.622667, "lon": -71.065103, "proficiency": 0.37, "schoolCount": 1}, {"name": "Westwood", "lat": 42.219328, "lon": -71.222367, "proficiency": 0.52, "schoolCount": 1}, {"name": "Weymouth", "lat": 42.182452, "lon": -70.94268, "proficiency": 0.23, "schoolCount": 1}, {"name": "Whitman", "lat": 42.075846999999996, "lon": -70.931002, "proficiency": 0.195, "schoolCount": 2}, {"name": "Hanson", "lat": 42.07677, "lon": -70.873913, "proficiency": 0.27, "schoolCount": 1}, {"name": "Wilmington", "lat": 42.549341, "lon": -71.18809, "proficiency": 0.52, "schoolCount": 1}, {"name": "Winchendon", "lat": 42.698999, "lon": -72.043654, "proficiency": 0.17, "schoolCount": 1}, {"name": "Winchester", "lat": 42.44994, "lon": -71.13485, "proficiency": 0.57, "schoolCount": 1}, {"name": "Winthrop", "lat": 42.380677, "lon": -70.97984, "proficiency": 0.32, "schoolCount": 1}, {"name": "Woburn", "lat": 42.485171, "lon": -71.15991700000001, "proficiency": 0.345, "schoolCount": 2}]}