{"state": "MD", "stateName": "Maryland", "year": 2020, "naep": {"text": "3 out of 4", "numerator": 3, "denominator": 4}, "schools": [{"name": "The Seed School of Maryland", "lat": 39.28404, "lon": -76.664092, "proficiency": 0.025, "district": "SEED School of Maryland", "city": "Baltimore", "ncessch": "240002701669"}, {"name": "Braddock Middle", "lat": 39.665978, "lon": -78.770949, "proficiency": 0.075, "district": "Allegany County Public Schools", "city": "Cumberland", "ncessch": "240003000006"}, {"name": "Westmar Middle", "lat": 39.5612, "lon": -78.988, "proficiency": 0.025, "district": "Allegany County Public Schools", "city": "Lonaconing", "ncessch": "240003000007"}, {"name": "Mount Savage Middle", "lat": 39.7011, "lon": -78.88, "proficiency": 0.025, "district": "Allegany County Public Schools", "city": "Mount Savage", "ncessch": "240003000023"}, {"name": "Washington Middle", "lat": 39.63853, "lon": -78.745823, "proficiency": 0.025, "district": "Allegany County Public Schools", "city": "Cumberland", "ncessch": "240003000031"}, {"name": "Annapolis Middle", "lat": 38.958048, "lon": -76.511464, "proficiency": 0.025, "district": "Anne Arundel County Public Schools", "city": "Annapolis", "ncessch": "240006000036"}, {"name": "Arundel Middle", "lat": 39.0717, "lon": -76.6861, "proficiency": 0.09, "district": "Anne Arundel County Public Schools", "city": "Odenton", "ncessch": "240006000039"}, {"name": "Wiley H. Bates Middle", "lat": 38.9723, "lon": -76.5057, "proficiency": 0.075, "district": "Anne Arundel County Public Schools", "city": "Annapolis", "ncessch": "240006000041"}, {"name": "Chesapeake Bay Middle", "lat": 39.1124, "lon": -76.4583, "proficiency": 0.1, "district": "Anne Arundel County Public Schools", "city": "Pasadena", "ncessch": "240006000042"}, {"name": "Brooklyn Park Middle", "lat": 39.2164, "lon": -76.6198, "proficiency": 0.025, "district": "Anne Arundel County Public Schools", "city": "Baltimore", "ncessch": "240006000050"}, {"name": "Central Middle", "lat": 38.919428, "lon": -76.557341, "proficiency": 0.12, "district": "Anne Arundel County Public Schools", "city": "Edgewater", "ncessch": "240006000054"}, {"name": "Corkran Middle School", "lat": 39.155009, "lon": -76.633617, "proficiency": 0.025, "district": "Anne Arundel County Public Schools", "city": "Glen Burnie", "ncessch": "240006000059"}, {"name": "Northeast Middle", "lat": 39.1323, "lon": -76.549, "proficiency": 0.025, "district": "Anne Arundel County Public Schools", "city": "Pasadena", "ncessch": "240006000072"}, {"name": "Lindale Middle", "lat": 39.1958, "lon": -76.662, "proficiency": 0.025, "district": "Anne Arundel County Public Schools", "city": "Linthicum", "ncessch": "240006000087"}, {"name": "MacArthur Middle", "lat": 39.1172, "lon": -76.7466, "proficiency": 0.12, "district": "Anne Arundel County Public Schools", "city": "Fort Meade", "ncessch": "240006000090"}, {"name": "Magothy River Middle", "lat": 39.059091, "lon": -76.513451, "proficiency": 0.075, "district": "Anne Arundel County Public Schools", "city": "Arnold", "ncessch": "240006000091"}, {"name": "Marley Middle", "lat": 39.148655, "lon": -76.595606, "proficiency": 0.025, "district": "Anne Arundel County Public Schools", "city": "Glen Burnie", "ncessch": "240006000095"}, {"name": "Old Mill Middle North", "lat": 39.123876, "lon": -76.627023, "proficiency": 0.06, "district": "Anne Arundel County Public Schools", "city": "Millersville", "ncessch": "240006000107"}, {"name": "Old Mill Middle South", "lat": 39.123341, "lon": -76.626523, "proficiency": 0.04, "district": "Anne Arundel County Public Schools", "city": "Millersville", "ncessch": "240006000108"}, {"name": "Severn River Middle", "lat": 39.059091, "lon": -76.513451, "proficiency": 0.12, "district": "Anne Arundel County Public Schools", "city": "Arnold", "ncessch": "240006000124"}, {"name": "Severna Park Middle", "lat": 39.0873, "lon": -76.5859, "proficiency": 0.21, "district": "Anne Arundel County Public Schools", "city": "Severna Park", "ncessch": "240006000126"}, {"name": "Southern Middle", "lat": 38.8233, "lon": -76.6096, "proficiency": 0.025, "district": "Anne Arundel County Public Schools", "city": "Lothian", "ncessch": "240006000131"}, {"name": "Meade Middle", "lat": 39.125, "lon": -76.7368, "proficiency": 0.025, "district": "Anne Arundel County Public Schools", "city": "Fort Meade", "ncessch": "240006000823"}, {"name": "Chesapeake Science Point", "lat": 39.167998, "lon": -76.734678, "proficiency": 0.12, "district": "Anne Arundel County Public Schools", "city": "Hanover", "ncessch": "240006001401"}, {"name": "Crofton Middle", "lat": 38.9971, "lon": -76.6703, "proficiency": 0.13, "district": "Anne Arundel County Public Schools", "city": "Gambrills", "ncessch": "240006001403"}, {"name": "Monarch Academy", "lat": 39.18764, "lon": -76.595991, "proficiency": 0.025, "district": "Anne Arundel County Public Schools", "city": "Glen Burnie", "ncessch": "240006001687"}, {"name": "Monarch Global Academy PCS Laurel Campus", "lat": 39.085699, "lon": -76.824378, "proficiency": 0.025, "district": "Anne Arundel County Public Schools", "city": "Laurel", "ncessch": "240006001724"}, {"name": "Armistead Gardens Elementary/Middle", "lat": 39.3048, "lon": -76.5527, "proficiency": 0.025, "district": "Baltimore City Public Schools", "city": "Baltimore", "ncessch": "240009000147"}, {"name": "Dr. Nathan A. Pitts-Ashburton Elementary/Middle", "lat": 39.331, "lon": -76.6676, "proficiency": 0.05, "district": "Baltimore City Public Schools", "city": "Baltimore", "ncessch": "240009000149"}, {"name": "Barclay Elementary/Middle", "lat": 39.3237, "lon": -76.6114, "proficiency": 0.05, "district": "Baltimore City Public Schools", "city": "Baltimore", "ncessch": "240009000152"}, {"name": "Bay-Brook Elementary/Middle", "lat": 39.225716, "lon": -76.598581, "proficiency": 0.05, "district": "Baltimore City Public Schools", "city": "Baltimore", "ncessch": "240009000154"}, {"name": "Beechfield Elementary/Middle", "lat": 39.2808, "lon": -76.6934, "proficiency": 0.05, "district": "Baltimore City Public Schools", "city": "Baltimore", "ncessch": "240009000155"}, {"name": "Booker T. Washington Middle", "lat": 39.3032, "lon": -76.6279, "proficiency": 0.05, "district": "Baltimore City Public Schools", "city": "Baltimore", "ncessch": "240009000160"}, {"name": "Katherine Johnson Global Academy", "lat": 39.300693, "lon": -76.65944, "proficiency": 0.05, "district": "Baltimore City Public Schools", "city": "Baltimore", "ncessch": "240009000164"}, {"name": "The Historic Cherry Hill Elementary/Middle", "lat": 39.247832, "lon": -76.624057, "proficiency": 0.05, "district": "Baltimore City Public Schools", "city": "Baltimore", "ncessch": "240009000171"}, {"name": "City Springs Elementary/Middle", "lat": 39.2896, "lon": -76.5974, "proficiency": 0.05, "district": "Baltimore City Public Schools", "city": "Baltimore", "ncessch": "240009000175"}, {"name": "Collington Square Elementary/Middle", "lat": 39.3073, "lon": -76.5867, "proficiency": 0.1, "district": "Baltimore City Public Schools", "city": "Baltimore", "ncessch": "240009000179"}, {"name": "Commodore John Rodgers Elementary/Middle", "lat": 39.2936, "lon": -76.5879, "proficiency": 0.025, "district": "Baltimore City Public Schools", "city": "Baltimore", "ncessch": "240009000180"}, {"name": "Cross Country Elementary/Middle", "lat": 39.364548, "lon": -76.704659, "proficiency": 0.05, "district": "Baltimore City Public Schools", "city": "Baltimore", "ncessch": "240009000182"}, {"name": "Dickey Hill Elementary/Middle", "lat": 39.3114, "lon": -76.7038, "proficiency": 0.1, "district": "Baltimore City Public Schools", "city": "Baltimore", "ncessch": "240009000186"}, {"name": "Fallstaff Elementary/Middle", "lat": 39.3622, "lon": -76.7055, "proficiency": 0.1, "district": "Baltimore City Public Schools", "city": "Baltimore", "ncessch": "240009000199"}, {"name": "Fort Worthington Elementary/Middle", "lat": 39.307443, "lon": -76.578525, "proficiency": 0.05, "district": "Baltimore City Public Schools", "city": "Baltimore", "ncessch": "240009000204"}, {"name": "Francis Scott Key Elementary/Middle", "lat": 39.2681, "lon": -76.5945, "proficiency": 0.17, "district": "Baltimore City Public Schools", "city": "Baltimore", "ncessch": "240009000205"}, {"name": "Franklin Square Elementary/Middle", "lat": 39.2911, "lon": -76.6407, "proficiency": 0.05, "district": "Baltimore City Public Schools", "city": "Baltimore", "ncessch": "240009000208"}, {"name": "Garrett Heights Elementary/Middle", "lat": 39.349421, "lon": -76.569519, "proficiency": 0.1, "district": "Baltimore City Public Schools", "city": "Baltimore", "ncessch": "240009000213"}, {"name": "Glenmount Elementary/Middle", "lat": 39.3524, "lon": -76.5412, "proficiency": 0.05, "district": "Baltimore City Public Schools", "city": "Baltimore", "ncessch": "240009000222"}, {"name": "Graceland Park/O'Donnell Heights Elementary/Middle", "lat": 39.2823, "lon": -76.54, "proficiency": 0.05, "district": "Baltimore City Public Schools", "city": "Baltimore", "ncessch": "240009000224"}, {"name": "Hamilton Elementary/Middle", "lat": 39.3598, "lon": -76.5577, "proficiency": 0.025, "district": "Baltimore City Public Schools", "city": "Baltimore", "ncessch": "240009000231"}, {"name": "Hampden Elementary/Middle", "lat": 39.3321, "lon": -76.63, "proficiency": 0.05, "district": "Baltimore City Public Schools", "city": "Baltimore", "ncessch": "240009000233"}, {"name": "Hampstead Hill Academy", "lat": 39.2861, "lon": -76.5761, "proficiency": 0.05, "district": "Baltimore City Public Schools", "city": "Baltimore", "ncessch": "240009000234"}, {"name": "Harlem Park Elementary/Middle", "lat": 39.298, "lon": -76.6409, "proficiency": 0.1, "district": "Baltimore City Public Schools", "city": "Baltimore", "ncessch": "240009000239"}, {"name": "Hazelwood Elementary/Middle", "lat": 39.3386, "lon": -76.5385, "proficiency": 0.05, "district": "Baltimore City Public Schools", "city": "Baltimore", "ncessch": "240009000241"}, {"name": "Highlandtown Elementary/Middle #215", "lat": 39.2899, "lon": -76.5706, "proficiency": 0.1, "district": "Baltimore City Public Schools", "city": "Baltimore", "ncessch": "240009000243"}, {"name": "Highlandtown Elementary/Middle #237", "lat": 39.28576, "lon": -76.530751, "proficiency": 0.05, "district": "Baltimore City Public Schools", "city": "Baltimore", "ncessch": "240009000244"}, {"name": "Holabird Academy", "lat": 39.2758, "lon": -76.5387, "proficiency": 0.05, "district": "Baltimore City Public Schools", "city": "Baltimore", "ncessch": "240009000247"}, {"name": "James McHenry Elementary/Middle", "lat": 39.2874, "lon": -76.6335, "proficiency": 0.05, "district": "Baltimore City Public Schools", "city": "Baltimore", "ncessch": "240009000253"}, {"name": "John Ruhrah Elementary/Middle", "lat": 39.283953, "lon": -76.551908, "proficiency": 0.05, "district": "Baltimore City Public Schools", "city": "Baltimore", "ncessch": "240009000257"}, {"name": "Lakeland Elementary/Middle", "lat": 39.2537, "lon": -76.6449, "proficiency": 0.025, "district": "Baltimore City Public Schools", "city": "Baltimore", "ncessch": "240009000264"}, {"name": "Leith Walk Elementary/Middle", "lat": 39.365308, "lon": -76.591365, "proficiency": 0.05, "district": "Baltimore City Public Schools", "city": "Baltimore", "ncessch": "240009000268"}, {"name": "Wildwood Elementary/Middle", "lat": 39.295, "lon": -76.6835, "proficiency": 0.05, "district": "Baltimore City Public Schools", "city": "Baltimore", "ncessch": "240009000273"}, {"name": "Margaret Brent Elementary/Middle", "lat": 39.3197, "lon": -76.6152, "proficiency": 0.1, "district": "Baltimore City Public Schools", "city": "Baltimore", "ncessch": "240009000276"}, {"name": "Montebello Elementary/Middle", "lat": 39.36671, "lon": -76.560541, "proficiency": 0.05, "district": "Baltimore City Public Schools", "city": "Baltimore", "ncessch": "240009000281"}, {"name": "Morrell Park Elementary/Middle", "lat": 39.263, "lon": -76.6508, "proficiency": 0.05, "district": "Baltimore City Public Schools", "city": "Baltimore", "ncessch": "240009000284"}, {"name": "Mount Royal Elementary/Middle", "lat": 39.309, "lon": -76.6242, "proficiency": 0.025, "district": "Baltimore City Public Schools", "city": "Baltimore", "ncessch": "240009000285"}, {"name": "The Mount Washington School", "lat": 39.3659, "lon": -76.6549, "proficiency": 0.05, "district": "Baltimore City Public Schools", "city": "Baltimore", "ncessch": "240009000286"}, {"name": "Pimlico Elementary/Middle", "lat": 39.347934, "lon": -76.668029, "proficiency": 0.025, "district": "Baltimore City Public Schools", "city": "Baltimore", "ncessch": "240009000299"}, {"name": "Roland Park Elementary/Middle", "lat": 39.3576, "lon": -76.6341, "proficiency": 0.17, "district": "Baltimore City Public Schools", "city": "Baltimore", "ncessch": "240009000306"}, {"name": "Rosemont Elementary/Middle", "lat": 39.3043, "lon": -76.6627, "proficiency": 0.05, "district": "Baltimore City Public Schools", "city": "Baltimore", "ncessch": "240009000307"}, {"name": "Tench Tilghman Elementary/Middle", "lat": 39.298, "lon": -76.5854, "proficiency": 0.1, "district": "Baltimore City Public Schools", "city": "Baltimore", "ncessch": "240009000320"}, {"name": "Thomas Jefferson Elementary/Middle", "lat": 39.2954, "lon": -76.698, "proficiency": 0.1, "district": "Baltimore City Public Schools", "city": "Baltimore", "ncessch": "240009000322"}, {"name": "Thomas Johnson Elementary/Middle", "lat": 39.2711, "lon": -76.6108, "proficiency": 0.05, "district": "Baltimore City Public Schools", "city": "Baltimore", "ncessch": "240009000323"}, {"name": "Violetville Elementary/Middle", "lat": 39.2679, "lon": -76.6738, "proficiency": 0.1, "district": "Baltimore City Public Schools", "city": "Baltimore", "ncessch": "240009000326"}, {"name": "Walter P. Carter Elementary/Middle", "lat": 39.343068, "lon": -76.604072, "proficiency": 0.1, "district": "Baltimore City Public Schools", "city": "Baltimore", "ncessch": "240009000328"}, {"name": "Waverly Elementary/Middle", "lat": 39.330207, "lon": -76.605271, "proficiency": 0.05, "district": "Baltimore City Public Schools", "city": "Baltimore", "ncessch": "240009000329"}, {"name": "Westport Academy", "lat": 39.2621, "lon": -76.6377, "proficiency": 0.1, "district": "Baltimore City Public Schools", "city": "Baltimore", "ncessch": "240009000331"}, {"name": "Sandtown-Winchester Achievement Academy", "lat": 39.306319, "lon": -76.640584, "proficiency": 0.1, "district": "Baltimore City Public Schools", "city": "Baltimore", "ncessch": "240009000335"}, {"name": "William S. Baer School", "lat": 39.3109, "lon": -76.6567, "proficiency": 0.245, "district": "Baltimore City Public Schools", "city": "Baltimore", "ncessch": "240009000336"}, {"name": "Windsor Hills Elementary/Middle", "lat": 39.3164, "lon": -76.6828, "proficiency": 0.1, "district": "Baltimore City Public Schools", "city": "Baltimore", "ncessch": "240009000337"}, {"name": "Woodhome Elementary/Middle", "lat": 39.3668, "lon": -76.5406, "proficiency": 0.1, "district": "Baltimore City Public Schools", "city": "Baltimore", "ncessch": "240009000339"}, {"name": "Stadium School", "lat": 39.321845, "lon": -76.602429, "proficiency": 0.025, "district": "Baltimore City Public Schools", "city": "Baltimore", "ncessch": "240009000571"}, {"name": "North Bend Elementary/Middle", "lat": 39.2834, "lon": -76.705, "proficiency": 0.1, "district": "Baltimore City Public Schools", "city": "Baltimore", "ncessch": "240009000602"}, {"name": "Midtown Academy", "lat": 39.308426, "lon": -76.622628, "proficiency": 0.245, "district": "Baltimore City Public Schools", "city": "Baltimore", "ncessch": "240009000883"}, {"name": "New Song Academy", "lat": 39.305703, "lon": -76.643017, "proficiency": 0.245, "district": "Baltimore City Public Schools", "city": "Baltimore", "ncessch": "240009000884"}, {"name": "The Crossroads School", "lat": 39.281886, "lon": -76.596819, "proficiency": 0.1, "district": "Baltimore City Public Schools", "city": "Baltimore", "ncessch": "240009001291"}, {"name": "ConneXions: A Community Based Arts School", "lat": 39.317956, "lon": -76.664359, "proficiency": 0.05, "district": "Baltimore City Public Schools", "city": "Baltimore", "ncessch": "240009001302"}, {"name": "National Academy Foundation", "lat": 39.296846, "lon": -76.597726, "proficiency": 0.1, "district": "Baltimore City Public Schools", "city": "Baltimore", "ncessch": "240009001339"}, {"name": "Maree Garnett Farring Elementary/Middle", "lat": 39.236842, "lon": -76.607028, "proficiency": 0.05, "district": "Baltimore City Public Schools", "city": "Baltimore", "ncessch": "240009001363"}, {"name": "Academy for College and Career Exploration", "lat": 39.3308, "lon": -76.6378, "proficiency": 0.1, "district": "Baltimore City Public Schools", "city": "Baltimore", "ncessch": "240009001381"}, {"name": "Calvin M. Rodwell Elementary/Middle", "lat": 39.330281, "lon": -76.693995, "proficiency": 0.025, "district": "Baltimore City Public Schools", "city": "Baltimore", "ncessch": "240009001390"}, {"name": "City Neighbors Charter School", "lat": 39.348788, "lon": -76.534423, "proficiency": 0.245, "district": "Baltimore City Public Schools", "city": "Baltimore", "ncessch": "240009001478"}, {"name": "Patterson Park Public Charter School", "lat": 39.292812, "lon": -76.578767, "proficiency": 0.15, "district": "Baltimore City Public Schools", "city": "Baltimore", "ncessch": "240009001480"}, {"name": "Southwest Baltimore Charter School", "lat": 39.28179, "lon": -76.638555, "proficiency": 0.1, "district": "Baltimore City Public Schools", "city": "Baltimore", "ncessch": "240009001527"}, {"name": "Empowerment Academy", "lat": 39.2976, "lon": -76.6592, "proficiency": 0.1, "district": "Baltimore City Public Schools", "city": "Baltimore", "ncessch": "240009001558"}, {"name": "Baltimore International Academy", "lat": 39.33608, "lon": -76.548761, "proficiency": 0.05, "district": "Baltimore City Public Schools", "city": "Baltimore", "ncessch": "240009001631"}, {"name": "Baltimore Montessori Public Charter School", "lat": 39.308247, "lon": -76.612552, "proficiency": 0.245, "district": "Baltimore City Public Schools", "city": "Baltimore", "ncessch": "240009001657"}, {"name": "Elmer A. Henderson: A Johns Hopkins Partnership", "lat": 39.301277, "lon": -76.587249, "proficiency": 0.1, "district": "Baltimore City Public Schools", "city": "Baltimore", "ncessch": "240009001670"}, {"name": "Bluford Drew Jemison STEM Academy West", "lat": 39.297248, "lon": -76.641432, "proficiency": 0.1, "district": "Baltimore City Public Schools", "city": "Baltimore", "ncessch": "240009001675"}, {"name": "City Neighbors Hamilton", "lat": 39.350482, "lon": -76.554826, "proficiency": 0.245, "district": "Baltimore City Public Schools", "city": "Baltimore", "ncessch": "240009001680"}, {"name": "KIPP Harmony Academy", "lat": 39.31002, "lon": -76.676563, "proficiency": 0.025, "district": "Baltimore City Public Schools", "city": "Baltimore", "ncessch": "240009001681"}, {"name": "Baltimore Leadership School for Young Women", "lat": 39.295256, "lon": -76.618091, "proficiency": 0.025, "district": "Baltimore City Public Schools", "city": "Baltimore", "ncessch": "240009001682"}, {"name": "Tunbridge Public Charter School", "lat": 39.357622, "lon": -76.6102, "proficiency": 0.1, "district": "Baltimore City Public Schools", "city": "Baltimore", "ncessch": "240009001689"}, {"name": "Green Street Academy", "lat": 39.287488, "lon": -76.671585, "proficiency": 0.025, "district": "Baltimore City Public Schools", "city": "Baltimore", "ncessch": "240009001691"}, {"name": "Vanguard Collegiate Middle", "lat": 39.320485, "lon": -76.546061, "proficiency": 0.025, "district": "Baltimore City Public Schools", "city": "Baltimore", "ncessch": "240009001693"}, {"name": "Baltimore Design School", "lat": 39.30722, "lon": -76.610928, "proficiency": 0.025, "district": "Baltimore City Public Schools", "city": "Baltimore", "ncessch": "240009001703"}, {"name": "Lillie May Carroll Jackson School", "lat": 39.314749, "lon": -76.587136, "proficiency": 0.05, "district": "Baltimore City Public Schools", "city": "Baltimore", "ncessch": "240009001734"}, {"name": "Baltimore Collegiate School for Boys", "lat": 39.319077, "lon": -76.600405, "proficiency": 0.05, "district": "Baltimore City Public Schools", "city": "Baltimore", "ncessch": "240009001736"}, {"name": "Arbutus Middle", "lat": 39.2485, "lon": -76.7055, "proficiency": 0.075, "district": "Baltimore County Public Schools", "city": "Baltimore", "ncessch": "240012000342"}, {"name": "Battle Monument School", "lat": 39.2737, "lon": -76.4846, "proficiency": 0.245, "district": "Baltimore County Public Schools", "city": "Baltimore", "ncessch": "240012000346"}, {"name": "Catonsville Middle", "lat": 39.276, "lon": -76.7715, "proficiency": 0.025, "district": "Baltimore County Public Schools", "city": "Catonsville", "ncessch": "240012000354"}, {"name": "Cockeysville Middle", "lat": 39.4728, "lon": -76.6297, "proficiency": 0.075, "district": "Baltimore County Public Schools", "city": "Cockeysville", "ncessch": "240012000366"}, {"name": "Deep Creek Middle", "lat": 39.2932, "lon": -76.4543, "proficiency": 0.025, "district": "Baltimore County Public Schools", "city": "Baltimore", "ncessch": "240012000370"}, {"name": "Deer Park Middle Magnet School", "lat": 39.3879, "lon": -76.8197, "proficiency": 0.025, "district": "Baltimore County Public Schools", "city": "Randallstown", "ncessch": "240012000372"}, {"name": "Dumbarton Middle", "lat": 39.3806, "lon": -76.6119, "proficiency": 0.16, "district": "Baltimore County Public Schools", "city": "Baltimore", "ncessch": "240012000374"}, {"name": "Dundalk Middle", "lat": 39.2592, "lon": -76.5138, "proficiency": 0.025, "district": "Baltimore County Public Schools", "city": "Baltimore", "ncessch": "240012000376"}, {"name": "Franklin Middle", "lat": 39.465, "lon": -76.8307, "proficiency": 0.03, "district": "Baltimore County Public Schools", "city": "Reisterstown", "ncessch": "240012000389"}, {"name": "Holabird Middle", "lat": 39.276707, "lon": -76.516791, "proficiency": 0.025, "district": "Baltimore County Public Schools", "city": "Baltimore", "ncessch": "240012000408"}, {"name": "Southwest Academy", "lat": 39.2997, "lon": -76.7364, "proficiency": 0.025, "district": "Baltimore County Public Schools", "city": "Baltimore", "ncessch": "240012000411"}, {"name": "Lansdowne Middle", "lat": 39.2498, "lon": -76.6522, "proficiency": 0.025, "district": "Baltimore County Public Schools", "city": "Baltimore", "ncessch": "240012000417"}, {"name": "Loch Raven Technical Academy", "lat": 39.3899, "lon": -76.5787, "proficiency": 0.025, "district": "Baltimore County Public Schools", "city": "Baltimore", "ncessch": "240012000419"}, {"name": "Sudbrook Magnet Middle", "lat": 39.358998, "lon": -76.726054, "proficiency": 0.025, "district": "Baltimore County Public Schools", "city": "Baltimore", "ncessch": "240012000441"}, {"name": "Parkville Middle", "lat": 39.377629, "lon": -76.526952, "proficiency": 0.025, "district": "Baltimore County Public Schools", "city": "Baltimore", "ncessch": "240012000442"}, {"name": "Perry Hall Middle", "lat": 39.398041, "lon": -76.474555, "proficiency": 0.1, "district": "Baltimore County Public Schools", "city": "Baltimore", "ncessch": "240012000447"}, {"name": "Pikesville Middle", "lat": 39.3777, "lon": -76.7068, "proficiency": 0.025, "district": "Baltimore County Public Schools", "city": "Baltimore", "ncessch": "240012000448"}, {"name": "Pine Grove Middle", "lat": 39.4055, "lon": -76.528, "proficiency": 0.075, "district": "Baltimore County Public Schools", "city": "Baltimore", "ncessch": "240012000451"}, {"name": "Stemmers Run Middle", "lat": 39.321836, "lon": -76.457195, "proficiency": 0.025, "district": "Baltimore County Public Schools", "city": "Baltimore", "ncessch": "240012000478"}, {"name": "Woodlawn Middle", "lat": 39.3342, "lon": -76.7358, "proficiency": 0.025, "district": "Baltimore County Public Schools", "city": "Baltimore", "ncessch": "240012000501"}, {"name": "Hereford Middle", "lat": 39.5728, "lon": -76.6531, "proficiency": 0.12, "district": "Baltimore County Public Schools", "city": "Monkton", "ncessch": "240012001422"}, {"name": "Northwest Academy of Health Sciences", "lat": 39.3653, "lon": -76.7569, "proficiency": 0.025, "district": "Baltimore County Public Schools", "city": "Baltimore", "ncessch": "240012001431"}, {"name": "Ridgely Middle", "lat": 39.431572, "lon": -76.614531, "proficiency": 0.12, "district": "Baltimore County Public Schools", "city": "Lutherville", "ncessch": "240012001434"}, {"name": "General John Stricker Middle", "lat": 39.2739, "lon": -76.4914, "proficiency": 0.025, "district": "Baltimore County Public Schools", "city": "Baltimore", "ncessch": "240012001438"}, {"name": "Golden Ring Middle", "lat": 39.3333, "lon": -76.4984, "proficiency": 0.025, "district": "Baltimore County Public Schools", "city": "Baltimore", "ncessch": "240012001439"}, {"name": "Middle River Middle", "lat": 39.3444, "lon": -76.4513, "proficiency": 0.025, "district": "Baltimore County Public Schools", "city": "Baltimore", "ncessch": "240012001440"}, {"name": "Windsor Mill Middle", "lat": 39.352844, "lon": -76.786468, "proficiency": 0.025, "district": "Baltimore County Public Schools", "city": "Baltimore", "ncessch": "240012001574"}, {"name": "Crossroads Center", "lat": 39.354445, "lon": -76.405204, "proficiency": 0.1, "district": "Baltimore County Public Schools", "city": "Baltimore", "ncessch": "240012001649"}, {"name": "Sparrows Point Middle", "lat": 39.237755, "lon": -76.442262, "proficiency": 0.025, "district": "Baltimore County Public Schools", "city": "Baltimore", "ncessch": "240012010500"}, {"name": "Plum Point Middle", "lat": 38.5972, "lon": -76.5829, "proficiency": 0.075, "district": "Calvert County Public Schools", "city": "Huntingtown", "ncessch": "240015000027"}, {"name": "Calvert Middle", "lat": 38.556756, "lon": -76.588346, "proficiency": 0.025, "district": "Calvert County Public Schools", "city": "Prince Frederick", "ncessch": "240015000507"}, {"name": "Northern Middle", "lat": 38.685, "lon": -76.6535, "proficiency": 0.12, "district": "Calvert County Public Schools", "city": "Owings", "ncessch": "240015000515"}, {"name": "Windy Hill Middle", "lat": 38.7142, "lon": -76.5721, "proficiency": 0.075, "district": "Calvert County Public Schools", "city": "Owings", "ncessch": "240015000967"}, {"name": "Southern Middle", "lat": 38.4067, "lon": -76.446, "proficiency": 0.025, "district": "Calvert County Public Schools", "city": "Lusby", "ncessch": "240015001392"}, {"name": "Mill Creek Middle", "lat": 38.36185, "lon": -76.44446, "proficiency": 0.075, "district": "Calvert County Public Schools", "city": "Lusby", "ncessch": "240015002946"}, {"name": "Colonel Richardson Middle School", "lat": 38.754614, "lon": -75.825743, "proficiency": 0.025, "district": "Caroline County Public Schools", "city": "Federalsburg", "ncessch": "240018000519"}, {"name": "Lockerman Middle School", "lat": 38.8905, "lon": -75.8277, "proficiency": 0.025, "district": "Caroline County Public Schools", "city": "Denton", "ncessch": "240018000526"}, {"name": "Mount Airy Middle", "lat": 39.380941, "lon": -77.14743, "proficiency": 0.27, "district": "Carroll County Public Schools", "city": "Mount Airy", "ncessch": "240021000539"}, {"name": "North Carroll Middle", "lat": 39.643, "lon": -76.866, "proficiency": 0.075, "district": "Carroll County Public Schools", "city": "Hampstead", "ncessch": "240021000542"}, {"name": "Northwest Middle", "lat": 39.6517, "lon": -77.1676, "proficiency": 0.12, "district": "Carroll County Public Schools", "city": "Taneytown", "ncessch": "240021000543"}, {"name": "Sykesville Middle", "lat": 39.373319, "lon": -76.966241, "proficiency": 0.27, "district": "Carroll County Public Schools", "city": "Sykesville", "ncessch": "240021000547"}, {"name": "Westminster East Middle", "lat": 39.5753, "lon": -76.9902, "proficiency": 0.17, "district": "Carroll County Public Schools", "city": "Westminster", "ncessch": "240021000550"}, {"name": "Westminster West Middle", "lat": 39.5831, "lon": -76.9942, "proficiency": 0.12, "district": "Carroll County Public Schools", "city": "Westminster", "ncessch": "240021000553"}, {"name": "Oklahoma Road Middle", "lat": 39.4011, "lon": -76.9316, "proficiency": 0.17, "district": "Carroll County Public Schools", "city": "Sykesville", "ncessch": "240021000835"}, {"name": "Crossroads Middle School", "lat": 39.534835, "lon": -76.990829, "proficiency": 0.245, "district": "Carroll County Public Schools", "city": "Westminster", "ncessch": "240021001694"}, {"name": "Shiloh Middle", "lat": 39.5991, "lon": -76.8613, "proficiency": 0.17, "district": "Carroll County Public Schools", "city": "Hampstead", "ncessch": "240021002947"}, {"name": "Cherry Hill Middle", "lat": 39.6741, "lon": -75.860191, "proficiency": 0.075, "district": "Cecil County Public Schools", "city": "Elkton", "ncessch": "240024000564"}, {"name": "Elkton Middle", "lat": 39.6201, "lon": -75.8301, "proficiency": 0.025, "district": "Cecil County Public Schools", "city": "Elkton", "ncessch": "240024000567"}, {"name": "North East Middle", "lat": 39.6007, "lon": -75.9394, "proficiency": 0.075, "district": "Cecil County Public Schools", "city": "North East", "ncessch": "240024000574"}, {"name": "Perryville Middle", "lat": 39.569, "lon": -76.0685, "proficiency": 0.025, "district": "Cecil County Public Schools", "city": "Perryville", "ncessch": "240024000578"}, {"name": "Rising Sun Middle School", "lat": 39.7016, "lon": -76.0665, "proficiency": 0.075, "district": "Cecil County Public Schools", "city": "Rising Sun", "ncessch": "240024000580"}, {"name": "Bohemia Manor Middle", "lat": 39.5116, "lon": -75.8305, "proficiency": 0.025, "district": "Cecil County Public Schools", "city": "Chesapeake City", "ncessch": "240024000791"}, {"name": "Benjamin Stoddert Middle School", "lat": 38.6011, "lon": -76.8979, "proficiency": 0.025, "district": "Charles County Public Schools", "city": "Waldorf", "ncessch": "240027000583"}, {"name": "General Smallwood Middle School", "lat": 38.6029, "lon": -77.1346, "proficiency": 0.025, "district": "Charles County Public Schools", "city": "Indian Head", "ncessch": "240027000589"}, {"name": "John Hanson Middle School", "lat": 38.62417, "lon": -76.888034, "proficiency": 0.025, "district": "Charles County Public Schools", "city": "Waldorf", "ncessch": "240027000595"}, {"name": "Matthew Henson Middle School", "lat": 38.6138, "lon": -77.0768, "proficiency": 0.025, "district": "Charles County Public Schools", "city": "Indian Head", "ncessch": "240027000599"}, {"name": "Milton M. Somers Middle School", "lat": 38.5239, "lon": -76.9726, "proficiency": 0.06, "district": "Charles County Public Schools", "city": "La Plata", "ncessch": "240027000601"}, {"name": "Piccowaxen Middle School", "lat": 38.3617, "lon": -76.9416, "proficiency": 0.025, "district": "Charles County Public Schools", "city": "Newburg", "ncessch": "240027000604"}, {"name": "Mattawoman Middle School", "lat": 38.6469, "lon": -76.961, "proficiency": 0.025, "district": "Charles County Public Schools", "city": "Waldorf", "ncessch": "240027000615"}, {"name": "Theodore G. Davis Middle School", "lat": 38.643696, "lon": -76.978599, "proficiency": 0.025, "district": "Charles County Public Schools", "city": "Waldorf", "ncessch": "240027001647"}, {"name": "North Dorchester Middle School", "lat": 38.584482, "lon": -75.875439, "proficiency": 0.075, "district": "Dorchester County Public Schools", "city": "Hurlock", "ncessch": "240030000619"}, {"name": "South Dorchester School", "lat": 38.398249, "lon": -76.186973, "proficiency": 0.1, "district": "Dorchester County Public Schools", "city": "Church Creek", "ncessch": "240030000622"}, {"name": "Mace's Lane Middle School", "lat": 38.5577, "lon": -76.0922, "proficiency": 0.025, "district": "Dorchester County Public Schools", "city": "Cambridge", "ncessch": "240030001423"}, {"name": "Windsor Knolls Middle", "lat": 39.3226, "lon": -77.277, "proficiency": 0.17, "district": "Frederick County Public Schools", "city": "Ijamsville", "ncessch": "240033000392"}, {"name": "Middletown Middle", "lat": 39.444, "lon": -77.5359, "proficiency": 0.12, "district": "Frederick County Public Schools", "city": "Middletown", "ncessch": "240033000640"}, {"name": "Thurmont Middle", "lat": 39.620582, "lon": -77.404572, "proficiency": 0.025, "district": "Frederick County Public Schools", "city": "Thurmont", "ncessch": "240033000651"}, {"name": "Walkersville Middle", "lat": 39.48041, "lon": -77.354804, "proficiency": 0.075, "district": "Frederick County Public Schools", "city": "Walkersville", "ncessch": "240033000656"}, {"name": "West Frederick Middle", "lat": 39.415061, "lon": -77.427314, "proficiency": 0.11, "district": "Frederick County Public Schools", "city": "Frederick", "ncessch": "240033000658"}, {"name": "Oakdale Middle", "lat": 39.393177, "lon": -77.318896, "proficiency": 0.17, "district": "Frederick County Public Schools", "city": "Ijamsville", "ncessch": "240033001163"}, {"name": "Monocacy Valley Montessori", "lat": 39.41952, "lon": -77.413976, "proficiency": 0.495, "district": "Frederick County Public Schools", "city": "Frederick", "ncessch": "240033001187"}, {"name": "Crestwood Middle", "lat": 39.3937, "lon": -77.4227, "proficiency": 0.025, "district": "Frederick County Public Schools", "city": "Frederick", "ncessch": "240033001357"}, {"name": "New Market Middle", "lat": 39.3846, "lon": -77.2768, "proficiency": 0.12, "district": "Frederick County Public Schools", "city": "New Market", "ncessch": "240033001379"}, {"name": "Brunswick Middle", "lat": 39.3149, "lon": -77.604, "proficiency": 0.075, "district": "Frederick County Public Schools", "city": "Brunswick", "ncessch": "240033001409"}, {"name": "Heather Ridge", "lat": 39.4379, "lon": -77.4134, "proficiency": 0.245, "district": "Frederick County Public Schools", "city": "Frederick", "ncessch": "240033001410"}, {"name": "Monocacy Middle", "lat": 39.454746, "lon": -77.413486, "proficiency": 0.025, "district": "Frederick County Public Schools", "city": "Frederick", "ncessch": "240033001413"}, {"name": "Urbana Middle", "lat": 39.329126, "lon": -77.336432, "proficiency": 0.27, "district": "Frederick County Public Schools", "city": "Ijamsville", "ncessch": "240033001536"}, {"name": "Gov. Thomas Johnson Middle", "lat": 39.43702, "lon": -77.398091, "proficiency": 0.12, "district": "Frederick County Public Schools", "city": "Frederick", "ncessch": "240033001549"}, {"name": "Carroll Creek Montessori Public Charter", "lat": 39.37822, "lon": -77.414871, "proficiency": 0.1, "district": "Frederick County Public Schools", "city": "Frederick", "ncessch": "240033001712"}, {"name": "Frederick Classical Charter", "lat": 39.436572, "lon": -77.373275, "proficiency": 0.15, "district": "Frederick County Public Schools", "city": "Frederick", "ncessch": "240033001715"}, {"name": "Ballenger Creek Middle", "lat": 39.3858, "lon": -77.4411, "proficiency": 0.12, "district": "Frederick County Public Schools", "city": "Frederick", "ncessch": "240033090446"}, {"name": "Southern Middle School", "lat": 39.4154, "lon": -79.3803, "proficiency": 0.12, "district": "Garrett County Public Schools", "city": "Oakland", "ncessch": "240036000675"}, {"name": "Northern Middle School", "lat": 39.6634, "lon": -79.3022, "proficiency": 0.12, "district": "Garrett County Public Schools", "city": "Accident", "ncessch": "240036001351"}, {"name": "Center for Educational Opportunity", "lat": 39.518061, "lon": -76.169797, "proficiency": 0.245, "district": "Harford County Public Schools", "city": "Aberdeen", "ncessch": "240039000480"}, {"name": "Aberdeen Middle", "lat": 39.5155, "lon": -76.1648, "proficiency": 0.02, "district": "Harford County Public Schools", "city": "Aberdeen", "ncessch": "240039000678"}, {"name": "Southampton Middle", "lat": 39.546593, "lon": -76.332768, "proficiency": 0.025, "district": "Harford County Public Schools", "city": "Bel Air", "ncessch": "240039000682"}, {"name": "Edgewood Middle", "lat": 39.4223, "lon": -76.2886, "proficiency": 0.025, "district": "Harford County Public Schools", "city": "Edgewood", "ncessch": "240039000689"}, {"name": "Havre de Grace Middle", "lat": 39.545272, "lon": -76.1012, "proficiency": 0.025, "district": "Harford County Public Schools", "city": "Havre de Grace", "ncessch": "240039000696"}, {"name": "Harford Academy at Campus Hills", "lat": 39.556982, "lon": -76.287437, "proficiency": 0.245, "district": "Harford County Public Schools", "city": "Bel Air", "ncessch": "240039000703"}, {"name": "North Harford Middle", "lat": 39.6754, "lon": -76.4061, "proficiency": 0.025, "district": "Harford County Public Schools", "city": "Pylesville", "ncessch": "240039000709"}, {"name": "Magnolia Middle", "lat": 39.408, "lon": -76.3302, "proficiency": 0.025, "district": "Harford County Public Schools", "city": "Joppa", "ncessch": "240039001352"}, {"name": "Bel Air Middle", "lat": 39.5274, "lon": -76.3445, "proficiency": 0.04, "district": "Harford County Public Schools", "city": "Bel Air", "ncessch": "240039001397"}, {"name": "Patterson Mill Middle School", "lat": 39.507129, "lon": -76.324471, "proficiency": 0.025, "district": "Harford County Public Schools", "city": "Bel Air", "ncessch": "240039001642"}, {"name": "Fallston Middle School", "lat": 39.519298, "lon": -76.410835, "proficiency": 0.075, "district": "Harford County Public Schools", "city": "Fallston", "ncessch": "240039090475"}, {"name": "Burleigh Manor Middle School", "lat": 39.2552, "lon": -76.8674, "proficiency": 0.32, "district": "Howard County Public Schools", "city": "Ellicott City", "ncessch": "240042000173"}, {"name": "Mount View Middle", "lat": 39.321, "lon": -76.9369, "proficiency": 0.22, "district": "Howard County Public Schools", "city": "Marriottsville", "ncessch": "240042000403"}, {"name": "Elkridge Landing Middle", "lat": 39.2123, "lon": -76.7291, "proficiency": 0.025, "district": "Howard County Public Schools", "city": "Elkridge", "ncessch": "240042000633"}, {"name": "Clarksville Middle", "lat": 39.1903, "lon": -76.9241, "proficiency": 0.37, "district": "Howard County Public Schools", "city": "Clarksville", "ncessch": "240042000725"}, {"name": "Dunloggin Middle", "lat": 39.2565, "lon": -76.8322, "proficiency": 0.17, "district": "Howard County Public Schools", "city": "Ellicott City", "ncessch": "240042000727"}, {"name": "Glenwood Middle", "lat": 39.2975, "lon": -77.0242, "proficiency": 0.12, "district": "Howard County Public Schools", "city": "Glenwood", "ncessch": "240042000732"}, {"name": "Hammond Middle School", "lat": 39.1485, "lon": -76.8789, "proficiency": 0.12, "district": "Howard County Public Schools", "city": "Laurel", "ncessch": "240042000736"}, {"name": "Harpers Choice Middle", "lat": 39.2247, "lon": -76.8878, "proficiency": 0.025, "district": "Howard County Public Schools", "city": "Columbia", "ncessch": "240042000737"}, {"name": "Oakland Mills Middle", "lat": 39.2075, "lon": -76.8435, "proficiency": 0.075, "district": "Howard County Public Schools", "city": "Columbia", "ncessch": "240042000746"}, {"name": "Patapsco Middle", "lat": 39.298023, "lon": -76.817126, "proficiency": 0.17, "district": "Howard County Public Schools", "city": "Ellicott City", "ncessch": "240042000748"}, {"name": "Wilde Lake Middle", "lat": 39.217125, "lon": -76.87674, "proficiency": 0.025, "district": "Howard County Public Schools", "city": "Columbia", "ncessch": "240042000763"}, {"name": "Murray Hill Middle", "lat": 39.1453, "lon": -76.8577, "proficiency": 0.075, "district": "Howard County Public Schools", "city": "Laurel", "ncessch": "240042000860"}, {"name": "Lime Kiln Middle", "lat": 39.1545, "lon": -76.9157, "proficiency": 0.17, "district": "Howard County Public Schools", "city": "Fulton", "ncessch": "240042001115"}, {"name": "Bonnie Branch Middle", "lat": 39.2323, "lon": -76.7728, "proficiency": 0.12, "district": "Howard County Public Schools", "city": "Ellicott City", "ncessch": "240042001172"}, {"name": "Cedar Lane Special Center", "lat": 39.15579, "lon": -76.915341, "proficiency": 0.245, "district": "Howard County Public Schools", "city": "Fulton", "ncessch": "240042001415"}, {"name": "Ellicott Mills Middle", "lat": 39.2499, "lon": -76.8103, "proficiency": 0.17, "district": "Howard County Public Schools", "city": "Ellicott City", "ncessch": "240042001444"}, {"name": "Patuxent Valley Middle", "lat": 39.1469, "lon": -76.8283, "proficiency": 0.075, "district": "Howard County Public Schools", "city": "Jessup", "ncessch": "240042001522"}, {"name": "Folly Quarter Middle", "lat": 39.2663, "lon": -76.9838, "proficiency": 0.27, "district": "Howard County Public Schools", "city": "Ellicott City", "ncessch": "240042001552"}, {"name": "Lake Elkhorn Middle", "lat": 39.19139, "lon": -76.843401, "proficiency": 0.025, "district": "Howard County Public Schools", "city": "Columbia", "ncessch": "240042001700"}, {"name": "Thomas Viaduct", "lat": 39.185232, "lon": -76.735434, "proficiency": 0.025, "district": "Howard County Public Schools", "city": "Hanover", "ncessch": "240042001720"}, {"name": "Mayfield Woods Middle", "lat": 39.197633, "lon": -76.786292, "proficiency": 0.025, "district": "Howard County Public Schools", "city": "Elkridge", "ncessch": "240042090477"}, {"name": "Kent County Middle School", "lat": 39.217779, "lon": -76.061818, "proficiency": 0.025, "district": "Kent County Public Schools", "city": "Chestertown", "ncessch": "240045000766"}, {"name": "Rosa M. Parks Middle", "lat": 39.1719, "lon": -77.0813, "proficiency": 0.075, "district": "Montgomery County Public Schools", "city": "Olney", "ncessch": "240048000181"}, {"name": "Argyle Middle", "lat": 39.0894, "lon": -77.0488, "proficiency": 0.025, "district": "Montgomery County Public Schools", "city": "Silver Spring", "ncessch": "240048000409"}, {"name": "Roberto W. Clemente Middle", "lat": 39.1657, "lon": -77.248, "proficiency": 0.16, "district": "Montgomery County Public Schools", "city": "Germantown", "ncessch": "240048000493"}, {"name": "Forest Oak Middle", "lat": 39.1539, "lon": -77.1849, "proficiency": 0.025, "district": "Montgomery County Public Schools", "city": "Gaithersburg", "ncessch": "240048000644"}, {"name": "Rocky Hill Middle", "lat": 39.2225, "lon": -77.2633, "proficiency": 0.12, "district": "Montgomery County Public Schools", "city": "Clarksburg", "ncessch": "240048000660"}, {"name": "Neelsville Middle", "lat": 39.1942, "lon": -77.2407, "proficiency": 0.025, "district": "Montgomery County Public Schools", "city": "Germantown", "ncessch": "240048000759"}, {"name": "Benjamin Banneker Middle", "lat": 39.096006, "lon": -76.948207, "proficiency": 0.025, "district": "Montgomery County Public Schools", "city": "Burtonsville", "ncessch": "240048000783"}, {"name": "Odessa Shannon Middle", "lat": 39.0496, "lon": -77.0305, "proficiency": 0.025, "district": "Montgomery County Public Schools", "city": "Silver Spring", "ncessch": "240048000806"}, {"name": "Earle B. Wood Middle", "lat": 39.093415, "lon": -77.107478, "proficiency": 0.075, "district": "Montgomery County Public Schools", "city": "Rockville", "ncessch": "240048000820"}, {"name": "Gaithersburg Middle", "lat": 39.144, "lon": -77.1878, "proficiency": 0.025, "district": "Montgomery County Public Schools", "city": "Gaithersburg", "ncessch": "240048000837"}, {"name": "Herbert Hoover Middle", "lat": 39.044773, "lon": -77.178739, "proficiency": 0.3, "district": "Montgomery County Public Schools", "city": "Potomac", "ncessch": "240048000849"}, {"name": "Julius West Middle", "lat": 39.076839, "lon": -77.163515, "proficiency": 0.13, "district": "Montgomery County Public Schools", "city": "Rockville", "ncessch": "240048000857"}, {"name": "John H. Poole Middle", "lat": 39.1258, "lon": -77.4105, "proficiency": 0.12, "district": "Montgomery County Public Schools", "city": "Poolesville", "ncessch": "240048000861"}, {"name": "Kingsview Middle", "lat": 39.166142, "lon": -77.285035, "proficiency": 0.12, "district": "Montgomery County Public Schools", "city": "Germantown", "ncessch": "240048000863"}, {"name": "Montgomery Village Middle", "lat": 39.172707, "lon": -77.209119, "proficiency": 0.025, "district": "Montgomery County Public Schools", "city": "Montgomery Village", "ncessch": "240048000879"}, {"name": "Parkland Middle", "lat": 39.084069, "lon": -77.091731, "proficiency": 0.03, "district": "Montgomery County Public Schools", "city": "Rockville", "ncessch": "240048000891"}, {"name": "Redland Middle", "lat": 39.1404, "lon": -77.1319, "proficiency": 0.025, "district": "Montgomery County Public Schools", "city": "Rockville", "ncessch": "240048000901"}, {"name": "Ridgeview Middle", "lat": 39.1277, "lon": -77.2493, "proficiency": 0.075, "district": "Montgomery County Public Schools", "city": "Gaithersburg", "ncessch": "240048000903"}, {"name": "Takoma Park Middle", "lat": 38.9854, "lon": -77.013, "proficiency": 0.28, "district": "Montgomery County Public Schools", "city": "Silver Spring", "ncessch": "240048000933"}, {"name": "Westland Middle", "lat": 38.9604, "lon": -77.1093, "proficiency": 0.12, "district": "Montgomery County Public Schools", "city": "Bethesda", "ncessch": "240048000949"}, {"name": "White Oak Middle", "lat": 39.056225, "lon": -76.995422, "proficiency": 0.025, "district": "Montgomery County Public Schools", "city": "Silver Spring", "ncessch": "240048000954"}, {"name": "William H. Farquhar Middle", "lat": 39.1357, "lon": -77.0431, "proficiency": 0.075, "district": "Montgomery County Public Schools", "city": "Olney", "ncessch": "240048000957"}, {"name": "North Bethesda Middle", "lat": 39.0042, "lon": -77.1249, "proficiency": 0.27, "district": "Montgomery County Public Schools", "city": "Bethesda", "ncessch": "240048001118"}, {"name": "Shady Grove Middle", "lat": 39.1432, "lon": -77.1627, "proficiency": 0.025, "district": "Montgomery County Public Schools", "city": "Gaithersburg", "ncessch": "240048001127"}, {"name": "Silver Spring International Middle", "lat": 39.0003, "lon": -77.0149, "proficiency": 0.06, "district": "Montgomery County Public Schools", "city": "Silver Spring", "ncessch": "240048001128"}, {"name": "Newport Mill Middle", "lat": 39.0413, "lon": -77.0677, "proficiency": 0.075, "district": "Montgomery County Public Schools", "city": "Kensington", "ncessch": "240048001207"}, {"name": "John L Gildner Regional Inst for Children & Adol", "lat": 39.103, "lon": -77.202, "proficiency": 0.245, "district": "Montgomery County Public Schools", "city": "Rockville", "ncessch": "240048001398"}, {"name": "Martin Luther King Jr. Middle", "lat": 39.1808, "lon": -77.2851, "proficiency": 0.12, "district": "Montgomery County Public Schools", "city": "Germantown", "ncessch": "240048001417"}, {"name": "Lakelands Park Middle", "lat": 39.1157, "lon": -77.2325, "proficiency": 0.14, "district": "Montgomery County Public Schools", "city": "Gaithersburg", "ncessch": "240048001441"}, {"name": "A. Mario Loiederman Middle", "lat": 39.0652, "lon": -77.0708, "proficiency": 0.025, "district": "Montgomery County Public Schools", "city": "Silver Spring", "ncessch": "240048001446"}, {"name": "Robert Frost Middle School", "lat": 39.075882, "lon": -77.187714, "proficiency": 0.25, "district": "Montgomery County Public Schools", "city": "Rockville", "ncessch": "240048001447"}, {"name": "Tilden Middle", "lat": 39.041761, "lon": -77.130816, "proficiency": 0.13, "district": "Montgomery County Public Schools", "city": "Rockville", "ncessch": "240048001450"}, {"name": "John T. Baker Middle School", "lat": 39.274, "lon": -77.2187, "proficiency": 0.075, "district": "Montgomery County Public Schools", "city": "Damascus", "ncessch": "240048001456"}, {"name": "Eastern Middle", "lat": 39.011893, "lon": -77.001352, "proficiency": 0.12, "district": "Montgomery County Public Schools", "city": "Silver Spring", "ncessch": "240048001457"}, {"name": "Sligo Middle", "lat": 39.0266, "lon": -77.033, "proficiency": 0.025, "district": "Montgomery County Public Schools", "city": "Silver Spring", "ncessch": "240048001458"}, {"name": "Rock Terrace School", "lat": 39.041761, "lon": -77.130816, "proficiency": 0.245, "district": "Montgomery County Public Schools", "city": "Rockville", "ncessch": "240048001460"}, {"name": "Cabin John Middle", "lat": 39.031334, "lon": -77.172005, "proficiency": 0.23, "district": "Montgomery County Public Schools", "city": "Potomac", "ncessch": "240048001526"}, {"name": "Hallie Wells Middle", "lat": 39.232362, "lon": -77.239286, "proficiency": 0.075, "district": "Montgomery County Public Schools", "city": "Clarksburg", "ncessch": "240048001739"}, {"name": "Silver Creek Middle", "lat": 39.016033, "lon": -77.075005, "proficiency": 0.12, "district": "Montgomery County Public Schools", "city": "Kensington", "ncessch": "240048001741"}, {"name": "Thomas W. Pyle Middle", "lat": 38.9892, "lon": -77.1305, "proficiency": 0.28, "district": "Montgomery County Public Schools", "city": "Bethesda", "ncessch": "240048009000"}, {"name": "Briggs Chaney Middle", "lat": 39.1096, "lon": -76.9711, "proficiency": 0.025, "district": "Montgomery County Public Schools", "city": "Silver Spring", "ncessch": "240048090450"}, {"name": "Francis Scott Key Middle", "lat": 39.027714, "lon": -76.992276, "proficiency": 0.025, "district": "Montgomery County Public Schools", "city": "Silver Spring", "ncessch": "240048090453"}, {"name": "Judith P. Hoyer Montessori", "lat": 38.90373, "lon": -76.887902, "proficiency": 0.245, "district": "Prince George's County Public Schools", "city": "Landover", "ncessch": "240051000414"}, {"name": "John Hanson Montessori", "lat": 38.80268, "lon": -76.992319, "proficiency": 0.1, "district": "Prince George's County Public Schools", "city": "Oxon Hill", "ncessch": "240051000870"}, {"name": "Beltsville Academy", "lat": 39.038557, "lon": -76.918498, "proficiency": 0.025, "district": "Prince George's County Public Schools", "city": "Beltsville", "ncessch": "240051000978"}, {"name": "Benjamin Tasker Middle School", "lat": 38.9581, "lon": -76.7455, "proficiency": 0.075, "district": "Prince George's County Public Schools", "city": "Bowie", "ncessch": "240051000982"}, {"name": "Buck Lodge Middle", "lat": 39.010968, "lon": -76.961138, "proficiency": 0.005, "district": "Prince George's County Public Schools", "city": "Adelphi", "ncessch": "240051000993"}, {"name": "Charles Carroll Middle", "lat": 38.9673, "lon": -76.8814, "proficiency": 0.03, "district": "Prince George's County Public Schools", "city": "New Carrollton", "ncessch": "240051001004"}, {"name": "Dwight D. Eisenhower Middle", "lat": 39.0794, "lon": -76.8542, "proficiency": 0.005, "district": "Prince George's County Public Schools", "city": "Laurel", "ncessch": "240051001024"}, {"name": "Drew Freeman Middle", "lat": 38.836127, "lon": -76.885357, "proficiency": 0.025, "district": "Prince George's County Public Schools", "city": "Forestville", "ncessch": "240051001034"}, {"name": "Greenbelt Middle", "lat": 38.999181, "lon": -76.902955, "proficiency": 0.04, "district": "Prince George's County Public Schools", "city": "Greenbelt", "ncessch": "240051001049"}, {"name": "Gwynn Park Middle", "lat": 38.706705, "lon": -76.869112, "proficiency": 0.025, "district": "Prince George's County Public Schools", "city": "Brandywine", "ncessch": "240051001051"}, {"name": "Hyattsville Middle", "lat": 38.98785, "lon": -76.842098, "proficiency": 0.075, "district": "Prince George's County Public Schools", "city": "Seabrook", "ncessch": "240051001065"}, {"name": "Isaac J. Gourdine Middle", "lat": 38.7697, "lon": -76.9514, "proficiency": 0.025, "district": "Prince George's County Public Schools", "city": "Fort Washington", "ncessch": "240051001095"}, {"name": "Martin Luther King Jr. Middle", "lat": 39.0549, "lon": -76.9093, "proficiency": 0.025, "district": "Prince George's County Public Schools", "city": "Beltsville", "ncessch": "240051001101"}, {"name": "Nicholas Orem Middle", "lat": 38.9643, "lon": -76.9603, "proficiency": 0.025, "district": "Prince George's County Public Schools", "city": "Hyattsville", "ncessch": "240051001112"}, {"name": "Samuel Ogle Middle", "lat": 38.9935, "lon": -76.7414, "proficiency": 0.025, "district": "Prince George's County Public Schools", "city": "Bowie", "ncessch": "240051001152"}, {"name": "Thomas G. Pullen School", "lat": 38.899872, "lon": -76.854447, "proficiency": 0.05, "district": "Prince George's County Public Schools", "city": "Landover", "ncessch": "240051001174"}, {"name": "Thomas Johnson Middle", "lat": 38.9606, "lon": -76.8411, "proficiency": 0.025, "district": "Prince George's County Public Schools", "city": "Lanham", "ncessch": "240051001175"}, {"name": "William Wirt Middle", "lat": 38.9671, "lon": -76.9098, "proficiency": 0.005, "district": "Prince George's County Public Schools", "city": "Riverdale", "ncessch": "240051001186"}, {"name": "G. James Gholson Middle", "lat": 38.902936, "lon": -76.875432, "proficiency": 0.025, "district": "Prince George's County Public Schools", "city": "Landover", "ncessch": "240051001211"}, {"name": "Ernest Everett Just Middle", "lat": 38.9071, "lon": -76.8301, "proficiency": 0.025, "district": "Prince George's County Public Schools", "city": "Mitchellville", "ncessch": "240051001223"}, {"name": "Dora Kennedy French Immersion", "lat": 38.99719, "lon": -76.902184, "proficiency": 0.15, "district": "Prince George's County Public Schools", "city": "Greenbelt", "ncessch": "240051001245"}, {"name": "Robert Goddard Montessori", "lat": 38.98785, "lon": -76.842098, "proficiency": 0.3, "district": "Prince George's County Public Schools", "city": "Seabrook", "ncessch": "240051001251"}, {"name": "James E. Duckworth Regional Center", "lat": 39.042394, "lon": -76.937546, "proficiency": 0.245, "district": "Prince George's County Public Schools", "city": "Beltsville", "ncessch": "240051001354"}, {"name": "Margaret Brent Regional Center", "lat": 38.9643, "lon": -76.8822, "proficiency": 0.245, "district": "Prince George's County Public Schools", "city": "New Carrollton", "ncessch": "240051001419"}, {"name": "William W. Hall Academy", "lat": 38.8707, "lon": -76.9182, "proficiency": 0.1, "district": "Prince George's County Public Schools", "city": "Capitol Heights", "ncessch": "240051001462"}, {"name": "Benjamin Stoddert Middle", "lat": 38.8303, "lon": -76.9477, "proficiency": 0.025, "district": "Prince George's County Public Schools", "city": "Temple Hills", "ncessch": "240051001464"}, {"name": "Thurgood Marshall Middle School", "lat": 38.8013, "lon": -76.9222, "proficiency": 0.025, "district": "Prince George's County Public Schools", "city": "Temple Hills", "ncessch": "240051001465"}, {"name": "Stephen Decatur Middle", "lat": 38.7769, "lon": -76.9083, "proficiency": 0.025, "district": "Prince George's County Public Schools", "city": "Clinton", "ncessch": "240051001469"}, {"name": "Oxon Hill Middle", "lat": 38.7615, "lon": -77.0141, "proficiency": 0.025, "district": "Prince George's County Public Schools", "city": "Fort Washington", "ncessch": "240051001471"}, {"name": "Kettering Middle", "lat": 38.894736, "lon": -76.810989, "proficiency": 0.025, "district": "Prince George's County Public Schools", "city": "Upper Marlboro", "ncessch": "240051001472"}, {"name": "Kenmoor Middle", "lat": 38.9253, "lon": -76.8674, "proficiency": 0.12, "district": "Prince George's County Public Schools", "city": "Landover", "ncessch": "240051001473"}, {"name": "James Madison Middle", "lat": 38.788732, "lon": -76.84071, "proficiency": 0.025, "district": "Prince George's County Public Schools", "city": "Upper Marlboro", "ncessch": "240051001475"}, {"name": "Walker Mill Middle", "lat": 38.876879, "lon": -76.885739, "proficiency": 0.025, "district": "Prince George's County Public Schools", "city": "Capitol Heights", "ncessch": "240051001477"}, {"name": "Excel Academy Public Charter", "lat": 38.92113, "lon": -76.869101, "proficiency": 0.05, "district": "Prince George's County Public Schools", "city": "Landover", "ncessch": "240051001540"}, {"name": "Maya Angelou French Immersion", "lat": 38.834349, "lon": -76.968506, "proficiency": 0.1, "district": "Prince George's County Public Schools", "city": "Temple Hills", "ncessch": "240051001554"}, {"name": "Samuel P. Massie Academy", "lat": 38.8448, "lon": -76.9076, "proficiency": 0.1, "district": "Prince George's County Public Schools", "city": "Forestville", "ncessch": "240051001555"}, {"name": "Imagine Foundations at Leeland PCS", "lat": 38.873988, "lon": -76.760595, "proficiency": 0.05, "district": "Prince George's County Public Schools", "city": "Upper Marlboro", "ncessch": "240051001637"}, {"name": "Imagine Lincoln Public Charter", "lat": 38.830289, "lon": -76.950053, "proficiency": 0.1, "district": "Prince George's County Public Schools", "city": "Temple Hills", "ncessch": "240051001648"}, {"name": "Andrew Jackson Academy", "lat": 38.840964, "lon": -76.908318, "proficiency": 0.1, "district": "Prince George's County Public Schools", "city": "Forestville", "ncessch": "240051001683"}, {"name": "Benjamin D. Foulois Academy", "lat": 38.826719, "lon": -76.886503, "proficiency": 0.05, "district": "Prince George's County Public Schools", "city": "Morningside", "ncessch": "240051001684"}, {"name": "Accokeek Academy", "lat": 38.68788, "lon": -76.978821, "proficiency": 0.075, "district": "Prince George's County Public Schools", "city": "Accokeek", "ncessch": "240051001686"}, {"name": "Imagine Andrews Public Charter", "lat": 38.79755, "lon": -76.893784, "proficiency": 0.15, "district": "Prince George's County Public Schools", "city": "Andrews Afb", "ncessch": "240051001701"}, {"name": "Imagine Foundations at Morningside PCS", "lat": 38.82929, "lon": -76.886093, "proficiency": 0.1, "district": "Prince George's County Public Schools", "city": "Morningside", "ncessch": "240051001706"}, {"name": "Chesapeake Math and IT Public Charter", "lat": 39.092568, "lon": -76.900296, "proficiency": 0.075, "district": "Prince George's County Public Schools", "city": "Laurel", "ncessch": "240051001708"}, {"name": "College Park Academy", "lat": 38.968034, "lon": -76.9274, "proficiency": 0.075, "district": "Prince George's County Public Schools", "city": "Riverdale", "ncessch": "240051001718"}, {"name": "Chesapeake Math and IT South Public Charter", "lat": 38.80693, "lon": -76.839752, "proficiency": 0.025, "district": "Prince George's County Public Schools", "city": "Upper Marlboro", "ncessch": "240051001726"}, {"name": "Centreville Middle School", "lat": 39.0341, "lon": -76.0503, "proficiency": 0.025, "district": "Queen Anne's County Public Schools", "city": "Centreville", "ncessch": "240054001190"}, {"name": "Stevensville Middle School", "lat": 38.9775, "lon": -76.3088, "proficiency": 0.025, "district": "Queen Anne's County Public Schools", "city": "Stevensville", "ncessch": "240054001196"}, {"name": "Sudlersville Middle School", "lat": 39.182483, "lon": -75.852483, "proficiency": 0.025, "district": "Queen Anne's County Public Schools", "city": "Sudlersville", "ncessch": "240054001198"}, {"name": "Matapeake Middle School", "lat": 38.9606, "lon": -76.3346, "proficiency": 0.075, "district": "Queen Anne's County Public Schools", "city": "Stevensville", "ncessch": "240054001644"}, {"name": "Crisfield Academy and High School", "lat": 37.986894, "lon": -75.843653, "proficiency": 0.025, "district": "Somerset County Public Schools", "city": "Crisfield", "ncessch": "240057001201"}, {"name": "Washington Academy and High School", "lat": 38.1807, "lon": -75.6875, "proficiency": 0.075, "district": "Somerset County Public Schools", "city": "Princess Anne", "ncessch": "240057001213"}, {"name": "Esperanza Middle", "lat": 38.2925, "lon": -76.4894, "proficiency": 0.12, "district": "St. Mary's County Public Schools", "city": "Lexington Park", "ncessch": "240060001220"}, {"name": "Leonardtown Middle", "lat": 38.273621, "lon": -76.61191, "proficiency": 0.1, "district": "St. Mary's County Public Schools", "city": "Leonardtown", "ncessch": "240060001229"}, {"name": "Margaret Brent Middle", "lat": 38.3801, "lon": -76.7161, "proficiency": 0.07, "district": "St. Mary's County Public Schools", "city": "Mechanicsville", "ncessch": "240060001231"}, {"name": "Spring Ridge Middle", "lat": 38.2123, "lon": -76.4014, "proficiency": 0.12, "district": "St. Mary's County Public Schools", "city": "Lexington Park", "ncessch": "240060001237"}, {"name": "Chesapeake Charter School", "lat": 38.2429, "lon": -76.4929, "proficiency": 0.245, "district": "St. Mary's County Public Schools", "city": "Lexington Park", "ncessch": "240060001639"}, {"name": "Easton Middle", "lat": 38.7631, "lon": -76.077, "proficiency": 0.025, "district": "Talbot County Public Schools", "city": "Easton", "ncessch": "240063001243"}, {"name": "St. Michaels Middle/High School", "lat": 38.780418, "lon": -76.216613, "proficiency": 0.05, "district": "Talbot County Public Schools", "city": "St Michaels", "ncessch": "240063001248"}, {"name": "Boonsboro Middle", "lat": 39.5153, "lon": -77.6483, "proficiency": 0.12, "district": "Washington County Public Schools", "city": "Boonsboro", "ncessch": "240066001255"}, {"name": "Clear Spring Middle", "lat": 39.6583, "lon": -77.9361, "proficiency": 0.12, "district": "Washington County Public Schools", "city": "Clear Spring", "ncessch": "240066001261"}, {"name": "E. Russell Hicks Middle", "lat": 39.6149, "lon": -77.7324, "proficiency": 0.075, "district": "Washington County Public Schools", "city": "Hagerstown", "ncessch": "240066001263"}, {"name": "Hancock Middle Senior High", "lat": 39.6969, "lon": -78.1966, "proficiency": 0.05, "district": "Washington County Public Schools", "city": "Hancock", "ncessch": "240066001270"}, {"name": "Northern Middle", "lat": 39.6653, "lon": -77.7138, "proficiency": 0.025, "district": "Washington County Public Schools", "city": "Hagerstown", "ncessch": "240066001276"}, {"name": "Smithsburg Middle", "lat": 39.6621, "lon": -77.5743, "proficiency": 0.075, "district": "Washington County Public Schools", "city": "Smithsburg", "ncessch": "240066001287"}, {"name": "Springfield Middle", "lat": 39.5935, "lon": -77.8117, "proficiency": 0.025, "district": "Washington County Public Schools", "city": "Williamsport", "ncessch": "240066001290"}, {"name": "Western Heights Middle", "lat": 39.66, "lon": -77.729, "proficiency": 0.075, "district": "Washington County Public Schools", "city": "Hagerstown", "ncessch": "240066001293"}, {"name": "Salisbury Middle", "lat": 38.3824, "lon": -75.6058, "proficiency": 0.12, "district": "Wicomico County Public Schools", "city": "Salisbury", "ncessch": "240069001145"}, {"name": "Bennett Middle", "lat": 38.315788, "lon": -75.629407, "proficiency": 0.17, "district": "Wicomico County Public Schools", "city": "Fruitland", "ncessch": "240069001299"}, {"name": "Mardela Middle & High", "lat": 38.465127, "lon": -75.747279, "proficiency": 0.12, "district": "Wicomico County Public Schools", "city": "Mardela Springs", "ncessch": "240069001306"}, {"name": "Pittsville Elementary & Middle", "lat": 38.39166, "lon": -75.419285, "proficiency": 0.025, "district": "Wicomico County Public Schools", "city": "Pittsville", "ncessch": "240069001312"}, {"name": "Wicomico Middle", "lat": 38.3663, "lon": -75.5889, "proficiency": 0.025, "district": "Wicomico County Public Schools", "city": "Salisbury", "ncessch": "240069001319"}, {"name": "Stephen Decatur Middle", "lat": 38.3376, "lon": -75.1896, "proficiency": 0.26, "district": "Worcester County Public Schools", "city": "Berlin", "ncessch": "240072000880"}, {"name": "Pocomoke Middle", "lat": 38.0667, "lon": -75.5666, "proficiency": 0.12, "district": "Worcester County Public Schools", "city": "Pocomoke City", "ncessch": "240072001329"}, {"name": "Snow Hill Middle", "lat": 38.1671, "lon": -75.3974, "proficiency": 0.17, "district": "Worcester County Public Schools", "city": "Snow Hill", "ncessch": "240072001333"}], "districts": [{"name": "SEED School of Maryland", "lat": 39.28404, "lon": -76.664092, "proficiency": 0.025, "schoolCount": 1}, {"name": "Allegany County Public Schools", "lat": 39.641702, "lon": -78.846193, "proficiency": 0.0375, "schoolCount": 4}, {"name": "Anne Arundel County Public Schools", "lat": 39.08357618181818, "lon": -76.61652831818182, "proficiency": 0.0686, "schoolCount": 22}, {"name": "Baltimore City Public Schools", "lat": 39.30874858227848, "lon": -76.61680553164557, "proficiency": 0.0802, "schoolCount": 79}, {"name": "Baltimore County Public Schools", "lat": 39.348731965517246, "lon": -76.60554179310344, "proficiency": 0.0543, "schoolCount": 29}, {"name": "Calvert County Public Schools", "lat": 38.55361766666667, "lon": -76.54788433333333, "proficiency": 0.0658, "schoolCount": 6}, {"name": "Caroline County Public Schools", "lat": 38.822557, "lon": -75.82672149999999, "proficiency": 0.025, "schoolCount": 2}, {"name": "Carroll County Public Schools", "lat": 39.52693277777777, "lon": -76.9906, "proficiency": 0.1789, "schoolCount": 9}, {"name": "Cecil County Public Schools", "lat": 39.61285, "lon": -75.93253183333333, "proficiency": 0.05, "schoolCount": 6}, {"name": "Charles County Public Schools", "lat": 38.57727075, "lon": -76.981391625, "proficiency": 0.0294, "schoolCount": 8}, {"name": "Dorchester County Public Schools", "lat": 38.513477, "lon": -76.05153733333333, "proficiency": 0.0667, "schoolCount": 3}, {"name": "Frederick County Public Schools", "lat": 39.414584352941176, "lon": -77.40156570588235, "proficiency": 0.1421, "schoolCount": 17}, {"name": "Garrett County Public Schools", "lat": 39.5394, "lon": -79.34125, "proficiency": 0.12, "schoolCount": 2}, {"name": "Harford County Public Schools", "lat": 39.52199409090909, "lon": -76.28733709090909, "proficiency": 0.0705, "schoolCount": 11}, {"name": "Howard County Public Schools", "lat": 39.21685204761905, "lon": -76.86033495238095, "proficiency": 0.1352, "schoolCount": 21}, {"name": "Kent County Public Schools", "lat": 39.217779, "lon": -76.061818, "proficiency": 0.025, "schoolCount": 1}, {"name": "Montgomery County Public Schools", "lat": 39.09496704761905, "lon": -77.13487657142858, "proficiency": 0.1063, "schoolCount": 42}, {"name": "Prince George's County Public Schools", "lat": 38.89963430434783, "lon": -76.890651, "proficiency": 0.071, "schoolCount": 46}, {"name": "Queen Anne's County Public Schools", "lat": 39.03867075, "lon": -76.13654575, "proficiency": 0.0375, "schoolCount": 4}, {"name": "Somerset County Public Schools", "lat": 38.083797000000004, "lon": -75.76557650000001, "proficiency": 0.05, "schoolCount": 2}, {"name": "St. Mary's County Public Schools", "lat": 38.2802842, "lon": -76.54234199999999, "proficiency": 0.131, "schoolCount": 5}, {"name": "Talbot County Public Schools", "lat": 38.771759, "lon": -76.1468065, "proficiency": 0.0375, "schoolCount": 2}, {"name": "Washington County Public Schools", "lat": 39.6332875, "lon": -77.792775, "proficiency": 0.0706, "schoolCount": 8}, {"name": "Wicomico County Public Schools", "lat": 38.384255, "lon": -75.5981342, "proficiency": 0.092, "schoolCount": 5}, {"name": "Worcester County Public Schools", "lat": 38.190466666666666, "lon": -75.38453333333332, "proficiency": 0.1833, "schoolCount": 3}], "cities": [{"name": "Baltimore", "lat": 39.31152627884615, "lon": -76.60820201923077, "proficiency": 0.0727, "schoolCount": 104}, {"name": "Cumberland", "lat": 39.652254, "lon": -78.758386, "proficiency": 0.05, "schoolCount": 2}, {"name": "Lonaconing", "lat": 39.5612, "lon": -78.988, "proficiency": 0.025, "schoolCount": 1}, {"name": "Mount Savage", "lat": 39.7011, "lon": -78.88, "proficiency": 0.025, "schoolCount": 1}, {"name": "Annapolis", "lat": 38.965174, "lon": -76.508582, "proficiency": 0.05, "schoolCount": 2}, {"name": "Odenton", "lat": 39.0717, "lon": -76.6861, "proficiency": 0.09, "schoolCount": 1}, {"name": "Pasadena", "lat": 39.12235, "lon": -76.50365, "proficiency": 0.0625, "schoolCount": 2}, {"name": "Edgewater", "lat": 38.919428, "lon": -76.557341, "proficiency": 0.12, "schoolCount": 1}, {"name": "Glen Burnie", "lat": 39.163768, "lon": -76.60840466666667, "proficiency": 0.025, "schoolCount": 3}, {"name": "Linthicum", "lat": 39.1958, "lon": -76.662, "proficiency": 0.025, "schoolCount": 1}, {"name": "Fort Meade", "lat": 39.1211, "lon": -76.74170000000001, "proficiency": 0.0725, "schoolCount": 2}, {"name": "Arnold", "lat": 39.059091, "lon": -76.513451, "proficiency": 0.0975, "schoolCount": 2}, {"name": "Millersville", "lat": 39.1236085, "lon": -76.626773, "proficiency": 0.05, "schoolCount": 2}, {"name": "Severna Park", "lat": 39.0873, "lon": -76.5859, "proficiency": 0.21, "schoolCount": 1}, {"name": "Lothian", "lat": 38.8233, "lon": -76.6096, "proficiency": 0.025, "schoolCount": 1}, {"name": "Hanover", "lat": 39.176615, "lon": -76.735056, "proficiency": 0.0725, "schoolCount": 2}, {"name": "Gambrills", "lat": 38.9971, "lon": -76.6703, "proficiency": 0.13, "schoolCount": 1}, {"name": "Laurel", "lat": 39.1102934, "lon": -76.8630948, "proficiency": 0.06, "schoolCount": 5}, {"name": "Catonsville", "lat": 39.276, "lon": -76.7715, "proficiency": 0.025, "schoolCount": 1}, {"name": "Cockeysville", "lat": 39.4728, "lon": -76.6297, "proficiency": 0.075, "schoolCount": 1}, {"name": "Randallstown", "lat": 39.3879, "lon": -76.8197, "proficiency": 0.025, "schoolCount": 1}, {"name": "Reisterstown", "lat": 39.465, "lon": -76.8307, "proficiency": 0.03, "schoolCount": 1}, {"name": "Monkton", "lat": 39.5728, "lon": -76.6531, "proficiency": 0.12, "schoolCount": 1}, {"name": "Lutherville", "lat": 39.431572, "lon": -76.614531, "proficiency": 0.12, "schoolCount": 1}, {"name": "Huntingtown", "lat": 38.5972, "lon": -76.5829, "proficiency": 0.075, "schoolCount": 1}, {"name": "Prince Frederick", "lat": 38.556756, "lon": -76.588346, "proficiency": 0.025, "schoolCount": 1}, {"name": "Owings", "lat": 38.699600000000004, "lon": -76.6128, "proficiency": 0.0975, "schoolCount": 2}, {"name": "Lusby", "lat": 38.384275, "lon": -76.44523000000001, "proficiency": 0.05, "schoolCount": 2}, {"name": "Federalsburg", "lat": 38.754614, "lon": -75.825743, "proficiency": 0.025, "schoolCount": 1}, {"name": "Denton", "lat": 38.8905, "lon": -75.8277, "proficiency": 0.025, "schoolCount": 1}, {"name": "Mount Airy", "lat": 39.380941, "lon": -77.14743, "proficiency": 0.27, "schoolCount": 1}, {"name": "Hampstead", "lat": 39.62105, "lon": -76.86365, "proficiency": 0.1225, "schoolCount": 2}, {"name": "Taneytown", "lat": 39.6517, "lon": -77.1676, "proficiency": 0.12, "schoolCount": 1}, {"name": "Sykesville", "lat": 39.3872095, "lon": -76.9489205, "proficiency": 0.22, "schoolCount": 2}, {"name": "Westminster", "lat": 39.564411666666665, "lon": -76.991743, "proficiency": 0.1783, "schoolCount": 3}, {"name": "Elkton", "lat": 39.6471, "lon": -75.8451455, "proficiency": 0.05, "schoolCount": 2}, {"name": "North East", "lat": 39.6007, "lon": -75.9394, "proficiency": 0.075, "schoolCount": 1}, {"name": "Perryville", "lat": 39.569, "lon": -76.0685, "proficiency": 0.025, "schoolCount": 1}, {"name": "Rising Sun", "lat": 39.7016, "lon": -76.0665, "proficiency": 0.075, "schoolCount": 1}, {"name": "Chesapeake City", "lat": 39.5116, "lon": -75.8305, "proficiency": 0.025, "schoolCount": 1}, {"name": "Waldorf", "lat": 38.628966500000004, "lon": -76.93138325000001, "proficiency": 0.025, "schoolCount": 4}, {"name": "Indian Head", "lat": 38.60835, "lon": -77.10570000000001, "proficiency": 0.025, "schoolCount": 2}, {"name": "La Plata", "lat": 38.5239, "lon": -76.9726, "proficiency": 0.06, "schoolCount": 1}, {"name": "Newburg", "lat": 38.3617, "lon": -76.9416, "proficiency": 0.025, "schoolCount": 1}, {"name": "Hurlock", "lat": 38.584482, "lon": -75.875439, "proficiency": 0.075, "schoolCount": 1}, {"name": "Church Creek", "lat": 38.398249, "lon": -76.186973, "proficiency": 0.1, "schoolCount": 1}, {"name": "Cambridge", "lat": 38.5577, "lon": -76.0922, "proficiency": 0.025, "schoolCount": 1}, {"name": "Ijamsville", "lat": 39.348301, "lon": -77.31077599999999, "proficiency": 0.2033, "schoolCount": 3}, {"name": "Middletown", "lat": 39.444, "lon": -77.5359, "proficiency": 0.12, "schoolCount": 1}, {"name": "Thurmont", "lat": 39.620582, "lon": -77.404572, "proficiency": 0.025, "schoolCount": 1}, {"name": "Walkersville", "lat": 39.48041, "lon": -77.354804, "proficiency": 0.075, "schoolCount": 1}, {"name": "Frederick", "lat": 39.41761544444444, "lon": -77.41313477777777, "proficiency": 0.1544, "schoolCount": 9}, {"name": "New Market", "lat": 39.3846, "lon": -77.2768, "proficiency": 0.12, "schoolCount": 1}, {"name": "Brunswick", "lat": 39.3149, "lon": -77.604, "proficiency": 0.075, "schoolCount": 1}, {"name": "Oakland", "lat": 39.4154, "lon": -79.3803, "proficiency": 0.12, "schoolCount": 1}, {"name": "Accident", "lat": 39.6634, "lon": -79.3022, "proficiency": 0.12, "schoolCount": 1}, {"name": "Aberdeen", "lat": 39.5167805, "lon": -76.1672985, "proficiency": 0.1325, "schoolCount": 2}, {"name": "Bel Air", "lat": 39.534526, "lon": -76.322294, "proficiency": 0.0838, "schoolCount": 4}, {"name": "Edgewood", "lat": 39.4223, "lon": -76.2886, "proficiency": 0.025, "schoolCount": 1}, {"name": "Havre de Grace", "lat": 39.545272, "lon": -76.1012, "proficiency": 0.025, "schoolCount": 1}, {"name": "Pylesville", "lat": 39.6754, "lon": -76.4061, "proficiency": 0.025, "schoolCount": 1}, {"name": "Joppa", "lat": 39.408, "lon": -76.3302, "proficiency": 0.025, "schoolCount": 1}, {"name": "Fallston", "lat": 39.519298, "lon": -76.410835, "proficiency": 0.075, "schoolCount": 1}, {"name": "Ellicott City", "lat": 39.25970383333333, "lon": -76.84727099999999, "proficiency": 0.2033, "schoolCount": 6}, {"name": "Marriottsville", "lat": 39.321, "lon": -76.9369, "proficiency": 0.22, "schoolCount": 1}, {"name": "Elkridge", "lat": 39.2049665, "lon": -76.75769600000001, "proficiency": 0.025, "schoolCount": 2}, {"name": "Clarksville", "lat": 39.1903, "lon": -76.9241, "proficiency": 0.37, "schoolCount": 1}, {"name": "Glenwood", "lat": 39.2975, "lon": -77.0242, "proficiency": 0.12, "schoolCount": 1}, {"name": "Columbia", "lat": 39.21017875, "lon": -76.86286025, "proficiency": 0.0375, "schoolCount": 4}, {"name": "Fulton", "lat": 39.155145000000005, "lon": -76.9155205, "proficiency": 0.2075, "schoolCount": 2}, {"name": "Jessup", "lat": 39.1469, "lon": -76.8283, "proficiency": 0.075, "schoolCount": 1}, {"name": "Chestertown", "lat": 39.217779, "lon": -76.061818, "proficiency": 0.025, "schoolCount": 1}, {"name": "Olney", "lat": 39.153800000000004, "lon": -77.06219999999999, "proficiency": 0.075, "schoolCount": 2}, {"name": "Silver Spring", "lat": 39.0421932, "lon": -77.017115, "proficiency": 0.0635, "schoolCount": 10}, {"name": "Germantown", "lat": 39.1767105, "lon": -77.26470875, "proficiency": 0.1062, "schoolCount": 4}, {"name": "Gaithersburg", "lat": 39.1369, "lon": -77.20344, "proficiency": 0.058, "schoolCount": 5}, {"name": "Clarksburg", "lat": 39.227430999999996, "lon": -77.251293, "proficiency": 0.0975, "schoolCount": 2}, {"name": "Burtonsville", "lat": 39.096006, "lon": -76.948207, "proficiency": 0.025, "schoolCount": 1}, {"name": "Rockville", "lat": 39.082140875, "lon": -77.14324625, "proficiency": 0.1412, "schoolCount": 8}, {"name": "Potomac", "lat": 39.038053500000004, "lon": -77.175372, "proficiency": 0.265, "schoolCount": 2}, {"name": "Poolesville", "lat": 39.1258, "lon": -77.4105, "proficiency": 0.12, "schoolCount": 1}, {"name": "Montgomery Village", "lat": 39.172707, "lon": -77.209119, "proficiency": 0.025, "schoolCount": 1}, {"name": "Bethesda", "lat": 38.9846, "lon": -77.12156666666667, "proficiency": 0.2233, "schoolCount": 3}, {"name": "Kensington", "lat": 39.0286665, "lon": -77.0713525, "proficiency": 0.0975, "schoolCount": 2}, {"name": "Damascus", "lat": 39.274, "lon": -77.2187, "proficiency": 0.075, "schoolCount": 1}, {"name": "Landover", "lat": 38.9105936, "lon": -76.87085640000001, "proficiency": 0.098, "schoolCount": 5}, {"name": "Oxon Hill", "lat": 38.80268, "lon": -76.992319, "proficiency": 0.1, "schoolCount": 1}, {"name": "Beltsville", "lat": 39.04528366666667, "lon": -76.92178133333333, "proficiency": 0.0983, "schoolCount": 3}, {"name": "Bowie", "lat": 38.9758, "lon": -76.74345, "proficiency": 0.05, "schoolCount": 2}, {"name": "Adelphi", "lat": 39.010968, "lon": -76.961138, "proficiency": 0.005, "schoolCount": 1}, {"name": "New Carrollton", "lat": 38.9658, "lon": -76.8818, "proficiency": 0.1375, "schoolCount": 2}, {"name": "Forestville", "lat": 38.84063033333333, "lon": -76.900425, "proficiency": 0.075, "schoolCount": 3}, {"name": "Greenbelt", "lat": 38.998185500000005, "lon": -76.9025695, "proficiency": 0.095, "schoolCount": 2}, {"name": "Brandywine", "lat": 38.706705, "lon": -76.869112, "proficiency": 0.025, "schoolCount": 1}, {"name": "Seabrook", "lat": 38.98785, "lon": -76.842098, "proficiency": 0.1875, "schoolCount": 2}, {"name": "Fort Washington", "lat": 38.7656, "lon": -76.98275000000001, "proficiency": 0.025, "schoolCount": 2}, {"name": "Hyattsville", "lat": 38.9643, "lon": -76.9603, "proficiency": 0.025, "schoolCount": 1}, {"name": "Lanham", "lat": 38.9606, "lon": -76.8411, "proficiency": 0.025, "schoolCount": 1}, {"name": "Riverdale", "lat": 38.967567, "lon": -76.9186, "proficiency": 0.04, "schoolCount": 2}, {"name": "Mitchellville", "lat": 38.9071, "lon": -76.8301, "proficiency": 0.025, "schoolCount": 1}, {"name": "Capitol Heights", "lat": 38.8737895, "lon": -76.9019695, "proficiency": 0.0625, "schoolCount": 2}, {"name": "Temple Hills", "lat": 38.824059500000004, "lon": -76.94711475, "proficiency": 0.0625, "schoolCount": 4}, {"name": "Clinton", "lat": 38.7769, "lon": -76.9083, "proficiency": 0.025, "schoolCount": 1}, {"name": "Upper Marlboro", "lat": 38.8410965, "lon": -76.8130115, "proficiency": 0.0312, "schoolCount": 4}, {"name": "Morningside", "lat": 38.8280045, "lon": -76.88629800000001, "proficiency": 0.075, "schoolCount": 2}, {"name": "Accokeek", "lat": 38.68788, "lon": -76.978821, "proficiency": 0.075, "schoolCount": 1}, {"name": "Andrews Afb", "lat": 38.79755, "lon": -76.893784, "proficiency": 0.15, "schoolCount": 1}, {"name": "Centreville", "lat": 39.0341, "lon": -76.0503, "proficiency": 0.025, "schoolCount": 1}, {"name": "Stevensville", "lat": 38.969049999999996, "lon": -76.32169999999999, "proficiency": 0.05, "schoolCount": 2}, {"name": "Sudlersville", "lat": 39.182483, "lon": -75.852483, "proficiency": 0.025, "schoolCount": 1}, {"name": "Crisfield", "lat": 37.986894, "lon": -75.843653, "proficiency": 0.025, "schoolCount": 1}, {"name": "Princess Anne", "lat": 38.1807, "lon": -75.6875, "proficiency": 0.075, "schoolCount": 1}, {"name": "Lexington Park", "lat": 38.24923333333333, "lon": -76.46123333333334, "proficiency": 0.1617, "schoolCount": 3}, {"name": "Leonardtown", "lat": 38.273621, "lon": -76.61191, "proficiency": 0.1, "schoolCount": 1}, {"name": "Mechanicsville", "lat": 38.3801, "lon": -76.7161, "proficiency": 0.07, "schoolCount": 1}, {"name": "Easton", "lat": 38.7631, "lon": -76.077, "proficiency": 0.025, "schoolCount": 1}, {"name": "St Michaels", "lat": 38.780418, "lon": -76.216613, "proficiency": 0.05, "schoolCount": 1}, {"name": "Boonsboro", "lat": 39.5153, "lon": -77.6483, "proficiency": 0.12, "schoolCount": 1}, {"name": "Clear Spring", "lat": 39.6583, "lon": -77.9361, "proficiency": 0.12, "schoolCount": 1}, {"name": "Hagerstown", "lat": 39.64673333333334, "lon": -77.72506666666668, "proficiency": 0.0583, "schoolCount": 3}, {"name": "Hancock", "lat": 39.6969, "lon": -78.1966, "proficiency": 0.05, "schoolCount": 1}, {"name": "Smithsburg", "lat": 39.6621, "lon": -77.5743, "proficiency": 0.075, "schoolCount": 1}, {"name": "Williamsport", "lat": 39.5935, "lon": -77.8117, "proficiency": 0.025, "schoolCount": 1}, {"name": "Salisbury", "lat": 38.37435, "lon": -75.59735, "proficiency": 0.0725, "schoolCount": 2}, {"name": "Fruitland", "lat": 38.315788, "lon": -75.629407, "proficiency": 0.17, "schoolCount": 1}, {"name": "Mardela Springs", "lat": 38.465127, "lon": -75.747279, "proficiency": 0.12, "schoolCount": 1}, {"name": "Pittsville", "lat": 38.39166, "lon": -75.419285, "proficiency": 0.025, "schoolCount": 1}, {"name": "Berlin", "lat": 38.3376, "lon": -75.1896, "proficiency": 0.26, "schoolCount": 1}, {"name": "Pocomoke City", "lat": 38.0667, "lon": -75.5666, "proficiency": 0.12, "schoolCount": 1}, {"name": "Snow Hill", "lat": 38.1671, "lon": -75.3974, "proficiency": 0.17, "schoolCount": 1}]}