{"state": "ME", "stateName": "Maine", "year": 2020, "naep": {"text": "3 out of 4", "numerator": 3, "denominator": 4}, "schools": [{"name": "Elm Street School-East Machias", "lat": 44.741216, "lon": -67.390488, "proficiency": 0.9, "district": "East Machias Public Schools", "city": "East Machias", "ncessch": "230006200560"}, {"name": "Bay Ridge Elementary", "lat": 44.670383, "lon": -67.257177, "proficiency": 0.75, "district": "Cutler Public Schools", "city": "Cutler", "ncessch": "230006501020"}, {"name": "Fort O'Brien School", "lat": 44.68903, "lon": -67.397329, "proficiency": -0.03, "district": "Machiasport Public Schools", "city": "Machiasport", "ncessch": "230006700561"}, {"name": "Whiting Village School", "lat": 44.791272, "lon": -67.175265, "proficiency": -0.03, "district": "Whiting Public Schools", "city": "Whiting", "ncessch": "230006800564"}, {"name": "Acton Elementary School", "lat": 43.507095, "lon": -70.897497, "proficiency": 0.9, "district": "Acton Public Schools", "city": "Acton", "ncessch": "230222000001"}, {"name": "Alexander Elementary", "lat": 45.091418, "lon": -67.477282, "proficiency": -0.03, "district": "Alexander Public Schools", "city": "Alexander", "ncessch": "230228000975"}, {"name": "Airline Community School", "lat": 44.864447, "lon": -68.307777, "proficiency": 0.75, "district": "Airline CSD", "city": "Aurora", "ncessch": "230250000007"}, {"name": "Appleton Village School", "lat": 44.273928, "lon": -69.268677, "proficiency": 0.9, "district": "Appleton Public Schools", "city": "Appleton", "ncessch": "230251000906"}, {"name": "Auburn Middle School", "lat": 44.092135, "lon": -70.250682, "proficiency": 0.77, "district": "Auburn Public Schools", "city": "Auburn", "ncessch": "230261000907"}, {"name": "Cony Middle School", "lat": 44.314708, "lon": -69.749075, "proficiency": 0.62, "district": "Augusta Public Schools", "city": "Augusta", "ncessch": "230264023175"}, {"name": "Woodland Jr-Sr High School", "lat": 45.152312, "lon": -67.403455, "proficiency": 0.695, "district": "Baileyville Public Schools", "city": "Baileyville", "ncessch": "230273000045"}, {"name": "James F. Doughty School", "lat": 44.797516, "lon": -68.783817, "proficiency": 0.82, "district": "Bangor Public Schools", "city": "Bangor", "ncessch": "230282000051"}, {"name": "William S. Cohen School", "lat": 44.811609, "lon": -68.754452, "proficiency": 0.92, "district": "Bangor Public Schools", "city": "Bangor", "ncessch": "230282000054"}, {"name": "Conners-Emerson School", "lat": 44.387195, "lon": -68.215851, "proficiency": 0.95, "district": "Bar Harbor Public Schools", "city": "Bar Harbor", "ncessch": "230285000060"}, {"name": "Beals Elementary School", "lat": 44.516279, "lon": -67.611607, "proficiency": 0.75, "district": "Beals Public Schools", "city": "Beals", "ncessch": "230295000070"}, {"name": "Biddeford Middle School", "lat": 43.473501, "lon": -70.464872, "proficiency": 0.72, "district": "Biddeford Public Schools", "city": "Biddeford", "ncessch": "230315001017"}, {"name": "Blue Hill Consolidated School", "lat": 44.414819, "lon": -68.592416, "proficiency": 0.9, "district": "Blue Hill Public Schools", "city": "Blue Hill", "ncessch": "230321000079"}, {"name": "Boothbay Region Elem School", "lat": 43.864921, "lon": -69.630612, "proficiency": 0.845, "district": "Boothbay-Boothbay Hbr CSD", "city": "Boothbay Harbor", "ncessch": "230329000080"}, {"name": "Brewer Community School", "lat": 44.776879, "lon": -68.77062, "proficiency": 0.92, "district": "Brewer Public Schools", "city": "Brewer", "ncessch": "230351023130"}, {"name": "Bristol Consolidated School", "lat": 43.901871, "lon": -69.504973, "proficiency": 0.9, "district": "Bristol Public Schools", "city": "Damariscotta", "ncessch": "230360000090"}, {"name": "Brooklin School", "lat": 44.26921, "lon": -68.570231, "proficiency": 0.75, "district": "Brooklin Public Schools", "city": "Brooklin", "ncessch": "230361000254"}, {"name": "Brooksville Elementary School", "lat": 44.39031, "lon": -68.756194, "proficiency": 0.75, "district": "Brooksville Public Schools", "city": "Brooksville", "ncessch": "230364000094"}, {"name": "Brunswick Jr High School", "lat": 43.901963, "lon": -69.976327, "proficiency": 0.87, "district": "Brunswick Public Schools", "city": "Brunswick", "ncessch": "230378000096"}, {"name": "Calais Middle/High School", "lat": 45.164135, "lon": -67.24213, "proficiency": 0.745, "district": "Calais Public Schools", "city": "Calais", "ncessch": "230387000106"}, {"name": "Cape Elizabeth Middle School", "lat": 43.594869, "lon": -70.230613, "proficiency": 0.975, "district": "Cape Elizabeth Public Schools", "city": "Cape Elizabeth", "ncessch": "230393000109"}, {"name": "Adams School", "lat": 44.390447, "lon": -68.799195, "proficiency": -0.03, "district": "Castine Public Schools", "city": "Castine", "ncessch": "230408000117"}, {"name": "Dawn F Barnes Elementary Sch", "lat": 46.979152, "lon": -67.81964, "proficiency": -0.03, "district": "Caswell Public Schools", "city": "Caswell", "ncessch": "230411000118"}, {"name": "Charlotte Elementary School", "lat": 44.997895, "lon": -67.261803, "proficiency": -0.03, "district": "Charlotte Public Schools", "city": "Charlotte", "ncessch": "230416000119"}, {"name": "Cranberry Isles School", "lat": 44.249201, "lon": -68.266003, "proficiency": -0.03, "district": "Cranberry Isles Public Schools", "city": "Cranberry Isles", "ncessch": "230462023153"}, {"name": "Dedham School", "lat": 44.727099, "lon": -68.623097, "proficiency": 0.9, "district": "Dedham Public Schools", "city": "Dedham", "ncessch": "230489000125"}, {"name": "Deer Isle-Stonington High Sch", "lat": 44.241983, "lon": -68.680423, "proficiency": 0.695, "district": "Deer Isle-Stonington CSD", "city": "Deer Isle", "ncessch": "230489500127"}, {"name": "Easton Junior-Senior High Sch", "lat": 46.641915, "lon": -67.903588, "proficiency": 0.9, "district": "Easton Public Schools", "city": "Easton", "ncessch": "230531000136"}, {"name": "Eastport Elementary School", "lat": 44.907992, "lon": -66.992034, "proficiency": 0.75, "district": "Eastport Public Schools", "city": "Eastport", "ncessch": "230536000912"}, {"name": "East Range II CSD School", "lat": 45.425242, "lon": -67.719433, "proficiency": -0.03, "district": "East Range CSD", "city": "Topsfield", "ncessch": "230538000139"}, {"name": "Ellsworth Elementary-Middle School", "lat": 44.549346, "lon": -68.432299, "proficiency": 0.87, "district": "Ellsworth Public Schools", "city": "Ellsworth", "ncessch": "230550023117"}, {"name": "Falmouth Middle School", "lat": 43.737648, "lon": -70.274447, "proficiency": 0.975, "district": "Falmouth Public Schools", "city": "Falmouth", "ncessch": "230567000914"}, {"name": "Glenburn Elementary School", "lat": 44.916616, "lon": -68.847537, "proficiency": 0.845, "district": "Glenburn Public Schools", "city": "Glenburn", "ncessch": "230600000155"}, {"name": "Gorham Middle School", "lat": 43.665236, "lon": -70.442952, "proficiency": 0.92, "district": "Gorham Public Schools", "city": "Gorham", "ncessch": "230606000688"}, {"name": "Great Salt Bay Community School", "lat": 44.04189, "lon": -69.508195, "proficiency": 0.95, "district": "Great Salt Bay CSD", "city": "Damariscotta", "ncessch": "230616000916"}, {"name": "Helen S Dunn Elementary School", "lat": 45.120302, "lon": -68.608111, "proficiency": 0.75, "district": "Greenbush Public Schools", "city": "Greenbush", "ncessch": "230618000165"}, {"name": "Greenville Consolidated School", "lat": 45.458473, "lon": -69.598056, "proficiency": 0.75, "district": "Greenville Public Schools", "city": "Greenville", "ncessch": "230625023138"}, {"name": "Hancock Grammar School", "lat": 44.530394, "lon": -68.251423, "proficiency": 0.695, "district": "Hancock Public Schools", "city": "Hancock", "ncessch": "230626000166"}, {"name": "Harmony Elementary", "lat": 44.976921, "lon": -69.548532, "proficiency": 0.75, "district": "Harmony Public Schools", "city": "Harmony", "ncessch": "230633000167"}, {"name": "Hermon Middle School", "lat": 44.811246, "lon": -68.907582, "proficiency": 0.92, "district": "Hermon Public Schools", "city": "Hermon", "ncessch": "230651000169"}, {"name": "Hope Elementary School", "lat": 44.223894, "lon": -69.223408, "proficiency": 0.75, "district": "Hope Public Schools", "city": "Hope", "ncessch": "230661000980"}, {"name": "Islesboro Central School", "lat": 44.267852, "lon": -68.918428, "proficiency": 0.75, "district": "Islesboro Public Schools", "city": "Islesboro", "ncessch": "230681000171"}, {"name": "Jefferson Village School", "lat": 44.205487, "lon": -69.456274, "proficiency": 0.9, "district": "Jefferson Public Schools", "city": "Damariscotta", "ncessch": "230687000175"}, {"name": "Jonesboro Elementary School", "lat": 44.653609, "lon": -67.583604, "proficiency": 0.75, "district": "Jonesboro Public Schools", "city": "Jonesboro", "ncessch": "230690000177"}, {"name": "Jonesport Elementary School", "lat": 44.556222, "lon": -67.61435, "proficiency": -0.03, "district": "Jonesport Public Schools", "city": "Jonesport", "ncessch": "230710000917"}, {"name": "Shapleigh School", "lat": 43.114784, "lon": -70.743189, "proficiency": 0.87, "district": "Kittery Public Schools", "city": "Kittery", "ncessch": "230714000182"}, {"name": "Lamoine Consolidated School", "lat": 44.478496, "lon": -68.340793, "proficiency": 0.75, "district": "Lamoine Public Schools", "city": "Lamoine", "ncessch": "230725000186"}, {"name": "Lewiston Middle School", "lat": 44.102676, "lon": -70.202725, "proficiency": 0.69, "district": "Lewiston Public Schools", "city": "Lewiston", "ncessch": "230732000191"}, {"name": "Lincolnville Central School", "lat": 44.294426, "lon": -69.110619, "proficiency": 0.9, "district": "Lincolnville Public Schools", "city": "Lincolnville", "ncessch": "230745000601"}, {"name": "Philip W Sugg Middle School", "lat": 44.000992, "lon": -70.070072, "proficiency": 0.92, "district": "Lisbon Public Schools", "city": "Lisbon Falls", "ncessch": "230753000204"}, {"name": "Rose M Gaffney School", "lat": 44.714972, "lon": -67.469027, "proficiency": 0.745, "district": "Machias Public Schools", "city": "Machias", "ncessch": "230771000210"}, {"name": "Madawaska Middle/High School", "lat": 47.35265, "lon": -68.325557, "proficiency": 0.745, "district": "Madawaska Public Schools", "city": "Madawaska", "ncessch": "230780000214"}, {"name": "Medway Middle School", "lat": 45.617915, "lon": -68.553955, "proficiency": 0.695, "district": "Medway Public Schools", "city": "Medway", "ncessch": "230816000220"}, {"name": "Dr Lewis S Libby School", "lat": 44.942909, "lon": -68.639846, "proficiency": 0.9, "district": "Milford Public Schools", "city": "Milford", "ncessch": "230825000222"}, {"name": "Stearns Jr-Sr High School", "lat": 45.66127, "lon": -68.705543, "proficiency": 0.9, "district": "Millinocket Public Schools", "city": "Millinocket", "ncessch": "230828000227"}, {"name": "Mt Desert Elementary School", "lat": 44.293388, "lon": -68.292099, "proficiency": 0.9, "district": "Mount Desert Public Schools", "city": "Northeast Harbor", "ncessch": "230849000232"}, {"name": "Nobleboro Central School", "lat": 44.080746, "lon": -69.480026, "proficiency": 0.9, "district": "Nobleboro Public Schools", "city": "Damariscotta", "ncessch": "230894000237"}, {"name": "Center Drive School", "lat": 44.72699, "lon": -68.815146, "proficiency": 0.95, "district": "Orrington Public Schools", "city": "Orrington", "ncessch": "230933000255"}, {"name": "Beech Hill School", "lat": 44.672636, "lon": -68.425141, "proficiency": 0.75, "district": "Otis Public Schools", "city": "Otis", "ncessch": "230939000257"}, {"name": "Pembroke Elementary School", "lat": 44.94138, "lon": -67.218582, "proficiency": 0.75, "district": "Pembroke Public Schools", "city": "Pembroke", "ncessch": "230956000259"}, {"name": "Penobscot Elementary School", "lat": 44.468293, "lon": -68.709385, "proficiency": 0.75, "district": "Penobscot Public Schools", "city": "Penobscot", "ncessch": "230963000260"}, {"name": "Perry Elementary School", "lat": 45.01154, "lon": -67.095698, "proficiency": 0.9, "district": "Perry Public Schools", "city": "Perry", "ncessch": "230965001006"}, {"name": "King Middle School", "lat": 43.657445, "lon": -70.274638, "proficiency": 0.67, "district": "Portland Public Schools", "city": "Portland", "ncessch": "230993000274"}, {"name": "Lincoln Middle School", "lat": 43.676258, "lon": -70.295731, "proficiency": 0.87, "district": "Portland Public Schools", "city": "Portland", "ncessch": "230993000275"}, {"name": "Lyman Moore Middle School", "lat": 43.706505, "lon": -70.287274, "proficiency": 0.77, "district": "Portland Public Schools", "city": "Portland", "ncessch": "230993000278"}, {"name": "Princeton Elementary School", "lat": 45.217605, "lon": -67.551119, "proficiency": 0.9, "district": "Princeton Public Schools", "city": "Princeton", "ncessch": "230999001029"}, {"name": "Saco Middle School", "lat": 43.52554, "lon": -70.466981, "proficiency": 0.92, "district": "Saco Public Schools", "city": "Saco", "ncessch": "231038000308"}, {"name": "Sanford Middle School", "lat": 43.453446, "lon": -70.784667, "proficiency": 0.82, "district": "Sanford Public Schools", "city": "Sanford", "ncessch": "231050023177"}, {"name": "Scarborough Middle School", "lat": 43.598204, "lon": -70.342233, "proficiency": 0.92, "district": "Scarborough Public Schools", "city": "Scarborough", "ncessch": "231053000326"}, {"name": "Gardiner Regional Middle School", "lat": 44.216792, "lon": -69.801968, "proficiency": 0.82, "district": "RSU 11/MSAD 11", "city": "Gardiner", "ncessch": "231059000330"}, {"name": "Forest Hills Consolidated School", "lat": 45.637794, "lon": -70.263577, "proficiency": 0.75, "district": "RSU 82/MSAD 12", "city": "Jackman", "ncessch": "231062000337"}, {"name": "Upper Kennebec Valley Middle/Senior High School", "lat": 45.058583, "lon": -69.872674, "proficiency": 0.75, "district": "RSU 83/MSAD 13", "city": "Bingham", "ncessch": "231065023166"}, {"name": "East Grand School", "lat": 45.661069, "lon": -67.862754, "proficiency": 0.9, "district": "RSU 84/MSAD 14", "city": "Danforth", "ncessch": "231068000344"}, {"name": "Gray-New Gloucester Middle School", "lat": 43.901192, "lon": -70.35361, "proficiency": 0.92, "district": "RSU 15/MSAD 15", "city": "Gray", "ncessch": "231071001019"}, {"name": "Oxford Hills Middle School", "lat": 44.218586, "lon": -70.513166, "proficiency": 0.82, "district": "RSU 17/MSAD 17", "city": "Paris", "ncessch": "231077000362"}, {"name": "Lubec Consolidated School", "lat": 44.854973, "lon": -66.988564, "proficiency": 0.75, "district": "RSU 85/MSAD 19", "city": "Lubec", "ncessch": "231083000365"}, {"name": "Presque Isle Middle School", "lat": 46.700106, "lon": -68.033211, "proficiency": 0.87, "district": "RSU 79/MSAD 01", "city": "Presque Isle", "ncessch": "231086000372"}, {"name": "Fort Fairfield Middle/High School", "lat": 46.767546, "lon": -67.840319, "proficiency": 0.845, "district": "RSU 86/MSAD 20", "city": "Fort Fairfield", "ncessch": "231089000375"}, {"name": "Caravel Middle School", "lat": 44.839933, "lon": -69.022255, "proficiency": 0.845, "district": "RSU 87/MSAD 23", "city": "Carmel", "ncessch": "231098000390"}, {"name": "Van Buren Elementary School", "lat": 47.160911, "lon": -67.941597, "proficiency": 0.75, "district": "RSU 88/MSAD 24", "city": "Van Buren", "ncessch": "231101001059"}, {"name": "Valley Rivers Middle School", "lat": 47.249299, "lon": -68.58604, "proficiency": 0.95, "district": "MSAD 27", "city": "Fort Kent", "ncessch": "231110023137"}, {"name": "Camden-Rockport Middle School", "lat": 44.212495, "lon": -69.072424, "proficiency": 0.92, "district": "RSU 28/MSAD 28", "city": "Camden", "ncessch": "231113000412"}, {"name": "Houlton Junior High School", "lat": 46.128604, "lon": -67.82754, "proficiency": 0.82, "district": "RSU 29/MSAD 29", "city": "Houlton", "ncessch": "231116000301"}, {"name": "Mt Jefferson Jr High School", "lat": 45.363626, "lon": -68.284161, "proficiency": 0.9, "district": "RSU 30/MSAD 30", "city": "Lee", "ncessch": "231122000427"}, {"name": "Hichborn Middle School", "lat": 45.247677, "lon": -68.662022, "proficiency": 0.9, "district": "RSU 31/MSAD 31", "city": "Howland", "ncessch": "231125000431"}, {"name": "Ashland District School", "lat": 46.627835, "lon": -68.39394, "proficiency": 0.9, "district": "RSU 32/MSAD 32", "city": "Ashland", "ncessch": "231128023125"}, {"name": "Wisdom Middle High School", "lat": 47.242249, "lon": -68.315417, "proficiency": 0.695, "district": "RSU 33/MSAD 33", "city": "Saint Agatha", "ncessch": "231131000439"}, {"name": "Marshwood Middle School", "lat": 43.15316, "lon": -70.797471, "proficiency": 0.92, "district": "RSU 35/MSAD 35", "city": "Eliot", "ncessch": "231137000453"}, {"name": "Narraguagus High School", "lat": 44.620088, "lon": -67.841654, "proficiency": 0.745, "district": "RSU 37/MSAD 37", "city": "Harrington", "ncessch": "231143000466"}, {"name": "Mt View Middle School", "lat": 44.551203, "lon": -69.270293, "proficiency": 0.72, "district": "RSU 03/MSAD 03", "city": "Thorndike", "ncessch": "231152000474"}, {"name": "Medomak Middle School", "lat": 44.122511, "lon": -69.30954, "proficiency": 0.82, "district": "RSU 40/MSAD 40", "city": "Waldoboro", "ncessch": "231155023111"}, {"name": "Penquis Valley Middle/High School", "lat": 45.251867, "lon": -68.995942, "proficiency": 0.845, "district": "RSU 41/MSAD 41", "city": "Milo", "ncessch": "231158000493"}, {"name": "Central Aroostook Jr-Sr H S", "lat": 46.51565, "lon": -67.861156, "proficiency": 0.645, "district": "RSU 42/MSAD 42", "city": "Mars Hill", "ncessch": "231161000497"}, {"name": "Telstar Middle School", "lat": 44.418639, "lon": -70.765757, "proficiency": 0.95, "district": "RSU 44/MSAD 44", "city": "Bethel", "ncessch": "231167001010"}, {"name": "Washburn District Elem School", "lat": 46.790033, "lon": -68.152657, "proficiency": 0.9, "district": "RSU 45/MSAD 45", "city": "Washburn", "ncessch": "231170001033"}, {"name": "Piscataquis Community Secondary School", "lat": 45.172186, "lon": -69.378201, "proficiency": 0.9, "district": "RSU 80/MSAD 04", "city": "Guilford", "ncessch": "231173023187"}, {"name": "Bonny Eagle Middle School", "lat": 43.695166, "lon": -70.596426, "proficiency": 0.77, "district": "RSU 06/MSAD 06", "city": "Buxton", "ncessch": "231179000532"}, {"name": "North Haven Community School", "lat": 44.151006, "lon": -68.875909, "proficiency": 0.75, "district": "RSU 07/MSAD 07", "city": "North Haven", "ncessch": "231182000544"}, {"name": "Vinalhaven School", "lat": 44.048692, "lon": -68.821811, "proficiency": 0.75, "district": "RSU 08/MSAD 08", "city": "Vinalhaven", "ncessch": "231185000731"}, {"name": "Swans Island Elementary School", "lat": 44.182475, "lon": -68.417419, "proficiency": 0.75, "district": "MSAD 76", "city": "Swans Island", "ncessch": "231191001056"}, {"name": "Edmunds Consolidated School", "lat": 44.895592, "lon": -67.223641, "proficiency": -0.03, "district": "Education in Unorganized Terr", "city": "Edmunds Township", "ncessch": "231210000959"}, {"name": "Sedgwick Elementary School", "lat": 44.360078, "lon": -68.664251, "proficiency": 0.75, "district": "Sedgwick Public Schools", "city": "Sedgwick", "ncessch": "231214001045"}, {"name": "South Bristol Elementary School", "lat": 43.868127, "lon": -69.560131, "proficiency": -0.03, "district": "South Bristol Public Schools", "city": "Damariscotta", "ncessch": "231230000572"}, {"name": "Daniel F. Mahoney Middle School", "lat": 43.634092, "lon": -70.251599, "proficiency": 0.87, "district": "South Portland Public Schools", "city": "South Portland", "ncessch": "231233000574"}, {"name": "Memorial Middle School", "lat": 43.626883, "lon": -70.303366, "proficiency": 0.72, "district": "South Portland Public Schools", "city": "South Portland", "ncessch": "231233000581"}, {"name": "Pemetic Elementary School", "lat": 44.280965, "lon": -68.325028, "proficiency": 0.75, "district": "Southwest Harbor Public Schools", "city": "Southwest Harbor", "ncessch": "231239000589"}, {"name": "Surry Elementary School", "lat": 44.499254, "lon": -68.503346, "proficiency": 0.75, "district": "Surry Public Schools", "city": "Surry", "ncessch": "231275000993"}, {"name": "Tremont Consolidated School", "lat": 44.253908, "lon": -68.349568, "proficiency": 0.75, "district": "Tremont Public Schools", "city": "Tremont", "ncessch": "231296000594"}, {"name": "Trenton Elementary School", "lat": 44.454355, "lon": -68.368799, "proficiency": 0.75, "district": "Trenton Public Schools", "city": "Trenton", "ncessch": "231298000595"}, {"name": "Vassalboro Community School", "lat": 44.437785, "lon": -69.653392, "proficiency": 0.845, "district": "Vassalboro Public Schools", "city": "Vassalboro", "ncessch": "231311001046"}, {"name": "Veazie Community School", "lat": 44.833292, "lon": -68.707158, "proficiency": 0.9, "district": "Veazie Public Schools", "city": "Veazie", "ncessch": "231314000384"}, {"name": "Waterville Junior High School", "lat": 44.529297, "lon": -69.660717, "proficiency": 0.82, "district": "Waterville Public Schools", "city": "Waterville", "ncessch": "231335000934"}, {"name": "Wells Junior High School", "lat": 43.319567, "lon": -70.582783, "proficiency": 0.87, "district": "Wells-Ogunquit CSD", "city": "Wells", "ncessch": "231349000613"}, {"name": "Westbrook Middle School", "lat": 43.66365, "lon": -70.348201, "proficiency": 0.82, "district": "Westbrook Public Schools", "city": "Westbrook", "ncessch": "231356000624"}, {"name": "Winslow Junior High School", "lat": 44.550408, "lon": -69.617475, "proficiency": 0.82, "district": "Winslow Schools", "city": "Winslow", "ncessch": "231386000639"}, {"name": "Winthrop Middle School", "lat": 44.30316, "lon": -69.985997, "proficiency": 0.95, "district": "Winthrop Public Schools", "city": "Winthrop", "ncessch": "231397000643"}, {"name": "Wiscasset Middle/High School", "lat": 44.022996, "lon": -69.672156, "proficiency": 0.745, "district": "Wiscasset Public Schools", "city": "Wiscasset", "ncessch": "231398023146"}, {"name": "Woodland Consolidated Sch", "lat": 46.876496, "lon": -68.112551, "proficiency": 0.9, "district": "Woodland Public Schools", "city": "Woodland", "ncessch": "231401000647"}, {"name": "Frank H Harrison Middle School", "lat": 43.795979, "lon": -70.203498, "proficiency": 0.975, "district": "Yarmouth Schools", "city": "Yarmouth", "ncessch": "231410000031"}, {"name": "York Middle School", "lat": 43.145604, "lon": -70.661988, "proficiency": 0.92, "district": "York Public Schools", "city": "York", "ncessch": "231413000654"}, {"name": "Tripp Middle School", "lat": 44.269514, "lon": -70.225571, "proficiency": 0.92, "district": "RSU 52/MSAD 52", "city": "Turner", "ncessch": "231416000656"}, {"name": "Sacopee Valley Middle School", "lat": 43.809903, "lon": -70.867899, "proficiency": 0.82, "district": "RSU 55/MSAD 55", "city": "Hiram", "ncessch": "231419001057"}, {"name": "Lake Region Middle School", "lat": 44.003341, "lon": -70.654532, "proficiency": 0.67, "district": "RSU 61/MSAD 61", "city": "Naples", "ncessch": "231421000939"}, {"name": "Greely Middle School", "lat": 43.796991, "lon": -70.251392, "proficiency": 0.975, "district": "RSU 51/MSAD 51", "city": "Cumberland", "ncessch": "231424000577"}, {"name": "Strong Elementary School", "lat": 44.814775, "lon": -70.219125, "proficiency": 0.9, "district": "RSU 58/MSAD 58", "city": "Strong", "ncessch": "231430000690"}, {"name": "Kingfield Elementary School", "lat": 44.951557, "lon": -70.160251, "proficiency": 0.75, "district": "RSU 58/MSAD 58", "city": "Kingfield", "ncessch": "231430000941"}, {"name": "Phillips Elementary School", "lat": 44.82827, "lon": -70.357396, "proficiency": 0.9, "district": "RSU 58/MSAD 58", "city": "Phillips", "ncessch": "231430001011"}, {"name": "Lawrence Jr High School", "lat": 44.590309, "lon": -69.605495, "proficiency": 0.87, "district": "RSU 49/MSAD 49", "city": "Fairfield", "ncessch": "231433000696"}, {"name": "Central Middle School", "lat": 44.996808, "lon": -69.01785, "proficiency": 0.72, "district": "RSU 64/MSAD 64", "city": "Corinth", "ncessch": "231444000943"}, {"name": "Holbrook School", "lat": 44.745492, "lon": -68.616183, "proficiency": 0.87, "district": "RSU 63/MSAD 63", "city": "Holden", "ncessch": "231447000721"}, {"name": "Ridge View Community School", "lat": 45.01161, "lon": -69.27382, "proficiency": 0.845, "district": "MSAD 46", "city": "Dexter", "ncessch": "231453023115"}, {"name": "Madison Junior High School", "lat": 44.797934, "lon": -69.874438, "proficiency": 0.845, "district": "RSU 59/MSAD 59", "city": "Madison", "ncessch": "231456001012"}, {"name": "Skowhegan Area Middle School", "lat": 44.752441, "lon": -69.732423, "proficiency": 0.87, "district": "RSU 54/MSAD 54", "city": "Skowhegan", "ncessch": "231459000756"}, {"name": "Warsaw Middle School", "lat": 44.787992, "lon": -69.391337, "proficiency": 0.82, "district": "RSU 53/MSAD 53", "city": "Pittsfield", "ncessch": "231461000764"}, {"name": "Massabesic Middle School", "lat": 43.58068, "lon": -70.700625, "proficiency": 0.82, "district": "RSU 57/MSAD 57", "city": "East Waterboro", "ncessch": "231467001058"}, {"name": "Noble High School", "lat": 43.306408, "lon": -70.780808, "proficiency": 0.82, "district": "RSU 60/MSAD 60", "city": "North Berwick", "ncessch": "231470000512"}, {"name": "Se Do Mo Cha Middle School", "lat": 45.194212, "lon": -69.226729, "proficiency": 0.87, "district": "RSU 68/MSAD 68", "city": "Dover-Foxcroft", "ncessch": "231476100794"}, {"name": "Hodgdon Middle/High School", "lat": 46.054208, "lon": -67.86439, "proficiency": 0.95, "district": "RSU 70/MSAD 70", "city": "Hodgdon", "ncessch": "231476223151"}, {"name": "Molly Ockett School", "lat": 44.021983, "lon": -70.966123, "proficiency": 0.87, "district": "RSU 72/MSAD 72", "city": "Fryeburg", "ncessch": "231476523172"}, {"name": "Carrabec Community School", "lat": 44.858059, "lon": -69.897615, "proficiency": 0.845, "district": "RSU 74/MSAD 74", "city": "North Anson", "ncessch": "231476700541"}, {"name": "Mt Ararat Middle School", "lat": 43.948026, "lon": -69.96595, "proficiency": 0.87, "district": "RSU 75/MSAD 75", "city": "Topsham", "ncessch": "231476800055"}, {"name": "Bath Middle School", "lat": 43.919672, "lon": -69.829671, "proficiency": 0.87, "district": "RSU 01 - LKRSU", "city": "Bath", "ncessch": "231477200062"}, {"name": "Woolwich Central School", "lat": 43.941446, "lon": -69.782428, "proficiency": 0.9, "district": "RSU 01 - LKRSU", "city": "Woolwich", "ncessch": "231477200648"}, {"name": "Middle School of the Kennebunks", "lat": 43.412484, "lon": -70.574997, "proficiency": 0.92, "district": "RSU 21", "city": "Kennebunk", "ncessch": "231477300800"}, {"name": "Bruce M Whittier Middle School", "lat": 44.070425, "lon": -70.41476, "proficiency": 0.87, "district": "RSU 16", "city": "Poland", "ncessch": "231477500438"}, {"name": "Richmond Middle School", "lat": 44.087702, "lon": -69.812494, "proficiency": 0.95, "district": "RSU 02", "city": "Richmond", "ncessch": "231477601008"}, {"name": "Hall-Dale Middle and High School", "lat": 44.266913, "lon": -69.799896, "proficiency": 0.845, "district": "RSU 02", "city": "Farmingdale", "ncessch": "231477623162"}, {"name": "Monmouth Memorial School", "lat": 44.252116, "lon": -70.036791, "proficiency": 0.845, "district": "RSU 02", "city": "Monmouth", "ncessch": "231477623188"}, {"name": "Mattanawcook Jr High School", "lat": 45.365926, "lon": -68.499719, "proficiency": 0.95, "district": "RSU 67", "city": "Lincoln", "ncessch": "231477700789"}, {"name": "Orono Middle School", "lat": 44.881285, "lon": -68.677595, "proficiency": 0.95, "district": "RSU 26", "city": "Orono", "ncessch": "231477800297"}, {"name": "China Middle School", "lat": 44.439917, "lon": -69.526767, "proficiency": 0.845, "district": "RSU 18", "city": "China", "ncessch": "231477900121"}, {"name": "Messalonskee Middle School", "lat": 44.551977, "lon": -69.7156, "proficiency": 0.87, "district": "RSU 18", "city": "Oakland", "ncessch": "231477900694"}, {"name": "Chelsea Elementary School", "lat": 44.269159, "lon": -69.698742, "proficiency": 0.9, "district": "RSU 12", "city": "Chelsea", "ncessch": "231478000120"}, {"name": "Palermo Consolidated School", "lat": 44.388509, "lon": -69.467402, "proficiency": 0.75, "district": "RSU 12", "city": "Palermo", "ncessch": "231478000258"}, {"name": "Whitefield Elementary School", "lat": 44.222836, "lon": -69.603674, "proficiency": 0.9, "district": "RSU 12", "city": "Whitefield", "ncessch": "231478000625"}, {"name": "Windsor Elementary School", "lat": 44.301234, "lon": -69.585503, "proficiency": 0.95, "district": "RSU 12", "city": "Windsor", "ncessch": "231478000633"}, {"name": "Leonard Middle School", "lat": 44.930819, "lon": -68.654755, "proficiency": 0.87, "district": "RSU 34", "city": "Old Town", "ncessch": "231478200246"}, {"name": "Oak Hill Middle School", "lat": 44.112085, "lon": -70.098269, "proficiency": 0.82, "district": "RSU 04", "city": "Sabattus", "ncessch": "231478323122"}, {"name": "Loranger Memorial School", "lat": 43.513173, "lon": -70.392283, "proficiency": 0.745, "district": "RSU 23", "city": "Old Orchard Beach", "ncessch": "231478400240"}, {"name": "Nokomis Regional Middle School", "lat": 44.876861, "lon": -69.294675, "proficiency": 0.77, "district": "RSU 19", "city": "Newport", "ncessch": "231478523181"}, {"name": "Oceanside Middle School", "lat": 44.081406, "lon": -69.1868, "proficiency": 0.77, "district": "RSU 13", "city": "Thomaston", "ncessch": "231478723154"}, {"name": "Maranacook Community Middle Sch", "lat": 44.396686, "lon": -69.953641, "proficiency": 0.92, "district": "RSU 38", "city": "Readfield", "ncessch": "231478800540"}, {"name": "Durham Community School", "lat": 43.971177, "lon": -70.126592, "proficiency": 0.95, "district": "RSU 05", "city": "Durham", "ncessch": "231478900132"}, {"name": "Freeport Middle School", "lat": 43.86425, "lon": -70.104118, "proficiency": 0.92, "district": "RSU 05", "city": "Freeport", "ncessch": "231478900979"}, {"name": "Cave Hill Sch", "lat": 44.685783, "lon": -68.286724, "proficiency": 0.75, "district": "RSU 24", "city": "Eastbrook", "ncessch": "231479000403"}, {"name": "Mountain View Sch", "lat": 44.555706, "lon": -68.202807, "proficiency": 0.9, "district": "RSU 24", "city": "Sullivan", "ncessch": "231479000566"}, {"name": "Ella Lewis Sch", "lat": 44.511927, "lon": -67.961157, "proficiency": 0.75, "district": "RSU 24", "city": "Steuben", "ncessch": "231479000591"}, {"name": "Peninsula Sch", "lat": 44.405181, "lon": -68.031755, "proficiency": 0.75, "district": "RSU 24", "city": "Prospect Harbor", "ncessch": "231479000640"}, {"name": "Searsport District Middle School", "lat": 44.463064, "lon": -68.925435, "proficiency": 0.9, "district": "RSU 20", "city": "Searsport", "ncessch": "231479100770"}, {"name": "Jordan-Small Middle School", "lat": 43.93724, "lon": -70.445091, "proficiency": 0.9, "district": "RSU 14", "city": "Raymond", "ncessch": "231479300292"}, {"name": "Windham Middle School", "lat": 43.788192, "lon": -70.411552, "proficiency": -0.03, "district": "RSU 14", "city": "Windham", "ncessch": "231479300629"}, {"name": "Caribou Community School", "lat": 46.863328, "lon": -68.005952, "proficiency": 0.92, "district": "RSU 39", "city": "Caribou", "ncessch": "231479423189"}, {"name": "Mountain Valley Middle School", "lat": 44.555386, "lon": -70.526977, "proficiency": 0.77, "district": "RSU 10", "city": "Mexico", "ncessch": "231479500502"}, {"name": "Buckfield Jr-Sr High School", "lat": 44.29888, "lon": -70.361359, "proficiency": 0.95, "district": "RSU 10", "city": "Buckfield", "ncessch": "231479501053"}, {"name": "Bucksport Middle School", "lat": 44.581742, "lon": -68.775622, "proficiency": 0.82, "district": "RSU 25", "city": "Bucksport", "ncessch": "231479600685"}, {"name": "Rangeley Lakes Regional School", "lat": 44.97341, "lon": -70.65297, "proficiency": 0.75, "district": "RSU 78", "city": "Rangeley", "ncessch": "231480300291"}, {"name": "Spruce Mountain Middle School", "lat": 44.493558, "lon": -70.201034, "proficiency": 0.87, "district": "RSU 73", "city": "Jay", "ncessch": "231480523133"}, {"name": "So Aroostook School", "lat": 46.086582, "lon": -68.184566, "proficiency": 0.95, "district": "RSU 50", "city": "Dyer Brook", "ncessch": "231480600590"}, {"name": "Mt Blue Middle School", "lat": 44.67459, "lon": -70.132277, "proficiency": 0.82, "district": "RSU 09", "city": "Farmington", "ncessch": "231480900550"}, {"name": "Cherryfield Elementary", "lat": 44.60356, "lon": -67.934176, "proficiency": 0.75, "district": "Cherryfield Public Schools", "city": "Cherryfield", "ncessch": "231481400461"}, {"name": "Samuel L Wagner Middle School", "lat": 44.635956, "lon": -68.859614, "proficiency": 0.92, "district": "RSU 22", "city": "Winterport", "ncessch": "231481500030"}, {"name": "Reeds Brook Middle School", "lat": 44.738816, "lon": -68.842745, "proficiency": 0.975, "district": "RSU 22", "city": "Hampden", "ncessch": "231481500164"}, {"name": "Harpswell Coastal Academy Division 1", "lat": 43.758161, "lon": -70.014372, "proficiency": 0.9, "district": "Harpswell Coastal Academy", "city": "Harpswell", "ncessch": "231481623139"}, {"name": "Athens Community School", "lat": 44.924118, "lon": -69.672367, "proficiency": 0.75, "district": "Athens Public Schools", "city": "Athens", "ncessch": "231481700742"}, {"name": "Stratton Elementary School", "lat": 45.143479, "lon": -70.433466, "proficiency": 0.75, "district": "Eustis Public Schools", "city": "Stratton", "ncessch": "231481801035"}, {"name": "Maine Connections Academy", "lat": 43.60761, "lon": -70.318681, "proficiency": 0.975, "district": "Maine Connections Academy", "city": "Scarborough", "ncessch": "231481923145"}, {"name": "St George School", "lat": 43.968011, "lon": -69.212738, "proficiency": 0.9, "district": "St George Public Schools", "city": "Tenants Harbor", "ncessch": "231482000710"}, {"name": "Maine Virtual Academy", "lat": 44.313039, "lon": -69.7686, "proficiency": 0.95, "district": "Maine Virtual Academy", "city": "Augusta", "ncessch": "231482123147"}, {"name": "Troy A Howard Middle School", "lat": 44.41307, "lon": -69.02731, "proficiency": 0.87, "district": "RSU 71", "city": "Belfast", "ncessch": "231482200048"}, {"name": "Edna Drinkwater School", "lat": 44.383059, "lon": -68.978507, "proficiency": -0.03, "district": "Northport Public Schools", "city": "Northport", "ncessch": "231482400444"}, {"name": "T W Kelly Dirigo Middle School", "lat": 44.550227, "lon": -70.453392, "proficiency": 0.845, "district": "RSU 56", "city": "Dixfield", "ncessch": "231483300927"}, {"name": "Katahdin Middle/High School", "lat": 45.924813, "lon": -68.439518, "proficiency": 0.9, "district": "RSU 89", "city": "Stacyville", "ncessch": "231483800397"}, {"name": "Limestone Community School", "lat": 46.906825, "lon": -67.829291, "proficiency": 0.695, "district": "Limestone Public Schools", "city": "Limestone", "ncessch": "231484223169"}], "districts": [{"name": "East Machias Public Schools", "lat": 44.741216, "lon": -67.390488, "proficiency": 0.9, "schoolCount": 1}, {"name": "Cutler Public Schools", "lat": 44.670383, "lon": -67.257177, "proficiency": 0.75, "schoolCount": 1}, {"name": "Machiasport Public Schools", "lat": 44.68903, "lon": -67.397329, "proficiency": -0.03, "schoolCount": 1}, {"name": "Whiting Public Schools", "lat": 44.791272, "lon": -67.175265, "proficiency": -0.03, "schoolCount": 1}, {"name": "Acton Public Schools", "lat": 43.507095, "lon": -70.897497, "proficiency": 0.9, "schoolCount": 1}, {"name": "Alexander Public Schools", "lat": 45.091418, "lon": -67.477282, "proficiency": -0.03, "schoolCount": 1}, {"name": "Airline CSD", "lat": 44.864447, "lon": -68.307777, "proficiency": 0.75, "schoolCount": 1}, {"name": "Appleton Public Schools", "lat": 44.273928, "lon": -69.268677, "proficiency": 0.9, "schoolCount": 1}, {"name": "Auburn Public Schools", "lat": 44.092135, "lon": -70.250682, "proficiency": 0.77, "schoolCount": 1}, {"name": "Augusta Public Schools", "lat": 44.314708, "lon": -69.749075, "proficiency": 0.62, "schoolCount": 1}, {"name": "Baileyville Public Schools", "lat": 45.152312, "lon": -67.403455, "proficiency": 0.695, "schoolCount": 1}, {"name": "Bangor Public Schools", "lat": 44.8045625, "lon": -68.7691345, "proficiency": 0.87, "schoolCount": 2}, {"name": "Bar Harbor Public Schools", "lat": 44.387195, "lon": -68.215851, "proficiency": 0.95, "schoolCount": 1}, {"name": "Beals Public Schools", "lat": 44.516279, "lon": -67.611607, "proficiency": 0.75, "schoolCount": 1}, {"name": "Biddeford Public Schools", "lat": 43.473501, "lon": -70.464872, "proficiency": 0.72, "schoolCount": 1}, {"name": "Blue Hill Public Schools", "lat": 44.414819, "lon": -68.592416, "proficiency": 0.9, "schoolCount": 1}, {"name": "Boothbay-Boothbay Hbr CSD", "lat": 43.864921, "lon": -69.630612, "proficiency": 0.845, "schoolCount": 1}, {"name": "Brewer Public Schools", "lat": 44.776879, "lon": -68.77062, "proficiency": 0.92, "schoolCount": 1}, {"name": "Bristol Public Schools", "lat": 43.901871, "lon": -69.504973, "proficiency": 0.9, "schoolCount": 1}, {"name": "Brooklin Public Schools", "lat": 44.26921, "lon": -68.570231, "proficiency": 0.75, "schoolCount": 1}, {"name": "Brooksville Public Schools", "lat": 44.39031, "lon": -68.756194, "proficiency": 0.75, "schoolCount": 1}, {"name": "Brunswick Public Schools", "lat": 43.901963, "lon": -69.976327, "proficiency": 0.87, "schoolCount": 1}, {"name": "Calais Public Schools", "lat": 45.164135, "lon": -67.24213, "proficiency": 0.745, "schoolCount": 1}, {"name": "Cape Elizabeth Public Schools", "lat": 43.594869, "lon": -70.230613, "proficiency": 0.975, "schoolCount": 1}, {"name": "Castine Public Schools", "lat": 44.390447, "lon": -68.799195, "proficiency": -0.03, "schoolCount": 1}, {"name": "Caswell Public Schools", "lat": 46.979152, "lon": -67.81964, "proficiency": -0.03, "schoolCount": 1}, {"name": "Charlotte Public Schools", "lat": 44.997895, "lon": -67.261803, "proficiency": -0.03, "schoolCount": 1}, {"name": "Cranberry Isles Public Schools", "lat": 44.249201, "lon": -68.266003, "proficiency": -0.03, "schoolCount": 1}, {"name": "Dedham Public Schools", "lat": 44.727099, "lon": -68.623097, "proficiency": 0.9, "schoolCount": 1}, {"name": "Deer Isle-Stonington CSD", "lat": 44.241983, "lon": -68.680423, "proficiency": 0.695, "schoolCount": 1}, {"name": "Easton Public Schools", "lat": 46.641915, "lon": -67.903588, "proficiency": 0.9, "schoolCount": 1}, {"name": "Eastport Public Schools", "lat": 44.907992, "lon": -66.992034, "proficiency": 0.75, "schoolCount": 1}, {"name": "East Range CSD", "lat": 45.425242, "lon": -67.719433, "proficiency": -0.03, "schoolCount": 1}, {"name": "Ellsworth Public Schools", "lat": 44.549346, "lon": -68.432299, "proficiency": 0.87, "schoolCount": 1}, {"name": "Falmouth Public Schools", "lat": 43.737648, "lon": -70.274447, "proficiency": 0.975, "schoolCount": 1}, {"name": "Glenburn Public Schools", "lat": 44.916616, "lon": -68.847537, "proficiency": 0.845, "schoolCount": 1}, {"name": "Gorham Public Schools", "lat": 43.665236, "lon": -70.442952, "proficiency": 0.92, "schoolCount": 1}, {"name": "Great Salt Bay CSD", "lat": 44.04189, "lon": -69.508195, "proficiency": 0.95, "schoolCount": 1}, {"name": "Greenbush Public Schools", "lat": 45.120302, "lon": -68.608111, "proficiency": 0.75, "schoolCount": 1}, {"name": "Greenville Public Schools", "lat": 45.458473, "lon": -69.598056, "proficiency": 0.75, "schoolCount": 1}, {"name": "Hancock Public Schools", "lat": 44.530394, "lon": -68.251423, "proficiency": 0.695, "schoolCount": 1}, {"name": "Harmony Public Schools", "lat": 44.976921, "lon": -69.548532, "proficiency": 0.75, "schoolCount": 1}, {"name": "Hermon Public Schools", "lat": 44.811246, "lon": -68.907582, "proficiency": 0.92, "schoolCount": 1}, {"name": "Hope Public Schools", "lat": 44.223894, "lon": -69.223408, "proficiency": 0.75, "schoolCount": 1}, {"name": "Islesboro Public Schools", "lat": 44.267852, "lon": -68.918428, "proficiency": 0.75, "schoolCount": 1}, {"name": "Jefferson Public Schools", "lat": 44.205487, "lon": -69.456274, "proficiency": 0.9, "schoolCount": 1}, {"name": "Jonesboro Public Schools", "lat": 44.653609, "lon": -67.583604, "proficiency": 0.75, "schoolCount": 1}, {"name": "Jonesport Public Schools", "lat": 44.556222, "lon": -67.61435, "proficiency": -0.03, "schoolCount": 1}, {"name": "Kittery Public Schools", "lat": 43.114784, "lon": -70.743189, "proficiency": 0.87, "schoolCount": 1}, {"name": "Lamoine Public Schools", "lat": 44.478496, "lon": -68.340793, "proficiency": 0.75, "schoolCount": 1}, {"name": "Lewiston Public Schools", "lat": 44.102676, "lon": -70.202725, "proficiency": 0.69, "schoolCount": 1}, {"name": "Lincolnville Public Schools", "lat": 44.294426, "lon": -69.110619, "proficiency": 0.9, "schoolCount": 1}, {"name": "Lisbon Public Schools", "lat": 44.000992, "lon": -70.070072, "proficiency": 0.92, "schoolCount": 1}, {"name": "Machias Public Schools", "lat": 44.714972, "lon": -67.469027, "proficiency": 0.745, "schoolCount": 1}, {"name": "Madawaska Public Schools", "lat": 47.35265, "lon": -68.325557, "proficiency": 0.745, "schoolCount": 1}, {"name": "Medway Public Schools", "lat": 45.617915, "lon": -68.553955, "proficiency": 0.695, "schoolCount": 1}, {"name": "Milford Public Schools", "lat": 44.942909, "lon": -68.639846, "proficiency": 0.9, "schoolCount": 1}, {"name": "Millinocket Public Schools", "lat": 45.66127, "lon": -68.705543, "proficiency": 0.9, "schoolCount": 1}, {"name": "Mount Desert Public Schools", "lat": 44.293388, "lon": -68.292099, "proficiency": 0.9, "schoolCount": 1}, {"name": "Nobleboro Public Schools", "lat": 44.080746, "lon": -69.480026, "proficiency": 0.9, "schoolCount": 1}, {"name": "Orrington Public Schools", "lat": 44.72699, "lon": -68.815146, "proficiency": 0.95, "schoolCount": 1}, {"name": "Otis Public Schools", "lat": 44.672636, "lon": -68.425141, "proficiency": 0.75, "schoolCount": 1}, {"name": "Pembroke Public Schools", "lat": 44.94138, "lon": -67.218582, "proficiency": 0.75, "schoolCount": 1}, {"name": "Penobscot Public Schools", "lat": 44.468293, "lon": -68.709385, "proficiency": 0.75, "schoolCount": 1}, {"name": "Perry Public Schools", "lat": 45.01154, "lon": -67.095698, "proficiency": 0.9, "schoolCount": 1}, {"name": "Portland Public Schools", "lat": 43.680069333333336, "lon": -70.285881, "proficiency": 0.77, "schoolCount": 3}, {"name": "Princeton Public Schools", "lat": 45.217605, "lon": -67.551119, "proficiency": 0.9, "schoolCount": 1}, {"name": "Saco Public Schools", "lat": 43.52554, "lon": -70.466981, "proficiency": 0.92, "schoolCount": 1}, {"name": "Sanford Public Schools", "lat": 43.453446, "lon": -70.784667, "proficiency": 0.82, "schoolCount": 1}, {"name": "Scarborough Public Schools", "lat": 43.598204, "lon": -70.342233, "proficiency": 0.92, "schoolCount": 1}, {"name": "RSU 11/MSAD 11", "lat": 44.216792, "lon": -69.801968, "proficiency": 0.82, "schoolCount": 1}, {"name": "RSU 82/MSAD 12", "lat": 45.637794, "lon": -70.263577, "proficiency": 0.75, "schoolCount": 1}, {"name": "RSU 83/MSAD 13", "lat": 45.058583, "lon": -69.872674, "proficiency": 0.75, "schoolCount": 1}, {"name": "RSU 84/MSAD 14", "lat": 45.661069, "lon": -67.862754, "proficiency": 0.9, "schoolCount": 1}, {"name": "RSU 15/MSAD 15", "lat": 43.901192, "lon": -70.35361, "proficiency": 0.92, "schoolCount": 1}, {"name": "RSU 17/MSAD 17", "lat": 44.218586, "lon": -70.513166, "proficiency": 0.82, "schoolCount": 1}, {"name": "RSU 85/MSAD 19", "lat": 44.854973, "lon": -66.988564, "proficiency": 0.75, "schoolCount": 1}, {"name": "RSU 79/MSAD 01", "lat": 46.700106, "lon": -68.033211, "proficiency": 0.87, "schoolCount": 1}, {"name": "RSU 86/MSAD 20", "lat": 46.767546, "lon": -67.840319, "proficiency": 0.845, "schoolCount": 1}, {"name": "RSU 87/MSAD 23", "lat": 44.839933, "lon": -69.022255, "proficiency": 0.845, "schoolCount": 1}, {"name": "RSU 88/MSAD 24", "lat": 47.160911, "lon": -67.941597, "proficiency": 0.75, "schoolCount": 1}, {"name": "MSAD 27", "lat": 47.249299, "lon": -68.58604, "proficiency": 0.95, "schoolCount": 1}, {"name": "RSU 28/MSAD 28", "lat": 44.212495, "lon": -69.072424, "proficiency": 0.92, "schoolCount": 1}, {"name": "RSU 29/MSAD 29", "lat": 46.128604, "lon": -67.82754, "proficiency": 0.82, "schoolCount": 1}, {"name": "RSU 30/MSAD 30", "lat": 45.363626, "lon": -68.284161, "proficiency": 0.9, "schoolCount": 1}, {"name": "RSU 31/MSAD 31", "lat": 45.247677, "lon": -68.662022, "proficiency": 0.9, "schoolCount": 1}, {"name": "RSU 32/MSAD 32", "lat": 46.627835, "lon": -68.39394, "proficiency": 0.9, "schoolCount": 1}, {"name": "RSU 33/MSAD 33", "lat": 47.242249, "lon": -68.315417, "proficiency": 0.695, "schoolCount": 1}, {"name": "RSU 35/MSAD 35", "lat": 43.15316, "lon": -70.797471, "proficiency": 0.92, "schoolCount": 1}, {"name": "RSU 37/MSAD 37", "lat": 44.620088, "lon": -67.841654, "proficiency": 0.745, "schoolCount": 1}, {"name": "RSU 03/MSAD 03", "lat": 44.551203, "lon": -69.270293, "proficiency": 0.72, "schoolCount": 1}, {"name": "RSU 40/MSAD 40", "lat": 44.122511, "lon": -69.30954, "proficiency": 0.82, "schoolCount": 1}, {"name": "RSU 41/MSAD 41", "lat": 45.251867, "lon": -68.995942, "proficiency": 0.845, "schoolCount": 1}, {"name": "RSU 42/MSAD 42", "lat": 46.51565, "lon": -67.861156, "proficiency": 0.645, "schoolCount": 1}, {"name": "RSU 44/MSAD 44", "lat": 44.418639, "lon": -70.765757, "proficiency": 0.95, "schoolCount": 1}, {"name": "RSU 45/MSAD 45", "lat": 46.790033, "lon": -68.152657, "proficiency": 0.9, "schoolCount": 1}, {"name": "RSU 80/MSAD 04", "lat": 45.172186, "lon": -69.378201, "proficiency": 0.9, "schoolCount": 1}, {"name": "RSU 06/MSAD 06", "lat": 43.695166, "lon": -70.596426, "proficiency": 0.77, "schoolCount": 1}, {"name": "RSU 07/MSAD 07", "lat": 44.151006, "lon": -68.875909, "proficiency": 0.75, "schoolCount": 1}, {"name": "RSU 08/MSAD 08", "lat": 44.048692, "lon": -68.821811, "proficiency": 0.75, "schoolCount": 1}, {"name": "MSAD 76", "lat": 44.182475, "lon": -68.417419, "proficiency": 0.75, "schoolCount": 1}, {"name": "Education in Unorganized Terr", "lat": 44.895592, "lon": -67.223641, "proficiency": -0.03, "schoolCount": 1}, {"name": "Sedgwick Public Schools", "lat": 44.360078, "lon": -68.664251, "proficiency": 0.75, "schoolCount": 1}, {"name": "South Bristol Public Schools", "lat": 43.868127, "lon": -69.560131, "proficiency": -0.03, "schoolCount": 1}, {"name": "South Portland Public Schools", "lat": 43.6304875, "lon": -70.27748249999999, "proficiency": 0.795, "schoolCount": 2}, {"name": "Southwest Harbor Public Schools", "lat": 44.280965, "lon": -68.325028, "proficiency": 0.75, "schoolCount": 1}, {"name": "Surry Public Schools", "lat": 44.499254, "lon": -68.503346, "proficiency": 0.75, "schoolCount": 1}, {"name": "Tremont Public Schools", "lat": 44.253908, "lon": -68.349568, "proficiency": 0.75, "schoolCount": 1}, {"name": "Trenton Public Schools", "lat": 44.454355, "lon": -68.368799, "proficiency": 0.75, "schoolCount": 1}, {"name": "Vassalboro Public Schools", "lat": 44.437785, "lon": -69.653392, "proficiency": 0.845, "schoolCount": 1}, {"name": "Veazie Public Schools", "lat": 44.833292, "lon": -68.707158, "proficiency": 0.9, "schoolCount": 1}, {"name": "Waterville Public Schools", "lat": 44.529297, "lon": -69.660717, "proficiency": 0.82, "schoolCount": 1}, {"name": "Wells-Ogunquit CSD", "lat": 43.319567, "lon": -70.582783, "proficiency": 0.87, "schoolCount": 1}, {"name": "Westbrook Public Schools", "lat": 43.66365, "lon": -70.348201, "proficiency": 0.82, "schoolCount": 1}, {"name": "Winslow Schools", "lat": 44.550408, "lon": -69.617475, "proficiency": 0.82, "schoolCount": 1}, {"name": "Winthrop Public Schools", "lat": 44.30316, "lon": -69.985997, "proficiency": 0.95, "schoolCount": 1}, {"name": "Wiscasset Public Schools", "lat": 44.022996, "lon": -69.672156, "proficiency": 0.745, "schoolCount": 1}, {"name": "Woodland Public Schools", "lat": 46.876496, "lon": -68.112551, "proficiency": 0.9, "schoolCount": 1}, {"name": "Yarmouth Schools", "lat": 43.795979, "lon": -70.203498, "proficiency": 0.975, "schoolCount": 1}, {"name": "York Public Schools", "lat": 43.145604, "lon": -70.661988, "proficiency": 0.92, "schoolCount": 1}, {"name": "RSU 52/MSAD 52", "lat": 44.269514, "lon": -70.225571, "proficiency": 0.92, "schoolCount": 1}, {"name": "RSU 55/MSAD 55", "lat": 43.809903, "lon": -70.867899, "proficiency": 0.82, "schoolCount": 1}, {"name": "RSU 61/MSAD 61", "lat": 44.003341, "lon": -70.654532, "proficiency": 0.67, "schoolCount": 1}, {"name": "RSU 51/MSAD 51", "lat": 43.796991, "lon": -70.251392, "proficiency": 0.975, "schoolCount": 1}, {"name": "RSU 58/MSAD 58", "lat": 44.864867333333336, "lon": -70.24559066666667, "proficiency": 0.85, "schoolCount": 3}, {"name": "RSU 49/MSAD 49", "lat": 44.590309, "lon": -69.605495, "proficiency": 0.87, "schoolCount": 1}, {"name": "RSU 64/MSAD 64", "lat": 44.996808, "lon": -69.01785, "proficiency": 0.72, "schoolCount": 1}, {"name": "RSU 63/MSAD 63", "lat": 44.745492, "lon": -68.616183, "proficiency": 0.87, "schoolCount": 1}, {"name": "MSAD 46", "lat": 45.01161, "lon": -69.27382, "proficiency": 0.845, "schoolCount": 1}, {"name": "RSU 59/MSAD 59", "lat": 44.797934, "lon": -69.874438, "proficiency": 0.845, "schoolCount": 1}, {"name": "RSU 54/MSAD 54", "lat": 44.752441, "lon": -69.732423, "proficiency": 0.87, "schoolCount": 1}, {"name": "RSU 53/MSAD 53", "lat": 44.787992, "lon": -69.391337, "proficiency": 0.82, "schoolCount": 1}, {"name": "RSU 57/MSAD 57", "lat": 43.58068, "lon": -70.700625, "proficiency": 0.82, "schoolCount": 1}, {"name": "RSU 60/MSAD 60", "lat": 43.306408, "lon": -70.780808, "proficiency": 0.82, "schoolCount": 1}, {"name": "RSU 68/MSAD 68", "lat": 45.194212, "lon": -69.226729, "proficiency": 0.87, "schoolCount": 1}, {"name": "RSU 70/MSAD 70", "lat": 46.054208, "lon": -67.86439, "proficiency": 0.95, "schoolCount": 1}, {"name": "RSU 72/MSAD 72", "lat": 44.021983, "lon": -70.966123, "proficiency": 0.87, "schoolCount": 1}, {"name": "RSU 74/MSAD 74", "lat": 44.858059, "lon": -69.897615, "proficiency": 0.845, "schoolCount": 1}, {"name": "RSU 75/MSAD 75", "lat": 43.948026, "lon": -69.96595, "proficiency": 0.87, "schoolCount": 1}, {"name": "RSU 01 - LKRSU", "lat": 43.930559, "lon": -69.8060495, "proficiency": 0.885, "schoolCount": 2}, {"name": "RSU 21", "lat": 43.412484, "lon": -70.574997, "proficiency": 0.92, "schoolCount": 1}, {"name": "RSU 16", "lat": 44.070425, "lon": -70.41476, "proficiency": 0.87, "schoolCount": 1}, {"name": "RSU 02", "lat": 44.20224366666667, "lon": -69.88306033333333, "proficiency": 0.88, "schoolCount": 3}, {"name": "RSU 67", "lat": 45.365926, "lon": -68.499719, "proficiency": 0.95, "schoolCount": 1}, {"name": "RSU 26", "lat": 44.881285, "lon": -68.677595, "proficiency": 0.95, "schoolCount": 1}, {"name": "RSU 18", "lat": 44.495947, "lon": -69.6211835, "proficiency": 0.8575, "schoolCount": 2}, {"name": "RSU 12", "lat": 44.2954345, "lon": -69.58883025, "proficiency": 0.875, "schoolCount": 4}, {"name": "RSU 34", "lat": 44.930819, "lon": -68.654755, "proficiency": 0.87, "schoolCount": 1}, {"name": "RSU 04", "lat": 44.112085, "lon": -70.098269, "proficiency": 0.82, "schoolCount": 1}, {"name": "RSU 23", "lat": 43.513173, "lon": -70.392283, "proficiency": 0.745, "schoolCount": 1}, {"name": "RSU 19", "lat": 44.876861, "lon": -69.294675, "proficiency": 0.77, "schoolCount": 1}, {"name": "RSU 13", "lat": 44.081406, "lon": -69.1868, "proficiency": 0.77, "schoolCount": 1}, {"name": "RSU 38", "lat": 44.396686, "lon": -69.953641, "proficiency": 0.92, "schoolCount": 1}, {"name": "RSU 05", "lat": 43.9177135, "lon": -70.115355, "proficiency": 0.935, "schoolCount": 2}, {"name": "RSU 24", "lat": 44.53964925, "lon": -68.12061075, "proficiency": 0.7875, "schoolCount": 4}, {"name": "RSU 20", "lat": 44.463064, "lon": -68.925435, "proficiency": 0.9, "schoolCount": 1}, {"name": "RSU 14", "lat": 43.862716000000006, "lon": -70.42832150000001, "proficiency": 0.435, "schoolCount": 2}, {"name": "RSU 39", "lat": 46.863328, "lon": -68.005952, "proficiency": 0.92, "schoolCount": 1}, {"name": "RSU 10", "lat": 44.427133, "lon": -70.44416799999999, "proficiency": 0.86, "schoolCount": 2}, {"name": "RSU 25", "lat": 44.581742, "lon": -68.775622, "proficiency": 0.82, "schoolCount": 1}, {"name": "RSU 78", "lat": 44.97341, "lon": -70.65297, "proficiency": 0.75, "schoolCount": 1}, {"name": "RSU 73", "lat": 44.493558, "lon": -70.201034, "proficiency": 0.87, "schoolCount": 1}, {"name": "RSU 50", "lat": 46.086582, "lon": -68.184566, "proficiency": 0.95, "schoolCount": 1}, {"name": "RSU 09", "lat": 44.67459, "lon": -70.132277, "proficiency": 0.82, "schoolCount": 1}, {"name": "Cherryfield Public Schools", "lat": 44.60356, "lon": -67.934176, "proficiency": 0.75, "schoolCount": 1}, {"name": "RSU 22", "lat": 44.687386000000004, "lon": -68.8511795, "proficiency": 0.9475, "schoolCount": 2}, {"name": "Harpswell Coastal Academy", "lat": 43.758161, "lon": -70.014372, "proficiency": 0.9, "schoolCount": 1}, {"name": "Athens Public Schools", "lat": 44.924118, "lon": -69.672367, "proficiency": 0.75, "schoolCount": 1}, {"name": "Eustis Public Schools", "lat": 45.143479, "lon": -70.433466, "proficiency": 0.75, "schoolCount": 1}, {"name": "Maine Connections Academy", "lat": 43.60761, "lon": -70.318681, "proficiency": 0.975, "schoolCount": 1}, {"name": "St George Public Schools", "lat": 43.968011, "lon": -69.212738, "proficiency": 0.9, "schoolCount": 1}, {"name": "Maine Virtual Academy", "lat": 44.313039, "lon": -69.7686, "proficiency": 0.95, "schoolCount": 1}, {"name": "RSU 71", "lat": 44.41307, "lon": -69.02731, "proficiency": 0.87, "schoolCount": 1}, {"name": "Northport Public Schools", "lat": 44.383059, "lon": -68.978507, "proficiency": -0.03, "schoolCount": 1}, {"name": "RSU 56", "lat": 44.550227, "lon": -70.453392, "proficiency": 0.845, "schoolCount": 1}, {"name": "RSU 89", "lat": 45.924813, "lon": -68.439518, "proficiency": 0.9, "schoolCount": 1}, {"name": "Limestone Public Schools", "lat": 46.906825, "lon": -67.829291, "proficiency": 0.695, "schoolCount": 1}], "cities": [{"name": "East Machias", "lat": 44.741216, "lon": -67.390488, "proficiency": 0.9, "schoolCount": 1}, {"name": "Cutler", "lat": 44.670383, "lon": -67.257177, "proficiency": 0.75, "schoolCount": 1}, {"name": "Machiasport", "lat": 44.68903, "lon": -67.397329, "proficiency": -0.03, "schoolCount": 1}, {"name": "Whiting", "lat": 44.791272, "lon": -67.175265, "proficiency": -0.03, "schoolCount": 1}, {"name": "Acton", "lat": 43.507095, "lon": -70.897497, "proficiency": 0.9, "schoolCount": 1}, {"name": "Alexander", "lat": 45.091418, "lon": -67.477282, "proficiency": -0.03, "schoolCount": 1}, {"name": "Aurora", "lat": 44.864447, "lon": -68.307777, "proficiency": 0.75, "schoolCount": 1}, {"name": "Appleton", "lat": 44.273928, "lon": -69.268677, "proficiency": 0.9, "schoolCount": 1}, {"name": "Auburn", "lat": 44.092135, "lon": -70.250682, "proficiency": 0.77, "schoolCount": 1}, {"name": "Augusta", "lat": 44.3138735, "lon": -69.7588375, "proficiency": 0.785, "schoolCount": 2}, {"name": "Baileyville", "lat": 45.152312, "lon": -67.403455, "proficiency": 0.695, "schoolCount": 1}, {"name": "Bangor", "lat": 44.8045625, "lon": -68.7691345, "proficiency": 0.87, "schoolCount": 2}, {"name": "Bar Harbor", "lat": 44.387195, "lon": -68.215851, "proficiency": 0.95, "schoolCount": 1}, {"name": "Beals", "lat": 44.516279, "lon": -67.611607, "proficiency": 0.75, "schoolCount": 1}, {"name": "Biddeford", "lat": 43.473501, "lon": -70.464872, "proficiency": 0.72, "schoolCount": 1}, {"name": "Blue Hill", "lat": 44.414819, "lon": -68.592416, "proficiency": 0.9, "schoolCount": 1}, {"name": "Boothbay Harbor", "lat": 43.864921, "lon": -69.630612, "proficiency": 0.845, "schoolCount": 1}, {"name": "Brewer", "lat": 44.776879, "lon": -68.77062, "proficiency": 0.92, "schoolCount": 1}, {"name": "Damariscotta", "lat": 44.019624199999996, "lon": -69.5019198, "proficiency": 0.724, "schoolCount": 5}, {"name": "Brooklin", "lat": 44.26921, "lon": -68.570231, "proficiency": 0.75, "schoolCount": 1}, {"name": "Brooksville", "lat": 44.39031, "lon": -68.756194, "proficiency": 0.75, "schoolCount": 1}, {"name": "Brunswick", "lat": 43.901963, "lon": -69.976327, "proficiency": 0.87, "schoolCount": 1}, {"name": "Calais", "lat": 45.164135, "lon": -67.24213, "proficiency": 0.745, "schoolCount": 1}, {"name": "Cape Elizabeth", "lat": 43.594869, "lon": -70.230613, "proficiency": 0.975, "schoolCount": 1}, {"name": "Castine", "lat": 44.390447, "lon": -68.799195, "proficiency": -0.03, "schoolCount": 1}, {"name": "Caswell", "lat": 46.979152, "lon": -67.81964, "proficiency": -0.03, "schoolCount": 1}, {"name": "Charlotte", "lat": 44.997895, "lon": -67.261803, "proficiency": -0.03, "schoolCount": 1}, {"name": "Cranberry Isles", "lat": 44.249201, "lon": -68.266003, "proficiency": -0.03, "schoolCount": 1}, {"name": "Dedham", "lat": 44.727099, "lon": -68.623097, "proficiency": 0.9, "schoolCount": 1}, {"name": "Deer Isle", "lat": 44.241983, "lon": -68.680423, "proficiency": 0.695, "schoolCount": 1}, {"name": "Easton", "lat": 46.641915, "lon": -67.903588, "proficiency": 0.9, "schoolCount": 1}, {"name": "Eastport", "lat": 44.907992, "lon": -66.992034, "proficiency": 0.75, "schoolCount": 1}, {"name": "Topsfield", "lat": 45.425242, "lon": -67.719433, "proficiency": -0.03, "schoolCount": 1}, {"name": "Ellsworth", "lat": 44.549346, "lon": -68.432299, "proficiency": 0.87, "schoolCount": 1}, {"name": "Falmouth", "lat": 43.737648, "lon": -70.274447, "proficiency": 0.975, "schoolCount": 1}, {"name": "Glenburn", "lat": 44.916616, "lon": -68.847537, "proficiency": 0.845, "schoolCount": 1}, {"name": "Gorham", "lat": 43.665236, "lon": -70.442952, "proficiency": 0.92, "schoolCount": 1}, {"name": "Greenbush", "lat": 45.120302, "lon": -68.608111, "proficiency": 0.75, "schoolCount": 1}, {"name": "Greenville", "lat": 45.458473, "lon": -69.598056, "proficiency": 0.75, "schoolCount": 1}, {"name": "Hancock", "lat": 44.530394, "lon": -68.251423, "proficiency": 0.695, "schoolCount": 1}, {"name": "Harmony", "lat": 44.976921, "lon": -69.548532, "proficiency": 0.75, "schoolCount": 1}, {"name": "Hermon", "lat": 44.811246, "lon": -68.907582, "proficiency": 0.92, "schoolCount": 1}, {"name": "Hope", "lat": 44.223894, "lon": -69.223408, "proficiency": 0.75, "schoolCount": 1}, {"name": "Islesboro", "lat": 44.267852, "lon": -68.918428, "proficiency": 0.75, "schoolCount": 1}, {"name": "Jonesboro", "lat": 44.653609, "lon": -67.583604, "proficiency": 0.75, "schoolCount": 1}, {"name": "Jonesport", "lat": 44.556222, "lon": -67.61435, "proficiency": -0.03, "schoolCount": 1}, {"name": "Kittery", "lat": 43.114784, "lon": -70.743189, "proficiency": 0.87, "schoolCount": 1}, {"name": "Lamoine", "lat": 44.478496, "lon": -68.340793, "proficiency": 0.75, "schoolCount": 1}, {"name": "Lewiston", "lat": 44.102676, "lon": -70.202725, "proficiency": 0.69, "schoolCount": 1}, {"name": "Lincolnville", "lat": 44.294426, "lon": -69.110619, "proficiency": 0.9, "schoolCount": 1}, {"name": "Lisbon Falls", "lat": 44.000992, "lon": -70.070072, "proficiency": 0.92, "schoolCount": 1}, {"name": "Machias", "lat": 44.714972, "lon": -67.469027, "proficiency": 0.745, "schoolCount": 1}, {"name": "Madawaska", "lat": 47.35265, "lon": -68.325557, "proficiency": 0.745, "schoolCount": 1}, {"name": "Medway", "lat": 45.617915, "lon": -68.553955, "proficiency": 0.695, "schoolCount": 1}, {"name": "Milford", "lat": 44.942909, "lon": -68.639846, "proficiency": 0.9, "schoolCount": 1}, {"name": "Millinocket", "lat": 45.66127, "lon": -68.705543, "proficiency": 0.9, "schoolCount": 1}, {"name": "Northeast Harbor", "lat": 44.293388, "lon": -68.292099, "proficiency": 0.9, "schoolCount": 1}, {"name": "Orrington", "lat": 44.72699, "lon": -68.815146, "proficiency": 0.95, "schoolCount": 1}, {"name": "Otis", "lat": 44.672636, "lon": -68.425141, "proficiency": 0.75, "schoolCount": 1}, {"name": "Pembroke", "lat": 44.94138, "lon": -67.218582, "proficiency": 0.75, "schoolCount": 1}, {"name": "Penobscot", "lat": 44.468293, "lon": -68.709385, "proficiency": 0.75, "schoolCount": 1}, {"name": "Perry", "lat": 45.01154, "lon": -67.095698, "proficiency": 0.9, "schoolCount": 1}, {"name": "Portland", "lat": 43.680069333333336, "lon": -70.285881, "proficiency": 0.77, "schoolCount": 3}, {"name": "Princeton", "lat": 45.217605, "lon": -67.551119, "proficiency": 0.9, "schoolCount": 1}, {"name": "Saco", "lat": 43.52554, "lon": -70.466981, "proficiency": 0.92, "schoolCount": 1}, {"name": "Sanford", "lat": 43.453446, "lon": -70.784667, "proficiency": 0.82, "schoolCount": 1}, {"name": "Scarborough", "lat": 43.602907, "lon": -70.330457, "proficiency": 0.9475, "schoolCount": 2}, {"name": "Gardiner", "lat": 44.216792, "lon": -69.801968, "proficiency": 0.82, "schoolCount": 1}, {"name": "Jackman", "lat": 45.637794, "lon": -70.263577, "proficiency": 0.75, "schoolCount": 1}, {"name": "Bingham", "lat": 45.058583, "lon": -69.872674, "proficiency": 0.75, "schoolCount": 1}, {"name": "Danforth", "lat": 45.661069, "lon": -67.862754, "proficiency": 0.9, "schoolCount": 1}, {"name": "Gray", "lat": 43.901192, "lon": -70.35361, "proficiency": 0.92, "schoolCount": 1}, {"name": "Paris", "lat": 44.218586, "lon": -70.513166, "proficiency": 0.82, "schoolCount": 1}, {"name": "Lubec", "lat": 44.854973, "lon": -66.988564, "proficiency": 0.75, "schoolCount": 1}, {"name": "Presque Isle", "lat": 46.700106, "lon": -68.033211, "proficiency": 0.87, "schoolCount": 1}, {"name": "Fort Fairfield", "lat": 46.767546, "lon": -67.840319, "proficiency": 0.845, "schoolCount": 1}, {"name": "Carmel", "lat": 44.839933, "lon": -69.022255, "proficiency": 0.845, "schoolCount": 1}, {"name": "Van Buren", "lat": 47.160911, "lon": -67.941597, "proficiency": 0.75, "schoolCount": 1}, {"name": "Fort Kent", "lat": 47.249299, "lon": -68.58604, "proficiency": 0.95, "schoolCount": 1}, {"name": "Camden", "lat": 44.212495, "lon": -69.072424, "proficiency": 0.92, "schoolCount": 1}, {"name": "Houlton", "lat": 46.128604, "lon": -67.82754, "proficiency": 0.82, "schoolCount": 1}, {"name": "Lee", "lat": 45.363626, "lon": -68.284161, "proficiency": 0.9, "schoolCount": 1}, {"name": "Howland", "lat": 45.247677, "lon": -68.662022, "proficiency": 0.9, "schoolCount": 1}, {"name": "Ashland", "lat": 46.627835, "lon": -68.39394, "proficiency": 0.9, "schoolCount": 1}, {"name": "Saint Agatha", "lat": 47.242249, "lon": -68.315417, "proficiency": 0.695, "schoolCount": 1}, {"name": "Eliot", "lat": 43.15316, "lon": -70.797471, "proficiency": 0.92, "schoolCount": 1}, {"name": "Harrington", "lat": 44.620088, "lon": -67.841654, "proficiency": 0.745, "schoolCount": 1}, {"name": "Thorndike", "lat": 44.551203, "lon": -69.270293, "proficiency": 0.72, "schoolCount": 1}, {"name": "Waldoboro", "lat": 44.122511, "lon": -69.30954, "proficiency": 0.82, "schoolCount": 1}, {"name": "Milo", "lat": 45.251867, "lon": -68.995942, "proficiency": 0.845, "schoolCount": 1}, {"name": "Mars Hill", "lat": 46.51565, "lon": -67.861156, "proficiency": 0.645, "schoolCount": 1}, {"name": "Bethel", "lat": 44.418639, "lon": -70.765757, "proficiency": 0.95, "schoolCount": 1}, {"name": "Washburn", "lat": 46.790033, "lon": -68.152657, "proficiency": 0.9, "schoolCount": 1}, {"name": "Guilford", "lat": 45.172186, "lon": -69.378201, "proficiency": 0.9, "schoolCount": 1}, {"name": "Buxton", "lat": 43.695166, "lon": -70.596426, "proficiency": 0.77, "schoolCount": 1}, {"name": "North Haven", "lat": 44.151006, "lon": -68.875909, "proficiency": 0.75, "schoolCount": 1}, {"name": "Vinalhaven", "lat": 44.048692, "lon": -68.821811, "proficiency": 0.75, "schoolCount": 1}, {"name": "Swans Island", "lat": 44.182475, "lon": -68.417419, "proficiency": 0.75, "schoolCount": 1}, {"name": "Edmunds Township", "lat": 44.895592, "lon": -67.223641, "proficiency": -0.03, "schoolCount": 1}, {"name": "Sedgwick", "lat": 44.360078, "lon": -68.664251, "proficiency": 0.75, "schoolCount": 1}, {"name": "South Portland", "lat": 43.6304875, "lon": -70.27748249999999, "proficiency": 0.795, "schoolCount": 2}, {"name": "Southwest Harbor", "lat": 44.280965, "lon": -68.325028, "proficiency": 0.75, "schoolCount": 1}, {"name": "Surry", "lat": 44.499254, "lon": -68.503346, "proficiency": 0.75, "schoolCount": 1}, {"name": "Tremont", "lat": 44.253908, "lon": -68.349568, "proficiency": 0.75, "schoolCount": 1}, {"name": "Trenton", "lat": 44.454355, "lon": -68.368799, "proficiency": 0.75, "schoolCount": 1}, {"name": "Vassalboro", "lat": 44.437785, "lon": -69.653392, "proficiency": 0.845, "schoolCount": 1}, {"name": "Veazie", "lat": 44.833292, "lon": -68.707158, "proficiency": 0.9, "schoolCount": 1}, {"name": "Waterville", "lat": 44.529297, "lon": -69.660717, "proficiency": 0.82, "schoolCount": 1}, {"name": "Wells", "lat": 43.319567, "lon": -70.582783, "proficiency": 0.87, "schoolCount": 1}, {"name": "Westbrook", "lat": 43.66365, "lon": -70.348201, "proficiency": 0.82, "schoolCount": 1}, {"name": "Winslow", "lat": 44.550408, "lon": -69.617475, "proficiency": 0.82, "schoolCount": 1}, {"name": "Winthrop", "lat": 44.30316, "lon": -69.985997, "proficiency": 0.95, "schoolCount": 1}, {"name": "Wiscasset", "lat": 44.022996, "lon": -69.672156, "proficiency": 0.745, "schoolCount": 1}, {"name": "Woodland", "lat": 46.876496, "lon": -68.112551, "proficiency": 0.9, "schoolCount": 1}, {"name": "Yarmouth", "lat": 43.795979, "lon": -70.203498, "proficiency": 0.975, "schoolCount": 1}, {"name": "York", "lat": 43.145604, "lon": -70.661988, "proficiency": 0.92, "schoolCount": 1}, {"name": "Turner", "lat": 44.269514, "lon": -70.225571, "proficiency": 0.92, "schoolCount": 1}, {"name": "Hiram", "lat": 43.809903, "lon": -70.867899, "proficiency": 0.82, "schoolCount": 1}, {"name": "Naples", "lat": 44.003341, "lon": -70.654532, "proficiency": 0.67, "schoolCount": 1}, {"name": "Cumberland", "lat": 43.796991, "lon": -70.251392, "proficiency": 0.975, "schoolCount": 1}, {"name": "Strong", "lat": 44.814775, "lon": -70.219125, "proficiency": 0.9, "schoolCount": 1}, {"name": "Kingfield", "lat": 44.951557, "lon": -70.160251, "proficiency": 0.75, "schoolCount": 1}, {"name": "Phillips", "lat": 44.82827, "lon": -70.357396, "proficiency": 0.9, "schoolCount": 1}, {"name": "Fairfield", "lat": 44.590309, "lon": -69.605495, "proficiency": 0.87, "schoolCount": 1}, {"name": "Corinth", "lat": 44.996808, "lon": -69.01785, "proficiency": 0.72, "schoolCount": 1}, {"name": "Holden", "lat": 44.745492, "lon": -68.616183, "proficiency": 0.87, "schoolCount": 1}, {"name": "Dexter", "lat": 45.01161, "lon": -69.27382, "proficiency": 0.845, "schoolCount": 1}, {"name": "Madison", "lat": 44.797934, "lon": -69.874438, "proficiency": 0.845, "schoolCount": 1}, {"name": "Skowhegan", "lat": 44.752441, "lon": -69.732423, "proficiency": 0.87, "schoolCount": 1}, {"name": "Pittsfield", "lat": 44.787992, "lon": -69.391337, "proficiency": 0.82, "schoolCount": 1}, {"name": "East Waterboro", "lat": 43.58068, "lon": -70.700625, "proficiency": 0.82, "schoolCount": 1}, {"name": "North Berwick", "lat": 43.306408, "lon": -70.780808, "proficiency": 0.82, "schoolCount": 1}, {"name": "Dover-Foxcroft", "lat": 45.194212, "lon": -69.226729, "proficiency": 0.87, "schoolCount": 1}, {"name": "Hodgdon", "lat": 46.054208, "lon": -67.86439, "proficiency": 0.95, "schoolCount": 1}, {"name": "Fryeburg", "lat": 44.021983, "lon": -70.966123, "proficiency": 0.87, "schoolCount": 1}, {"name": "North Anson", "lat": 44.858059, "lon": -69.897615, "proficiency": 0.845, "schoolCount": 1}, {"name": "Topsham", "lat": 43.948026, "lon": -69.96595, "proficiency": 0.87, "schoolCount": 1}, {"name": "Bath", "lat": 43.919672, "lon": -69.829671, "proficiency": 0.87, "schoolCount": 1}, {"name": "Woolwich", "lat": 43.941446, "lon": -69.782428, "proficiency": 0.9, "schoolCount": 1}, {"name": "Kennebunk", "lat": 43.412484, "lon": -70.574997, "proficiency": 0.92, "schoolCount": 1}, {"name": "Poland", "lat": 44.070425, "lon": -70.41476, "proficiency": 0.87, "schoolCount": 1}, {"name": "Richmond", "lat": 44.087702, "lon": -69.812494, "proficiency": 0.95, "schoolCount": 1}, {"name": "Farmingdale", "lat": 44.266913, "lon": -69.799896, "proficiency": 0.845, "schoolCount": 1}, {"name": "Monmouth", "lat": 44.252116, "lon": -70.036791, "proficiency": 0.845, "schoolCount": 1}, {"name": "Lincoln", "lat": 45.365926, "lon": -68.499719, "proficiency": 0.95, "schoolCount": 1}, {"name": "Orono", "lat": 44.881285, "lon": -68.677595, "proficiency": 0.95, "schoolCount": 1}, {"name": "China", "lat": 44.439917, "lon": -69.526767, "proficiency": 0.845, "schoolCount": 1}, {"name": "Oakland", "lat": 44.551977, "lon": -69.7156, "proficiency": 0.87, "schoolCount": 1}, {"name": "Chelsea", "lat": 44.269159, "lon": -69.698742, "proficiency": 0.9, "schoolCount": 1}, {"name": "Palermo", "lat": 44.388509, "lon": -69.467402, "proficiency": 0.75, "schoolCount": 1}, {"name": "Whitefield", "lat": 44.222836, "lon": -69.603674, "proficiency": 0.9, "schoolCount": 1}, {"name": "Windsor", "lat": 44.301234, "lon": -69.585503, "proficiency": 0.95, "schoolCount": 1}, {"name": "Old Town", "lat": 44.930819, "lon": -68.654755, "proficiency": 0.87, "schoolCount": 1}, {"name": "Sabattus", "lat": 44.112085, "lon": -70.098269, "proficiency": 0.82, "schoolCount": 1}, {"name": "Old Orchard Beach", "lat": 43.513173, "lon": -70.392283, "proficiency": 0.745, "schoolCount": 1}, {"name": "Newport", "lat": 44.876861, "lon": -69.294675, "proficiency": 0.77, "schoolCount": 1}, {"name": "Thomaston", "lat": 44.081406, "lon": -69.1868, "proficiency": 0.77, "schoolCount": 1}, {"name": "Readfield", "lat": 44.396686, "lon": -69.953641, "proficiency": 0.92, "schoolCount": 1}, {"name": "Durham", "lat": 43.971177, "lon": -70.126592, "proficiency": 0.95, "schoolCount": 1}, {"name": "Freeport", "lat": 43.86425, "lon": -70.104118, "proficiency": 0.92, "schoolCount": 1}, {"name": "Eastbrook", "lat": 44.685783, "lon": -68.286724, "proficiency": 0.75, "schoolCount": 1}, {"name": "Sullivan", "lat": 44.555706, "lon": -68.202807, "proficiency": 0.9, "schoolCount": 1}, {"name": "Steuben", "lat": 44.511927, "lon": -67.961157, "proficiency": 0.75, "schoolCount": 1}, {"name": "Prospect Harbor", "lat": 44.405181, "lon": -68.031755, "proficiency": 0.75, "schoolCount": 1}, {"name": "Searsport", "lat": 44.463064, "lon": -68.925435, "proficiency": 0.9, "schoolCount": 1}, {"name": "Raymond", "lat": 43.93724, "lon": -70.445091, "proficiency": 0.9, "schoolCount": 1}, {"name": "Windham", "lat": 43.788192, "lon": -70.411552, "proficiency": -0.03, "schoolCount": 1}, {"name": "Caribou", "lat": 46.863328, "lon": -68.005952, "proficiency": 0.92, "schoolCount": 1}, {"name": "Mexico", "lat": 44.555386, "lon": -70.526977, "proficiency": 0.77, "schoolCount": 1}, {"name": "Buckfield", "lat": 44.29888, "lon": -70.361359, "proficiency": 0.95, "schoolCount": 1}, {"name": "Bucksport", "lat": 44.581742, "lon": -68.775622, "proficiency": 0.82, "schoolCount": 1}, {"name": "Rangeley", "lat": 44.97341, "lon": -70.65297, "proficiency": 0.75, "schoolCount": 1}, {"name": "Jay", "lat": 44.493558, "lon": -70.201034, "proficiency": 0.87, "schoolCount": 1}, {"name": "Dyer Brook", "lat": 46.086582, "lon": -68.184566, "proficiency": 0.95, "schoolCount": 1}, {"name": "Farmington", "lat": 44.67459, "lon": -70.132277, "proficiency": 0.82, "schoolCount": 1}, {"name": "Cherryfield", "lat": 44.60356, "lon": -67.934176, "proficiency": 0.75, "schoolCount": 1}, {"name": "Winterport", "lat": 44.635956, "lon": -68.859614, "proficiency": 0.92, "schoolCount": 1}, {"name": "Hampden", "lat": 44.738816, "lon": -68.842745, "proficiency": 0.975, "schoolCount": 1}, {"name": "Harpswell", "lat": 43.758161, "lon": -70.014372, "proficiency": 0.9, "schoolCount": 1}, {"name": "Athens", "lat": 44.924118, "lon": -69.672367, "proficiency": 0.75, "schoolCount": 1}, {"name": "Stratton", "lat": 45.143479, "lon": -70.433466, "proficiency": 0.75, "schoolCount": 1}, {"name": "Tenants Harbor", "lat": 43.968011, "lon": -69.212738, "proficiency": 0.9, "schoolCount": 1}, {"name": "Belfast", "lat": 44.41307, "lon": -69.02731, "proficiency": 0.87, "schoolCount": 1}, {"name": "Northport", "lat": 44.383059, "lon": -68.978507, "proficiency": -0.03, "schoolCount": 1}, {"name": "Dixfield", "lat": 44.550227, "lon": -70.453392, "proficiency": 0.845, "schoolCount": 1}, {"name": "Stacyville", "lat": 45.924813, "lon": -68.439518, "proficiency": 0.9, "schoolCount": 1}, {"name": "Limestone", "lat": 46.906825, "lon": -67.829291, "proficiency": 0.695, "schoolCount": 1}]}