{"state": "MO", "stateName": "Missouri", "year": 2020, "naep": {"text": "3 out of 4", "numerator": 3, "denominator": 4}, "schools": [{"name": "MARIES CO. MIDDLE", "lat": 38.300491, "lon": -91.633801, "proficiency": 0.22, "district": "MARIES CO. R-II", "city": "BLAND", "ncessch": "290000102547"}, {"name": "SOUTH HARRISON MIDDLE", "lat": 40.282424, "lon": -94.017445, "proficiency": 0.47, "district": "SOUTH HARRISON CO. R-II", "city": "BETHANY", "ncessch": "290000203297"}, {"name": "PORTAGEVILLE HIGH", "lat": 36.433703, "lon": -89.69885, "proficiency": 0.345, "district": "PORTAGEVILLE", "city": "PORTAGEVILLE", "ncessch": "290000302458"}, {"name": "CENTRAL MIDDLE SCHOOL", "lat": 36.575363, "lon": -89.585953, "proficiency": 0.17, "district": "NEW MADRID CO. R-I", "city": "NEW MADRID", "ncessch": "290000401991"}, {"name": "KC INTERNATIONAL-WALLACE", "lat": 39.1087, "lon": -94.483741, "proficiency": 0.025, "district": "KC INTERNATIONAL ACADEMY", "city": "KANSAS CITY", "ncessch": "290001302751"}, {"name": "HOGAN PREPARATORY ACAD MIDDLE", "lat": 39.009982, "lon": -94.551109, "proficiency": 0.025, "district": "HOGAN PREPARATORY ACADEMY", "city": "KANSAS CITY", "ncessch": "290001403196"}, {"name": "GENESIS SCHOOL INC.", "lat": 39.046492, "lon": -94.539573, "proficiency": 0.1, "district": "GENESIS SCHOOL INC.", "city": "KANSAS CITY", "ncessch": "290001602746"}, {"name": "Academie Lafayette Armour IMS", "lat": 39.063408, "lon": -94.582752, "proficiency": 0.27, "district": "ACADEMIE LAFAYETTE", "city": "KANSAS CITY", "ncessch": "290001703331"}, {"name": "SCUOLA VITA NUOVA CHARTER", "lat": 39.107003, "lon": -94.556165, "proficiency": 0.1, "district": "SCUOLA VITA NUOVA", "city": "KANSAS CITY", "ncessch": "290001902754"}, {"name": "BROOKSIDE CHARTER MIDDLE SCHL", "lat": 39.012349, "lon": -94.563663, "proficiency": 0.05, "district": "BROOKSIDE CHARTER SCH.", "city": "KANSAS CITY", "ncessch": "290002403184"}, {"name": "ALLEN VILLAGE JUNIOR ACADEMY", "lat": 39.052917, "lon": -94.594845, "proficiency": 0.15, "district": "ALLEN VILLAGE", "city": "KANSAS CITY", "ncessch": "290002503325"}, {"name": "UNIVERSITY ACADEMY-MIDDLE", "lat": 39.003423, "lon": -94.578839, "proficiency": 0.22, "district": "UNIVERSITY ACADEMY", "city": "KANSAS CITY", "ncessch": "290002702914"}, {"name": "LEE A. TOLBERT COM. ACADEMY", "lat": 39.064469, "lon": -94.568038, "proficiency": 0.05, "district": "LEE A. TOLBERT COM. ACADEMY", "city": "KANSAS CITY", "ncessch": "290002802749"}, {"name": "GUADALUPE CENTERS MIDDLE", "lat": 39.079253, "lon": -94.596945, "proficiency": 0.025, "district": "GUADALUPE CENTERS SCHOOLS", "city": "KANSAS CITY", "ncessch": "290002903166"}, {"name": "KIPP ENDEAVOR ACADEMY", "lat": 39.091707, "lon": -94.550868, "proficiency": 0.17, "district": "KIPP: ENDEAVOR ACADEMY", "city": "KANSAS CITY", "ncessch": "290003103013"}, {"name": "LIFT FOR LIFE ACADEMY", "lat": 38.608525, "lon": -90.200442, "proficiency": 0.075, "district": "LIFT FOR LIFE ACADEMY", "city": "ST LOUIS", "ncessch": "290057402828"}, {"name": "PREMIER CHARTER SCHOOL", "lat": 38.601629, "lon": -90.27866, "proficiency": 0.32, "district": "PREMIER CHARTER SCHOOL", "city": "ST LOUIS", "ncessch": "290057602831"}, {"name": "ASPIRE ACADEMY", "lat": 38.695726, "lon": -90.245604, "proficiency": 0.05, "district": "CONFLUENCE ACADEMIES", "city": "ST LOUIS", "ncessch": "290057903014"}, {"name": "OLD NORTH ACADEMY", "lat": 38.654694, "lon": -90.196554, "proficiency": 0.05, "district": "CONFLUENCE ACADEMIES", "city": "ST LOUIS", "ncessch": "290057903037"}, {"name": "SOUTH CITY", "lat": 38.579799, "lon": -90.238105, "proficiency": 0.17, "district": "CONFLUENCE ACADEMIES", "city": "ST LOUIS", "ncessch": "290057903079"}, {"name": "GRAND CENTER ARTS ACAD MIDDLE", "lat": 38.640651, "lon": -90.230789, "proficiency": 0.075, "district": "CONFLUENCE ACADEMIES", "city": "ST. LOUIS", "ncessch": "290057903345"}, {"name": "CITY GARDEN MONTESSORI ECEC", "lat": 38.620086, "lon": -90.255385, "proficiency": 0.75, "district": "CITY GARDEN MONTESSORI", "city": "ST LOUIS", "ncessch": "290058503101"}, {"name": "ST LOUIS LANG IMMERSION SCHOOL", "lat": 38.631312, "lon": -90.206975, "proficiency": 0.345, "district": "ST. LOUIS LANG IMMERSION SCH", "city": "ST LOUIS", "ncessch": "290058603124"}, {"name": "NORTH SIDE COMMUNITY-GRAND CTR", "lat": 38.63924, "lon": -90.230875, "proficiency": 0.3, "district": "NORTH SIDE COMMUNITY SCHOOL", "city": "ST.LOUIS", "ncessch": "290058903344"}, {"name": "FRONTIER SCHL OF EXCELLENCE-M", "lat": 39.025086, "lon": -94.573564, "proficiency": 0.05, "district": "FRONTIER SCHOOLS", "city": "KANSAS CITY", "ncessch": "290059003180"}, {"name": "FRONTIER SCHL OF INNOVATION-M", "lat": 39.136342, "lon": -94.504434, "proficiency": 0.12, "district": "FRONTIER SCHOOLS", "city": "KANSAS CITY", "ncessch": "290059003182"}, {"name": "KIPP INSPIRE ACADEMY", "lat": 38.640485, "lon": -90.208284, "proficiency": 0.075, "district": "KIPP ST LOUIS PUBLIC SCHOOLS", "city": "ST LOUIS", "ncessch": "290059103122"}, {"name": "KIPP TRIUMPH ACADEMY", "lat": 38.659888, "lon": -90.279986, "proficiency": 0.12, "district": "KIPP ST LOUIS PUBLIC SCHOOLS", "city": "St. Louis", "ncessch": "290059103270"}, {"name": "GATEWAY SCIENCE ACADEMY MIDDLE", "lat": 38.600941, "lon": -90.276407, "proficiency": 0.22, "district": "GATEWAY SCIENCE ACAD/ST LOUIS", "city": "ST. LOUIS", "ncessch": "290059203244"}, {"name": "Ewing Marion Kauffman Middle", "lat": 39.011582, "lon": -94.567156, "proficiency": 0.17, "district": "EWING MARION KAUFFMAN SCHOOL", "city": "Kansas City", "ncessch": "290059703195"}, {"name": "CROSSROADS PREPARATORY ACADEMY", "lat": 39.104072, "lon": -94.588735, "proficiency": 0.12, "district": "CROSSROADS CHARTER SCHOOLS", "city": "Kansas City", "ncessch": "290060303311"}, {"name": "EAGLE TOWER GROVE SOUTH", "lat": 38.591019, "lon": -90.263228, "proficiency": 0.1, "district": "MOMENTUM ACADEMY", "city": "ST. LOUIS", "ncessch": "290060503224"}, {"name": "LAFAYETTE PREPARATORY ACADEMY", "lat": 38.613637, "lon": -90.213617, "proficiency": 0.495, "district": "LAFAYETTE PREPARATORY ACADEMY", "city": "ST. LOUIS", "ncessch": "290060603223"}, {"name": "HAWTHORN MIDDLE", "lat": 38.666046, "lon": -90.260022, "proficiency": 0.1, "district": "HAWTHORN LEADERSHIP SCHL GIRLS", "city": "ST. LOUIS", "ncessch": "290060803274"}, {"name": "LA SALLE CHARTER SCHOOL", "lat": 38.640325, "lon": -90.212498, "proficiency": 0.15, "district": "LA SALLE CHARTER SCHOOL", "city": "ST. LOUIS", "ncessch": "290061103281"}, {"name": "JEFFERSON MIDDLE SCHOOL", "lat": 38.95709, "lon": -92.329618, "proficiency": 0.47, "district": "COLUMBIA 93", "city": "COLUMBIA", "ncessch": "290100000304"}, {"name": "WEST MIDDLE SCHOOL", "lat": 38.959592, "lon": -92.362927, "proficiency": 0.22, "district": "COLUMBIA 93", "city": "COLUMBIA", "ncessch": "290100000317"}, {"name": "ANN HAWKINS GENTRY MIDDLE", "lat": 38.905103, "lon": -92.34339, "proficiency": 0.32, "district": "COLUMBIA 93", "city": "COLUMBIA", "ncessch": "290100000841"}, {"name": "OAKLAND MIDDLE SCHOOL", "lat": 38.984602, "lon": -92.304908, "proficiency": 0.17, "district": "COLUMBIA 93", "city": "COLUMBIA", "ncessch": "290100001402"}, {"name": "SMITHTON MIDDLE", "lat": 38.959818, "lon": -92.388755, "proficiency": 0.32, "district": "COLUMBIA 93", "city": "COLUMBIA", "ncessch": "290100001408"}, {"name": "JOHN B. LANGE MIDDLE", "lat": 38.995276, "lon": -92.305278, "proficiency": 0.12, "district": "COLUMBIA 93", "city": "COLUMBIA", "ncessch": "290100001946"}, {"name": "JOHN WARNER MIDDLE SCHOOL", "lat": 38.890046, "lon": -92.371286, "proficiency": 0.37, "district": "COLUMBIA 93", "city": "COLUMBIA", "ncessch": "290100003374"}, {"name": "ADRIAN SR. HIGH", "lat": 38.399286, "lon": -94.348194, "proficiency": 0.345, "district": "ADRIAN R-III", "city": "ADRIAN", "ncessch": "290285000002"}, {"name": "ADVANCE HIGH", "lat": 37.109837, "lon": -89.906876, "proficiency": 0.345, "district": "ADVANCE R-IV", "city": "ADVANCE", "ncessch": "290288000004"}, {"name": "ROGERS MIDDLE", "lat": 38.573154, "lon": -90.317251, "proficiency": 0.12, "district": "AFFTON 101", "city": "ST LOUIS", "ncessch": "290291002461"}, {"name": "ALBANY MIDDLE", "lat": 40.250561, "lon": -94.33239, "proficiency": 0.05, "district": "ALBANY R-III", "city": "ALBANY", "ncessch": "290297001478"}, {"name": "SANTA FE HIGH", "lat": 39.097398, "lon": -93.550788, "proficiency": 0.3, "district": "SANTA FE R-X", "city": "ALMA", "ncessch": "290300000013"}, {"name": "ALTENBURG ELEM.", "lat": 37.629594, "lon": -89.591834, "proficiency": 0.75, "district": "ALTENBURG 48", "city": "ALTENBURG", "ncessch": "290304000014"}, {"name": "Alton High", "lat": 36.690806, "lon": -91.399902, "proficiency": 0.15, "district": "ALTON R-IV", "city": "Alton", "ncessch": "290306000016"}, {"name": "APPLETON CITY HIGH", "lat": 38.190293, "lon": -94.034056, "proficiency": 0.3, "district": "APPLETON CITY R-II", "city": "APPLETON CITY", "ncessch": "290312000019"}, {"name": "ARCADIA VALLEY MIDDLE", "lat": 37.593817, "lon": -90.632812, "proficiency": 0.47, "district": "ARCADIA VALLEY R-II", "city": "IRONTON", "ncessch": "290315000023"}, {"name": "ARCHIE HIGH", "lat": 38.484168, "lon": -94.355837, "proficiency": 0.245, "district": "ARCHIE R-V", "city": "ARCHIE", "ncessch": "290320000025"}, {"name": "ASH GROVE HIGH", "lat": 37.315206, "lon": -93.577678, "proficiency": 0.345, "district": "ASH GROVE R-IV", "city": "ASH GROVE", "ncessch": "290327000028"}, {"name": "ATLANTA HIGH", "lat": 39.894059, "lon": -92.478926, "proficiency": 0.3, "district": "ATLANTA C-3", "city": "ATLANTA", "ncessch": "290348000030"}, {"name": "AURORA JR. HIGH", "lat": 36.975147, "lon": -93.729265, "proficiency": 0.27, "district": "AURORA R-VIII", "city": "AURORA", "ncessch": "290402001517"}, {"name": "AVA MIDDLE", "lat": 36.955935, "lon": -92.659518, "proficiency": 0.52, "district": "AVA R-I", "city": "AVA", "ncessch": "290405002548"}, {"name": "AVENUE CITY ELEM.", "lat": 39.864822, "lon": -94.754298, "proficiency": 0.495, "district": "AVENUE CITY R-IX", "city": "COSBY", "ncessch": "290408000037"}, {"name": "AVILLA ELEM.", "lat": 37.191877, "lon": -94.129478, "proficiency": 0.245, "district": "AVILLA R-XIII", "city": "AVILLA", "ncessch": "290411000038"}, {"name": "BAKERSFIELD HIGH", "lat": 36.525759, "lon": -92.154544, "proficiency": 0.345, "district": "BAKERSFIELD R-IV", "city": "BAKERSFIELD", "ncessch": "290414000040"}, {"name": "BALLARD HIGH", "lat": 38.365464, "lon": -94.143154, "proficiency": 0.245, "district": "BALLARD R-II", "city": "BUTLER", "ncessch": "290417000042"}, {"name": "BAYLESS JUNIOR HIGH", "lat": 38.551955, "lon": -90.300345, "proficiency": 0.22, "district": "BAYLESS", "city": "ST LOUIS", "ncessch": "290450000715"}, {"name": "BELL CITY HIGH", "lat": 37.022849, "lon": -89.816853, "proficiency": 0.245, "district": "BELL CITY R-II", "city": "BELL CITY", "ncessch": "290453000047"}, {"name": "BELLEVIEW ELEM.", "lat": 37.710136, "lon": -90.748906, "proficiency": 0.245, "district": "BELLEVIEW R-III", "city": "BELLEVIEW", "ncessch": "290459000050"}, {"name": "BELTON MIDDLE SCHOOL", "lat": 38.80685, "lon": -94.535941, "proficiency": 0.26, "district": "BELTON 124", "city": "BELTON", "ncessch": "290462003025"}, {"name": "SCOTT CO. MIDDLE", "lat": 37.045783, "lon": -89.474662, "proficiency": 0.17, "district": "SCOTT CO. R-IV", "city": "BENTON", "ncessch": "290489002703"}, {"name": "BERNIE HIGH", "lat": 36.668935, "lon": -89.974375, "proficiency": 0.245, "district": "BERNIE R-XIII", "city": "BERNIE", "ncessch": "290495000061"}, {"name": "BEVIER ELEM.", "lat": 39.750409, "lon": -92.56219, "proficiency": 0.245, "district": "BEVIER C-4", "city": "BEVIER", "ncessch": "290498000062"}, {"name": "BILLINGS SR. HIGH", "lat": 37.060023, "lon": -93.555949, "proficiency": 0.3, "district": "BILLINGS R-IV", "city": "BILLINGS", "ncessch": "290507000066"}, {"name": "BISMARCK R-V HIGH", "lat": 37.772112, "lon": -90.617752, "proficiency": 0.05, "district": "BISMARCK R-V", "city": "BISMARCK", "ncessch": "290513000068"}, {"name": "BLACKWATER ELEM.", "lat": 38.982197, "lon": -92.993318, "proficiency": 0.3, "district": "BLACKWATER R-II", "city": "BLACKWATER", "ncessch": "290519000069"}, {"name": "BLOOMFIELD MIDDLE", "lat": 36.885283, "lon": -89.933134, "proficiency": 0.445, "district": "BLOOMFIELD R-XIV", "city": "BLOOMFIELD", "ncessch": "290525003104"}, {"name": "BLUE EYE MIDDLE", "lat": 36.504061, "lon": -93.395166, "proficiency": 0.545, "district": "BLUE EYE R-V", "city": "BLUE EYE", "ncessch": "290528001900"}, {"name": "BRITTANY HILL MIDDLE", "lat": 39.050615, "lon": -94.263399, "proficiency": 0.52, "district": "BLUE SPRINGS R-IV", "city": "BLUE SPRINGS", "ncessch": "290531000943"}, {"name": "MORELAND RIDGE MIDDLE", "lat": 38.984985, "lon": -94.277789, "proficiency": 0.52, "district": "BLUE SPRINGS R-IV", "city": "BLUE SPRINGS", "ncessch": "290531001706"}, {"name": "DELTA WOODS MIDDLE", "lat": 38.992039, "lon": -94.355351, "proficiency": 0.57, "district": "BLUE SPRINGS R-IV", "city": "LEE'S SUMMIT", "ncessch": "290531002736"}, {"name": "PAUL KINDER MIDDLE SCHOOL", "lat": 39.042104, "lon": -94.311931, "proficiency": 0.42, "district": "BLUE SPRINGS R-IV", "city": "BLUE SPRINGS", "ncessch": "290531002835"}, {"name": "BOLIVAR MIDDLE", "lat": 37.610691, "lon": -93.416905, "proficiency": 0.32, "district": "BOLIVAR R-I", "city": "BOLIVAR", "ncessch": "290537002423"}, {"name": "NORTH CO. MIDDLE", "lat": 37.871486, "lon": -90.522706, "proficiency": 0.27, "district": "NORTH ST. FRANCOIS CO. R-I", "city": "DESLOGE", "ncessch": "290543000645"}, {"name": "LAURA SPEED ELLIOTT MIDDLE", "lat": 38.971913, "lon": -92.742089, "proficiency": 0.27, "district": "BOONVILLE R-I", "city": "BOONVILLE", "ncessch": "290558000105"}, {"name": "BOURBON MIDDLE SCHOOL", "lat": 38.150476, "lon": -91.252958, "proficiency": 0.37, "district": "CRAWFORD CO. R-I", "city": "BOURBON", "ncessch": "290564001699"}, {"name": "BOWLING GREEN MIDDLE", "lat": 39.337434, "lon": -91.202122, "proficiency": 0.22, "district": "BOWLING GREEN R-I", "city": "BOWLING GREEN", "ncessch": "290566000601"}, {"name": "BRADLEYVILLE HIGH", "lat": 36.7872, "lon": -92.907205, "proficiency": 0.3, "district": "BRADLEYVILLE R-I", "city": "BRADLEYVILLE", "ncessch": "290570000118"}, {"name": "DELTA C-7 HIGH", "lat": 36.190948, "lon": -89.886603, "proficiency": 0.75, "district": "DELTA C-7", "city": "DEERING", "ncessch": "290573000120"}, {"name": "BRANSON JR. HIGH", "lat": 36.665847, "lon": -93.219202, "proficiency": 0.41, "district": "BRANSON R-IV", "city": "BRANSON", "ncessch": "290576000123"}, {"name": "ADAIR CO. HIGH", "lat": 40.149703, "lon": -92.381154, "proficiency": 0.75, "district": "ADAIR CO. R-II", "city": "BRASHEAR", "ncessch": "290579000125"}, {"name": "BRAYMER HIGH", "lat": 39.590031, "lon": -93.802068, "proficiency": 0.545, "district": "BRAYMER C-4", "city": "BRAYMER", "ncessch": "290582000127"}, {"name": "BRENTWOOD MIDDLE", "lat": 38.620728, "lon": -90.354042, "proficiency": 0.72, "district": "BRENTWOOD", "city": "BRENTWOOD", "ncessch": "290588001113"}, {"name": "BRONAUGH HIGH", "lat": 37.694776, "lon": -94.462528, "proficiency": 0.245, "district": "BRONAUGH R-VII", "city": "BRONAUGH", "ncessch": "290591000135"}, {"name": "BROOKFIELD MIDDLE", "lat": 39.782584, "lon": -93.101445, "proficiency": 0.57, "district": "BROOKFIELD R-III", "city": "BROOKFIELD", "ncessch": "290594002272"}, {"name": "LINN CO. HIGH", "lat": 39.966604, "lon": -93.11922, "proficiency": 0.3, "district": "LINN CO. R-I", "city": "PURDIN", "ncessch": "290600000143"}, {"name": "BRUNSWICK HIGH", "lat": 39.424722, "lon": -93.115036, "proficiency": 0.495, "district": "BRUNSWICK R-II", "city": "BRUNSWICK", "ncessch": "290603000145"}, {"name": "BUFFALO MIDDLE", "lat": 37.627748, "lon": -93.101663, "proficiency": 0.17, "district": "DALLAS CO. R-I", "city": "BUFFALO", "ncessch": "290612000858"}, {"name": "BUNCETON HIGH", "lat": 38.788906, "lon": -92.792244, "proficiency": 0.245, "district": "COOPER CO. R-IV", "city": "BUNCETON", "ncessch": "290615000154"}, {"name": "BUNKER HIGH", "lat": 37.457794, "lon": -91.210809, "proficiency": 0.245, "district": "BUNKER R-III", "city": "BUNKER", "ncessch": "290617000156"}, {"name": "BUTLER HIGH", "lat": 38.251448, "lon": -94.336833, "proficiency": 0.37, "district": "BUTLER R-V", "city": "BUTLER", "ncessch": "290636000158"}, {"name": "CABOOL MIDDLE", "lat": 37.127997, "lon": -92.111774, "proficiency": 0.15, "district": "CABOOL R-IV", "city": "CABOOL", "ncessch": "290643002424"}, {"name": "CAINSVILLE HIGH", "lat": 40.438859, "lon": -93.77366, "proficiency": 0.245, "district": "CAINSVILLE R-I", "city": "CAINSVILLE", "ncessch": "290645000164"}, {"name": "CALHOUN HIGH", "lat": 38.4643, "lon": -93.626487, "proficiency": 0.245, "district": "CALHOUN R-VIII", "city": "CALHOUN", "ncessch": "290648000166"}, {"name": "CALIFORNIA MIDDLE", "lat": 38.631227, "lon": -92.568176, "proficiency": 0.62, "district": "MONITEAU CO. R-I", "city": "CALIFORNIA", "ncessch": "290651001522"}, {"name": "CALLAO ELEM.", "lat": 39.763744, "lon": -92.625177, "proficiency": 0.245, "district": "CALLAO C-8", "city": "CALLAO", "ncessch": "290654000169"}, {"name": "CAMDENTON MIDDLE", "lat": 38.005374, "lon": -92.737517, "proficiency": 0.53, "district": "CAMDENTON R-III", "city": "CAMDENTON", "ncessch": "290699000173"}, {"name": "CAMERON VETERANS MIDDLE", "lat": 39.729586, "lon": -94.241982, "proficiency": 0.42, "district": "CAMERON R-I", "city": "CAMERON", "ncessch": "290702000177"}, {"name": "CAMPBELL HIGH", "lat": 36.491894, "lon": -90.066215, "proficiency": 0.345, "district": "CAMPBELL R-II", "city": "CAMPBELL", "ncessch": "290705000180"}, {"name": "CANTON HIGH", "lat": 40.128913, "lon": -91.517627, "proficiency": 0.345, "district": "CANTON R-V", "city": "CANTON", "ncessch": "290708000182"}, {"name": "CENTRAL JR. HIGH", "lat": 37.308049, "lon": -89.546481, "proficiency": 0.44, "district": "CAPE GIRARDEAU 63", "city": "CAPE GIRARDEAU", "ncessch": "290712000185"}, {"name": "NELL HOLCOMB ELEM.", "lat": 37.386717, "lon": -89.473804, "proficiency": 0.1, "district": "NELL HOLCOMB R-IV", "city": "CAPE GIRARDEAU", "ncessch": "290732000194"}, {"name": "Carl Junction Jr. High", "lat": 37.179484, "lon": -94.573765, "proficiency": 0.42, "district": "CARL JUNCTION R-I", "city": "Carl Junction", "ncessch": "290735000199"}, {"name": "MIDDLE SCHOOL", "lat": 39.368789, "lon": -93.49008, "proficiency": 0.37, "district": "CARROLLTON R-VII", "city": "CARROLLTON", "ncessch": "290738000311"}, {"name": "CARTHAGE JR. HIGH", "lat": 37.162777, "lon": -94.301737, "proficiency": 0.4, "district": "CARTHAGE R-IX", "city": "CARTHAGE", "ncessch": "290746000208"}, {"name": "CARUTHERSVILLE MIDDLE", "lat": 36.180491, "lon": -89.662797, "proficiency": 0.025, "district": "CARUTHERSVILLE 18", "city": "CARUTHERSVILLE", "ncessch": "290747001023"}, {"name": "CASSVILLE MIDDLE", "lat": 36.685303, "lon": -93.863804, "proficiency": 0.17, "district": "CASSVILLE R-IV", "city": "CASSVILLE", "ncessch": "290817002425"}, {"name": "CENTER MIDDLE", "lat": 38.942067, "lon": -94.589412, "proficiency": 0.025, "district": "CENTER 58", "city": "KANSAS CITY", "ncessch": "290825000230"}, {"name": "CREST RIDGE HIGH", "lat": 38.777525, "lon": -93.839978, "proficiency": 0.15, "district": "JOHNSON CO. R-VII", "city": "CENTERVIEW", "ncessch": "290832002276"}, {"name": "CENTERVILLE ELEM.", "lat": 37.434107, "lon": -90.958174, "proficiency": 0.245, "district": "CENTERVILLE R-I", "city": "CENTERVILLE", "ncessch": "290834000232"}, {"name": "DR. BERNARD J. DUBRAY MIDDLE", "lat": 38.781473, "lon": -90.620898, "proficiency": 0.57, "district": "FT. ZUMWALT R-II", "city": "ST PETERS", "ncessch": "290837001539"}, {"name": "FT. ZUMWALT SOUTH MIDDLE", "lat": 38.778321, "lon": -90.67912, "proficiency": 0.57, "district": "FT. ZUMWALT R-II", "city": "ST PETERS", "ncessch": "290837002427"}, {"name": "FT. ZUMWALT NORTH MIDDLE", "lat": 38.80367, "lon": -90.697464, "proficiency": 0.51, "district": "FT. ZUMWALT R-II", "city": "O'FALLON", "ncessch": "290837002491"}, {"name": "FT. ZUWMALT WEST MIDDLE", "lat": 38.745152, "lon": -90.702584, "proficiency": 0.63, "district": "FT. ZUMWALT R-II", "city": "O'FALLON", "ncessch": "290837002782"}, {"name": "CHESTER BOREN MIDDLE", "lat": 39.211173, "lon": -92.133179, "proficiency": 0.42, "district": "CENTRALIA R-VI", "city": "CENTRALIA", "ncessch": "290840000243"}, {"name": "CHADWICK HIGH", "lat": 36.92343, "lon": -93.057787, "proficiency": 0.3, "district": "CHADWICK R-I", "city": "CHADWICK", "ncessch": "290843000246"}, {"name": "CHAFFEE JR.-SR. HIGH", "lat": 37.183762, "lon": -89.664681, "proficiency": 0.245, "district": "CHAFFEE R-II", "city": "CHAFFEE", "ncessch": "290846000248"}, {"name": "CHAMOIS HIGH", "lat": 38.66959, "lon": -91.772071, "proficiency": 0.75, "district": "OSAGE CO. R-I", "city": "CHAMOIS", "ncessch": "290849000250"}, {"name": "CHARLESTON UPPER ELEMENTARY", "lat": 36.91408, "lon": -89.348971, "proficiency": 0.12, "district": "CHARLESTON R-I", "city": "CHARLESTON", "ncessch": "290867001780"}, {"name": "CHILHOWEE HIGH", "lat": 38.592394, "lon": -93.855082, "proficiency": 0.3, "district": "CHILHOWEE R-IV", "city": "CHILHOWEE", "ncessch": "290873000257"}, {"name": "CHILLICOTHE MIDDLE", "lat": 39.795537, "lon": -93.564179, "proficiency": 0.27, "district": "CHILLICOTHE R-II", "city": "CHILLICOTHE", "ncessch": "290876002815"}, {"name": "LIVINGSTON CO. ELEM.", "lat": 39.919571, "lon": -93.48136, "proficiency": 0.75, "district": "LIVINGSTON CO. R-III", "city": "CHULA", "ncessch": "290879000265"}, {"name": "CLARKSBURG ELEM.", "lat": 38.658153, "lon": -92.66742, "proficiency": 0.75, "district": "CLARKSBURG C-2", "city": "CLARKSBURG", "ncessch": "290909000267"}, {"name": "CLARKTON HIGH", "lat": 36.455667, "lon": -89.966734, "proficiency": 0.1, "district": "CLARKTON C-4", "city": "CLARKTON", "ncessch": "290912000269"}, {"name": "WYDOWN MIDDLE", "lat": 38.642386, "lon": -90.312, "proficiency": 0.62, "district": "CLAYTON", "city": "CLAYTON", "ncessch": "290972002584"}, {"name": "CLEARWATER MIDDLE", "lat": 37.167092, "lon": -90.676381, "proficiency": 0.245, "district": "CLEARWATER R-I", "city": "PIEDMONT", "ncessch": "290975001904"}, {"name": "CLEVER ELEM.", "lat": 37.029484, "lon": -93.47423, "proficiency": 0.57, "district": "CLEVER R-V", "city": "CLEVER", "ncessch": "290978000281"}, {"name": "CLIMAX SPRINGS HIGH", "lat": 38.105468, "lon": -93.051055, "proficiency": 0.245, "district": "CLIMAX SPRINGS R-IV", "city": "CLIMAX SPRINGS", "ncessch": "290981000284"}, {"name": "CLINTON MIDDLE", "lat": 38.36449, "lon": -93.766814, "proficiency": 0.37, "district": "CLINTON", "city": "CLINTON", "ncessch": "290986000288"}, {"name": "COLE CAMP MIDDLE", "lat": 38.455937, "lon": -93.209675, "proficiency": 0.645, "district": "COLE CAMP R-I", "city": "COLE CAMP", "ncessch": "290990001389"}, {"name": "BLAIR OAKS MIDDLE SCHOOL", "lat": 38.49047, "lon": -92.174142, "proficiency": 0.72, "district": "BLAIR OAKS R-II", "city": "JEFFERSON CITY", "ncessch": "290993003117"}, {"name": "COMMUNITY HIGH", "lat": 39.164143, "lon": -91.64691, "proficiency": 0.3, "district": "COMMUNITY R-VI", "city": "LADDONIA", "ncessch": "291002000319"}, {"name": "CONCORDIA HIGH", "lat": 38.97747, "lon": -93.571344, "proficiency": 0.745, "district": "CONCORDIA R-II", "city": "CONCORDIA", "ncessch": "291008000322"}, {"name": "CONWAY HIGH SCHOOLS", "lat": 37.501682, "lon": -92.836265, "proficiency": 0.245, "district": "LACLEDE CO. R-I", "city": "CONWAY", "ncessch": "291011000324"}, {"name": "COOTER HIGH", "lat": 36.045276, "lon": -89.806388, "proficiency": 0.1, "district": "COOTER R-IV", "city": "COOTER", "ncessch": "291014000326"}, {"name": "COUCH HIGH", "lat": 36.54092, "lon": -91.309396, "proficiency": 0.245, "district": "COUCH R-I", "city": "MYRTLE", "ncessch": "291020000328"}, {"name": "COWGILL ELEM.", "lat": 39.559439, "lon": -93.921477, "proficiency": 0.75, "district": "COWGILL R-VI", "city": "COWGILL", "ncessch": "291023000329"}, {"name": "CRANE HIGH", "lat": 36.89406, "lon": -93.569799, "proficiency": 0.245, "district": "CRANE R-III", "city": "CRANE", "ncessch": "291029000333"}, {"name": "SHERWOOD MIDDLE", "lat": 38.507963, "lon": -94.087257, "proficiency": 0.245, "district": "SHERWOOD CASS R-VIII", "city": "CREIGHTON", "ncessch": "291032001610"}, {"name": "CROCKER HIGH", "lat": 37.955446, "lon": -92.26335, "proficiency": 0.245, "district": "CROCKER R-II", "city": "CROCKER", "ncessch": "291035000338"}, {"name": "CRYSTAL CITY HIGH", "lat": 38.231361, "lon": -90.378038, "proficiency": 0.245, "district": "CRYSTAL CITY 47", "city": "CRYSTAL CITY", "ncessch": "291038000340"}, {"name": "CUBA MIDDLE", "lat": 38.054055, "lon": -91.403507, "proficiency": 0.42, "district": "CRAWFORD CO. R-II", "city": "CUBA", "ncessch": "291041000018"}, {"name": "DADEVILLE SR. HIGH", "lat": 37.481668, "lon": -93.674344, "proficiency": 0.245, "district": "DADEVILLE R-II", "city": "DADEVILLE", "ncessch": "291044000345"}, {"name": "DESOTO JR. HIGH", "lat": 38.134029, "lon": -90.566525, "proficiency": 0.32, "district": "DESOTO 73", "city": "DESOTO", "ncessch": "291050000349"}, {"name": "LAKELAND HIGH", "lat": 38.20516, "lon": -93.746633, "proficiency": 0.245, "district": "LAKELAND R-III", "city": "DEEPWATER", "ncessch": "291052000352"}, {"name": "DEKALB JR.-SR. HIGH", "lat": 39.586425, "lon": -94.928708, "proficiency": 0.1, "district": "BUCHANAN CO. R-IV", "city": "DEKALB", "ncessch": "291059000355"}, {"name": "DELTA HIGH", "lat": 37.200121, "lon": -89.736967, "proficiency": 0.3, "district": "DELTA R-V", "city": "DELTA", "ncessch": "291062000358"}, {"name": "NORTH WOOD ELEM.", "lat": 37.679669, "lon": -91.509989, "proficiency": 0.495, "district": "NORTH WOOD R-IV", "city": "SALEM", "ncessch": "291065000359"}, {"name": "DENT-PHELPS ELEM.", "lat": 37.718339, "lon": -91.656479, "proficiency": 0.3, "district": "DENT-PHELPS R-III", "city": "SALEM", "ncessch": "291071000360"}, {"name": "T. S. HILL MIDDLE", "lat": 36.786153, "lon": -89.976751, "proficiency": 0.42, "district": "DEXTER R-XI", "city": "DEXTER", "ncessch": "291077000362"}, {"name": "DIAMOND MIDDLE", "lat": 36.99003, "lon": -94.314504, "proficiency": 0.32, "district": "DIAMOND R-IV", "city": "DIAMOND", "ncessch": "291080000572"}, {"name": "DIXON MIDDLE", "lat": 37.996323, "lon": -92.091492, "proficiency": 0.12, "district": "DIXON R-I", "city": "DIXON", "ncessch": "291083000368"}, {"name": "DONIPHAN MIDDLE", "lat": 36.624318, "lon": -90.818793, "proficiency": 0.075, "district": "DONIPHAN R-I", "city": "DONIPHAN", "ncessch": "291092002586"}, {"name": "DORA HIGH", "lat": 36.772659, "lon": -92.216865, "proficiency": 0.445, "district": "DORA R-III", "city": "DORA", "ncessch": "291095000375"}, {"name": "SKYLINE ELEM.", "lat": 36.969086, "lon": -92.44834, "proficiency": 0.245, "district": "SKYLINE R-II", "city": "NORWOOD", "ncessch": "291101000376"}, {"name": "PLAINVIEW ELEM.", "lat": 36.851151, "lon": -92.807723, "proficiency": 0.245, "district": "PLAINVIEW R-VIII", "city": "AVA", "ncessch": "291104000377"}, {"name": "DREXEL HIGH", "lat": 38.479143, "lon": -94.60474, "proficiency": 0.3, "district": "DREXEL R-IV", "city": "DREXEL", "ncessch": "291107000379"}, {"name": "EAST CARTER CO. R-II MIDDLE", "lat": 36.930806, "lon": -90.745811, "proficiency": 0.345, "district": "EAST CARTER CO. R-II", "city": "ELLSINORE", "ncessch": "291110002916"}, {"name": "EAST LYNNE ELEM.", "lat": 38.664989, "lon": -94.227473, "proficiency": 0.75, "district": "EAST LYNNE 40", "city": "EAST LYNNE", "ncessch": "291116000384"}, {"name": "EAST PRAIRIE MIDDLE", "lat": 36.776387, "lon": -89.380287, "proficiency": 0.025, "district": "EAST PRAIRIE R-II", "city": "EAST PRAIRIE", "ncessch": "291122003381"}, {"name": "EAST BUCHANAN MIDDLE", "lat": 39.724889, "lon": -94.635154, "proficiency": 0.47, "district": "EAST BUCHANAN CO. C-1", "city": "EASTON", "ncessch": "291125002282"}, {"name": "KNOX CO. HIGH", "lat": 40.169613, "lon": -92.139782, "proficiency": 0.245, "district": "KNOX CO. R-I", "city": "EDINA", "ncessch": "291128000397"}, {"name": "EL DORADO SPRINGS MIDDLE", "lat": 37.867709, "lon": -94.018772, "proficiency": 0.27, "district": "EL DORADO SPRINGS R-II", "city": "EL DORADO SPRINGS", "ncessch": "291131002660"}, {"name": "ELDON MIDDLE", "lat": 38.364744, "lon": -92.583317, "proficiency": 0.42, "district": "ELDON R-I", "city": "ELDON", "ncessch": "291134000138"}, {"name": "IDA CANNON MIDDLE", "lat": 39.161626, "lon": -90.794194, "proficiency": 0.545, "district": "ELSBERRY R-II", "city": "ELSBERRY", "ncessch": "291140001990"}, {"name": "EMINENCE HIGH", "lat": 37.145705, "lon": -91.363588, "proficiency": 0.3, "district": "EMINENCE R-I", "city": "EMINENCE", "ncessch": "291145000409"}, {"name": "EUGENE HIGH", "lat": 38.372004, "lon": -92.396793, "proficiency": 0.345, "district": "COLE CO. R-V", "city": "EUGENE", "ncessch": "291155000411"}, {"name": "EVERTON HIGH", "lat": 37.346417, "lon": -93.698996, "proficiency": 0.245, "district": "EVERTON R-III", "city": "EVERTON", "ncessch": "291158000413"}, {"name": "EXCELSIOR SPRINGS MIDDLE", "lat": 39.348678, "lon": -94.250347, "proficiency": 0.17, "district": "EXCELSIOR SPRINGS 40", "city": "EXCELSIOR SPRINGS", "ncessch": "291165000418"}, {"name": "EXETER ELEM.", "lat": 36.673907, "lon": -93.937897, "proficiency": 0.3, "district": "EXETER R-VI", "city": "EXETER", "ncessch": "291167000426"}, {"name": "FAIR GROVE MIDDLE", "lat": 37.387643, "lon": -93.149044, "proficiency": 0.32, "district": "FAIR GROVE R-X", "city": "FAIR GROVE", "ncessch": "291170002283"}, {"name": "FAIR PLAY HIGH", "lat": 37.634403, "lon": -93.577087, "proficiency": 0.3, "district": "FAIR PLAY R-II", "city": "FAIR PLAY", "ncessch": "291173000431"}, {"name": "FAIRFAX HIGH", "lat": 40.339527, "lon": -95.389642, "proficiency": 0.245, "district": "FAIRFAX R-III", "city": "FAIRFAX", "ncessch": "291176000433"}, {"name": "FAIRVIEW ELEM.", "lat": 36.716105, "lon": -91.932683, "proficiency": 0.445, "district": "FAIRVIEW R-XI", "city": "WEST PLAINS", "ncessch": "291185000435"}, {"name": "FARMINGTON MIDDLE", "lat": 37.774984, "lon": -90.411559, "proficiency": 0.43, "district": "FARMINGTON R-VII", "city": "FARMINGTON", "ncessch": "291191000439"}, {"name": "MID-BUCHANAN SR. HIGH", "lat": 39.632745, "lon": -94.813281, "proficiency": 0.32, "district": "MID-BUCHANAN CO. R-V", "city": "FAUCETT", "ncessch": "291194000445"}, {"name": "WM. N. CLARK MIDDLE", "lat": 39.14819, "lon": -92.692811, "proficiency": 0.345, "district": "FAYETTE R-III", "city": "FAYETTE", "ncessch": "291199002590"}, {"name": "CROSS KEYS MIDDLE", "lat": 38.809419, "lon": -90.304807, "proficiency": 0.06, "district": "FERGUSON-FLORISSANT R-II", "city": "FLORISSANT", "ncessch": "291201000301"}, {"name": "FERGUSON MIDDLE", "lat": 38.754119, "lon": -90.314821, "proficiency": 0.04, "district": "FERGUSON-FLORISSANT R-II", "city": "FERGUSON", "ncessch": "291201000462"}, {"name": "STEAM ACADEMY MIDDLE SCHOOL", "lat": 38.777979, "lon": -90.342212, "proficiency": 0.37, "district": "FERGUSON-FLORISSANT R-II", "city": "HAZELWOOD", "ncessch": "291201003372"}, {"name": "FESTUS MIDDLE", "lat": 38.218878, "lon": -90.416392, "proficiency": 0.42, "district": "FESTUS R-VI", "city": "FESTUS", "ncessch": "291203002522"}, {"name": "FORDLAND MIDDLE", "lat": 37.161314, "lon": -92.952966, "proficiency": 0.345, "district": "FORDLAND R-III", "city": "FORDLAND", "ncessch": "291218001578"}, {"name": "FORSYTH MIDDLE", "lat": 36.695787, "lon": -93.117842, "proficiency": 0.52, "district": "FORSYTH R-III", "city": "FORSYTH", "ncessch": "291224000789"}, {"name": "OSAGE TRAIL MIDDLE", "lat": 39.137828, "lon": -94.288251, "proficiency": 0.16, "district": "FORT OSAGE R-I", "city": "INDEPENDENCE", "ncessch": "291229000494"}, {"name": "FOX MIDDLE", "lat": 38.450254, "lon": -90.369624, "proficiency": 0.27, "district": "FOX C-6", "city": "ARNOLD", "ncessch": "291230000500"}, {"name": "RIDGEWOOD MIDDLE", "lat": 38.457054, "lon": -90.420644, "proficiency": 0.32, "district": "FOX C-6", "city": "ARNOLD", "ncessch": "291230000502"}, {"name": "SECKMAN MIDDLE", "lat": 38.399529, "lon": -90.432306, "proficiency": 0.32, "district": "FOX C-6", "city": "IMPERIAL", "ncessch": "291230000505"}, {"name": "ANTONIA MIDDLE SCHOOL", "lat": 38.354357, "lon": -90.443659, "proficiency": 0.27, "district": "FOX C-6", "city": "BARNHART", "ncessch": "291230003151"}, {"name": "SPRING BLUFF ELEM.", "lat": 38.290655, "lon": -91.234606, "proficiency": 0.9, "district": "SPRING BLUFF R-XV", "city": "SULLIVAN", "ncessch": "291245000509"}, {"name": "STRAIN-JAPAN ELEM.", "lat": 38.265742, "lon": -91.295556, "proficiency": 0.75, "district": "STRAIN-JAPAN R-XVI", "city": "SULLIVAN", "ncessch": "291248000510"}, {"name": "FRANKLIN CO. ELEM.", "lat": 38.57637, "lon": -91.281288, "proficiency": 0.9, "district": "FRANKLIN CO. R-II", "city": "NEW HAVEN", "ncessch": "291251000511"}, {"name": "KELLY A BURLISON MIDDLE SCHOOL", "lat": 37.565524, "lon": -90.27713, "proficiency": 0.42, "district": "FREDERICKTOWN R-I", "city": "FREDERICKTOWN", "ncessch": "291254002523"}, {"name": "FULTON MIDDLE", "lat": 38.856049, "lon": -91.942407, "proficiency": 0.37, "district": "FULTON 58", "city": "FULTON", "ncessch": "291255002525"}, {"name": "GAINESVILLE HIGH", "lat": 36.611159, "lon": -92.40149, "proficiency": 0.345, "district": "GAINESVILLE R-V", "city": "GAINESVILLE", "ncessch": "291260000526"}, {"name": "GALENA HIGH", "lat": 36.811885, "lon": -93.472107, "proficiency": 0.15, "district": "GALENA R-II", "city": "GALENA", "ncessch": "291263000528"}, {"name": "GALLATIN MIDDLE SCHOOL", "lat": 39.908924, "lon": -93.971521, "proficiency": 0.245, "district": "GALLATIN R-V", "city": "GALLATIN", "ncessch": "291266003296"}, {"name": "GRUNDY CO. HIGH", "lat": 40.127092, "lon": -93.388728, "proficiency": 0.75, "district": "GRUNDY CO. R-V", "city": "GALT", "ncessch": "291269000532"}, {"name": "GASCONADE ELEM.", "lat": 37.623401, "lon": -92.431451, "proficiency": 0.245, "district": "GASCONADE C-4", "city": "FALCON", "ncessch": "291272000533"}, {"name": "GIDEON HIGH", "lat": 36.451003, "lon": -89.920742, "proficiency": 0.1, "district": "GIDEON 37", "city": "GIDEON", "ncessch": "291278000535"}, {"name": "GILMAN CITY HIGH", "lat": 40.134971, "lon": -93.872659, "proficiency": 0.495, "district": "GILMAN CITY R-IV", "city": "GILMAN CITY", "ncessch": "291287000538"}, {"name": "GLASGOW HIGH", "lat": 39.228025, "lon": -92.834313, "proficiency": 0.3, "district": "GLASGOW", "city": "GLASGOW", "ncessch": "291290000540"}, {"name": "GOLDEN CITY HIGH", "lat": 37.387059, "lon": -94.099786, "proficiency": 0.245, "district": "GOLDEN CITY R-III", "city": "GOLDEN CITY", "ncessch": "291293000542"}, {"name": "GRAIN VALLEY SOUTH MIDDLE SCHL", "lat": 38.990293, "lon": -94.212209, "proficiency": 0.37, "district": "GRAIN VALLEY R-V", "city": "GRAIN VALLEY", "ncessch": "291308002463"}, {"name": "GRAIN VALLEY NORTH MIDDLE SCHL", "lat": 39.052796, "lon": -94.20908, "proficiency": 0.37, "district": "GRAIN VALLEY R-V", "city": "GRAIN VALLEY", "ncessch": "291308003161"}, {"name": "GRANDVIEW MIDDLE", "lat": 38.894074, "lon": -94.501602, "proficiency": 0.17, "district": "GRANDVIEW C-4", "city": "GRANDVIEW", "ncessch": "291314000551"}, {"name": "MARTIN CITY ELEM.", "lat": 38.885761, "lon": -94.592567, "proficiency": 0.12, "district": "GRANDVIEW C-4", "city": "KANSAS CITY", "ncessch": "291314000554"}, {"name": "GRANDVIEW MIDDLE", "lat": 38.21523, "lon": -90.664243, "proficiency": 0.245, "district": "GRANDVIEW R-II", "city": "HILLSBORO", "ncessch": "291317001490"}, {"name": "GREEN CITY HIGH", "lat": 40.270288, "lon": -92.95017, "proficiency": 0.495, "district": "GREEN CITY R-I", "city": "GREEN CITY", "ncessch": "291323000561"}, {"name": "GREEN FOREST ELEM.", "lat": 37.536744, "lon": -91.629093, "proficiency": 0.695, "district": "GREEN FOREST R-II", "city": "SALEM", "ncessch": "291326000562"}, {"name": "GREEN RIDGE HIGH", "lat": 38.621227, "lon": -93.413004, "proficiency": 0.345, "district": "GREEN RIDGE R-VIII", "city": "GREEN RIDGE", "ncessch": "291329000564"}, {"name": "GREENFIELD HIGH", "lat": 37.416127, "lon": -93.843033, "proficiency": 0.1, "district": "GREENFIELD R-IV", "city": "GREENFIELD", "ncessch": "291332000566"}, {"name": "GREENVILLE JR. HIGH", "lat": 37.133008, "lon": -90.446885, "proficiency": 0.545, "district": "GREENVILLE R-II", "city": "GREENVILLE", "ncessch": "291338003035"}, {"name": "PLEASANT VIEW ELEM.", "lat": 40.046029, "lon": -93.571448, "proficiency": 0.75, "district": "PLEASANT VIEW R-VI", "city": "TRENTON", "ncessch": "291344000571"}, {"name": "HALE HIGH", "lat": 39.607252, "lon": -93.3435, "proficiency": 0.695, "district": "HALE R-I", "city": "HALE", "ncessch": "291350000574"}, {"name": "HALFWAY SECONDARY", "lat": 37.614889, "lon": -93.241015, "proficiency": 0.495, "district": "HALFWAY R-III", "city": "HALFWAY", "ncessch": "291353000576"}, {"name": "HALLSVILLE MIDDLE", "lat": 39.118844, "lon": -92.226947, "proficiency": 0.37, "district": "HALLSVILLE R-IV", "city": "HALLSVILLE", "ncessch": "291356001597"}, {"name": "HAMILTON MIDDLE", "lat": 39.751278, "lon": -93.998757, "proficiency": 0.545, "district": "HAMILTON R-II", "city": "HAMILTON", "ncessch": "291359002663"}, {"name": "HANCOCK PLACE MIDDLE", "lat": 38.52473, "lon": -90.282514, "proficiency": 0.42, "district": "HANCOCK PLACE", "city": "LEMAY", "ncessch": "291362001894"}, {"name": "HANNIBAL MIDDLE", "lat": 39.723853, "lon": -91.390027, "proficiency": 0.27, "district": "HANNIBAL 60", "city": "HANNIBAL", "ncessch": "291365002554"}, {"name": "HARDIN-CENTRAL HIGH", "lat": 39.272311, "lon": -93.836931, "proficiency": 0.3, "district": "HARDIN-CENTRAL C-2", "city": "HARDIN", "ncessch": "291368000597"}, {"name": "HARRISBURG MIDDLE", "lat": 39.14032, "lon": -92.462755, "proficiency": 0.345, "district": "HARRISBURG R-VIII", "city": "HARRISBURG", "ncessch": "291371003100"}, {"name": "HARRISONVILLE MIDDLE", "lat": 38.651587, "lon": -94.344735, "proficiency": 0.42, "district": "HARRISONVILLE R-IX", "city": "HARRISONVILLE", "ncessch": "291376002659"}, {"name": "HARTVILLE HIGH", "lat": 37.252465, "lon": -92.516306, "proficiency": 0.15, "district": "HARTVILLE R-II", "city": "HARTVILLE", "ncessch": "291377000608"}, {"name": "HAYTI HIGH", "lat": 36.238908, "lon": -89.747337, "proficiency": 0.1, "district": "HAYTI R-II", "city": "HAYTI", "ncessch": "291380000611"}, {"name": "NORTHWEST MIDDLE", "lat": 38.818165, "lon": -90.344435, "proficiency": 0.17, "district": "HAZELWOOD", "city": "FLORISSANT", "ncessch": "291383000624"}, {"name": "EAST MIDDLE", "lat": 38.776104, "lon": -90.235529, "proficiency": 0.075, "district": "HAZELWOOD", "city": "ST LOUIS", "ncessch": "291383000629"}, {"name": "WEST MIDDLE", "lat": 38.781029, "lon": -90.412544, "proficiency": 0.22, "district": "HAZELWOOD", "city": "HAZELWOOD", "ncessch": "291383002857"}, {"name": "CENTRAL MIDDLE", "lat": 38.803113, "lon": -90.252568, "proficiency": 0.17, "district": "HAZELWOOD", "city": "FLORISSANT", "ncessch": "291383003000"}, {"name": "NORTH MIDDLE", "lat": 38.839082, "lon": -90.288455, "proficiency": 0.17, "district": "HAZELWOOD", "city": "FLORISSANT", "ncessch": "291383003004"}, {"name": "SOUTHEAST MIDDLE", "lat": 38.779497, "lon": -90.195692, "proficiency": 0.025, "district": "HAZELWOOD", "city": "ST LOUIS", "ncessch": "291383003005"}, {"name": "SENN-THOMAS MIDDLE", "lat": 38.275321, "lon": -90.381901, "proficiency": 0.22, "district": "DUNKLIN R-V", "city": "HERCULANEUM", "ncessch": "291425002399"}, {"name": "HERMANN MIDDLE", "lat": 38.688889, "lon": -91.444583, "proficiency": 0.42, "district": "GASCONADE CO. R-I", "city": "HERMANN", "ncessch": "291428002464"}, {"name": "HERMITAGE MIDDLE", "lat": 37.940422, "lon": -93.312263, "proficiency": 0.1, "district": "HERMITAGE R-IV", "city": "HERMITAGE", "ncessch": "291431001964"}, {"name": "SKYLINE MIDDLE", "lat": 37.909758, "lon": -93.192674, "proficiency": 0.57, "district": "HICKORY CO. R-I", "city": "URBANA", "ncessch": "291432002794"}, {"name": "SMITH-HALE MIDDLE", "lat": 38.962411, "lon": -94.507501, "proficiency": 0.07, "district": "HICKMAN MILLS C-1", "city": "KANSAS CITY", "ncessch": "291434003162"}, {"name": "HIGBEE MIDDLE SCHOOL", "lat": 39.306293, "lon": -92.512028, "proficiency": 0.3, "district": "HIGBEE R-VIII", "city": "HIGBEE", "ncessch": "291437003357"}, {"name": "LAFAYETTE CO. MIDDLE", "lat": 39.063384, "lon": -93.729976, "proficiency": 0.17, "district": "LAFAYETTE CO. C-1", "city": "HIGGINSVILLE", "ncessch": "291440002596"}, {"name": "HILLSBORO JR. HIGH", "lat": 38.235146, "lon": -90.556269, "proficiency": 0.27, "district": "HILLSBORO R-III", "city": "HILLSBORO", "ncessch": "291443002597"}, {"name": "HOLCOMB HIGH", "lat": 36.403412, "lon": -90.025515, "proficiency": 0.245, "district": "HOLCOMB R-III", "city": "HOLCOMB", "ncessch": "291446000678"}, {"name": "HOLDEN MIDDLE", "lat": 38.701719, "lon": -93.987232, "proficiency": 0.27, "district": "HOLDEN R-III", "city": "HOLDEN", "ncessch": "291449000679"}, {"name": "HOLLISTER MIDDLE", "lat": 36.621493, "lon": -93.193799, "proficiency": 0.37, "district": "HOLLISTER R-V", "city": "HOLLISTER", "ncessch": "291455001120"}, {"name": "HOUSTON MIDDLE", "lat": 37.32652, "lon": -91.960397, "proficiency": 0.17, "district": "HOUSTON R-I", "city": "HOUSTON", "ncessch": "291484000453"}, {"name": "JUNCTION HILL ELEM.", "lat": 36.757683, "lon": -91.788392, "proficiency": 0.3, "district": "JUNCTION HILL C-12", "city": "WEST PLAINS", "ncessch": "291506000689"}, {"name": "GLENWOOD ELEM.", "lat": 36.674424, "lon": -91.860549, "proficiency": 0.245, "district": "GLENWOOD R-VIII", "city": "WEST PLAINS", "ncessch": "291518000691"}, {"name": "HOWELL VALLEY ELEM.", "lat": 36.713156, "lon": -91.817676, "proficiency": 0.245, "district": "HOWELL VALLEY R-I", "city": "WEST PLAINS", "ncessch": "291521000692"}, {"name": "HUDSON ELEM.", "lat": 38.192339, "lon": -94.076307, "proficiency": 0.75, "district": "HUDSON R-IX", "city": "APPLETON CITY", "ncessch": "291524000693"}, {"name": "NORTHWEST HIGH", "lat": 38.843337, "lon": -93.293677, "proficiency": 0.695, "district": "PETTIS CO. R-V", "city": "HUGHESVILLE", "ncessch": "291527000695"}, {"name": "HUMANSVILLE MIDDLE SCHOOL", "lat": 37.797646, "lon": -93.573688, "proficiency": 0.3, "district": "HUMANSVILLE R-IV", "city": "Humansville", "ncessch": "291530003298"}, {"name": "HUME HIGH", "lat": 38.093413, "lon": -94.583142, "proficiency": 0.245, "district": "HUME R-VIII", "city": "HUME", "ncessch": "291533000699"}, {"name": "HURLEY HIGH", "lat": 36.932968, "lon": -93.503575, "proficiency": 0.495, "district": "HURLEY R-I", "city": "HURLEY", "ncessch": "291539000701"}, {"name": "IBERIA HIGH", "lat": 38.086425, "lon": -92.301052, "proficiency": 0.445, "district": "IBERIA R-V", "city": "IBERIA", "ncessch": "291542000703"}, {"name": "SCOTT CITY MIDDLE", "lat": 37.214154, "lon": -89.548815, "proficiency": 0.37, "district": "SCOTT CITY R-I", "city": "SCOTT CITY", "ncessch": "291545002702"}, {"name": "BINGHAM MIDDLE", "lat": 39.084154, "lon": -94.363656, "proficiency": 0.19, "district": "INDEPENDENCE 30", "city": "INDEPENDENCE", "ncessch": "291548002339"}, {"name": "PIONEER RIDGE MIDDLE", "lat": 39.087388, "lon": -94.363491, "proficiency": 0.25, "district": "INDEPENDENCE 30", "city": "INDEPENDENCE", "ncessch": "291548002807"}, {"name": "CLIFFORD H. NOWLIN MIDDLE", "lat": 39.071132, "lon": -94.456544, "proficiency": 0.12, "district": "INDEPENDENCE 30", "city": "INDEPENDENCE", "ncessch": "291548003090"}, {"name": "Viburnum High", "lat": 37.717287, "lon": -91.135126, "proficiency": 0.1, "district": "IRON CO. C-4", "city": "Viburnum", "ncessch": "291551000729"}, {"name": "RUSSELL HAWKINS JR. HIGH", "lat": 37.386033, "lon": -89.691257, "proficiency": 0.53, "district": "JACKSON R-II", "city": "JACKSON", "ncessch": "291560000737"}, {"name": "JAMESTOWN C-I HIGH", "lat": 38.763137, "lon": -92.476203, "proficiency": 0.245, "district": "JAMESTOWN C-1", "city": "JAMESTOWN", "ncessch": "291566000743"}, {"name": "Jasper Co. High School", "lat": 37.340168, "lon": -94.303359, "proficiency": 0.345, "district": "JASPER CO. R-V", "city": "Jasper", "ncessch": "291614000745"}, {"name": "LEWIS AND CLARK MIDDLE", "lat": 38.556089, "lon": -92.1427, "proficiency": 0.22, "district": "JEFFERSON CITY", "city": "JEFFERSON CITY", "ncessch": "291619000476"}, {"name": "THOMAS JEFFERSON MIDDLE", "lat": 38.568417, "lon": -92.270029, "proficiency": 0.37, "district": "JEFFERSON CITY", "city": "JEFFERSON CITY", "ncessch": "291619000495"}, {"name": "JEFFERSON HIGH", "lat": 40.258076, "lon": -94.687635, "proficiency": 0.245, "district": "JEFFERSON C-123", "city": "CONCEPTION JCT", "ncessch": "291620000762"}, {"name": "DANBY-RUSH TOWER MIDDLE", "lat": 38.156475, "lon": -90.339615, "proficiency": 0.37, "district": "JEFFERSON CO. R-VII", "city": "FESTUS", "ncessch": "291623001722"}, {"name": "ROSE JOHNSON JENNINGS JR. HIGH", "lat": 38.727669, "lon": -90.257958, "proficiency": 0.12, "district": "JENNINGS", "city": "JENNINGS", "ncessch": "291629000767"}, {"name": "SOUTH MIDDLE", "lat": 37.032455, "lon": -94.504968, "proficiency": 0.37, "district": "JOPLIN SCHOOLS", "city": "JOPLIN", "ncessch": "291635002429"}, {"name": "NORTH MIDDLE", "lat": 37.09097, "lon": -94.524468, "proficiency": 0.22, "district": "JOPLIN SCHOOLS", "city": "JOPLIN", "ncessch": "291635002430"}, {"name": "EAST MIDDLE", "lat": 37.068219, "lon": -94.449792, "proficiency": 0.22, "district": "JOPLIN SCHOOLS", "city": "JOPLIN", "ncessch": "291635002431"}, {"name": "CLARK CO. MIDDLE", "lat": 40.423521, "lon": -91.724334, "proficiency": 0.12, "district": "CLARK CO. R-I", "city": "KAHOKA", "ncessch": "291638001656"}, {"name": "PASEO ACAD. OF PERFORMING ARTS", "lat": 39.039633, "lon": -94.565801, "proficiency": 0.025, "district": "KANSAS CITY 33", "city": "KANSAS CITY", "ncessch": "291640000862"}, {"name": "AC PREP ELEMENTARY", "lat": 39.009782, "lon": -94.543276, "proficiency": 0.1, "district": "KANSAS CITY 33", "city": "KANSAS CITY", "ncessch": "291640001718"}, {"name": "FOREIGN LANGUAGE ACADEMY", "lat": 39.064486, "lon": -94.58366, "proficiency": 0.245, "district": "KANSAS CITY 33", "city": "KANSAS CITY", "ncessch": "291640002376"}, {"name": "CENTRAL MIDDLE SCHOOL", "lat": 39.067121, "lon": -94.540265, "proficiency": 0.025, "district": "KANSAS CITY 33", "city": "KANSAS CITY", "ncessch": "291640003251"}, {"name": "NORTHEAST MIDDLE SCHOOL", "lat": 39.106833, "lon": -94.524258, "proficiency": 0.06, "district": "KANSAS CITY 33", "city": "KANSAS CITY", "ncessch": "291640003258"}, {"name": "LINCOLN COLLEGE ACADEMY MIDDLE", "lat": 39.085076, "lon": -94.558813, "proficiency": 0.52, "district": "KANSAS CITY 33", "city": "KANSAS CITY", "ncessch": "291640003322"}, {"name": "KEARNEY JR. HIGH", "lat": 39.347978, "lon": -94.347742, "proficiency": 0.52, "district": "KEARNEY R-I", "city": "KEARNEY", "ncessch": "291645002531"}, {"name": "KELSO ELEM.", "lat": 37.127482, "lon": -89.586901, "proficiency": 0.75, "district": "KELSO C-7", "city": "BENTON", "ncessch": "291647000895"}, {"name": "KENNETT MIDDLE", "lat": 36.24094, "lon": -90.054812, "proficiency": 0.22, "district": "KENNETT 39", "city": "KENNETT", "ncessch": "291650002654"}, {"name": "KEYTESVILLE HIGH", "lat": 39.445809, "lon": -92.930181, "proficiency": 0.245, "district": "KEYTESVILLE R-III", "city": "KEYTESVILLE", "ncessch": "291653000905"}, {"name": "KING CITY HIGH", "lat": 40.05458, "lon": -94.521112, "proficiency": 0.495, "district": "KING CITY R-I", "city": "KING CITY", "ncessch": "291659000907"}, {"name": "KINGSVILLE HIGH", "lat": 38.740163, "lon": -94.070426, "proficiency": 0.3, "district": "KINGSVILLE R-I", "city": "KINGSVILLE", "ncessch": "291666000910"}, {"name": "KIRBYVILLE MIDDLE", "lat": 36.63225, "lon": -93.132084, "proficiency": 0.3, "district": "KIRBYVILLE R-VI", "city": "KIRBYVILLE", "ncessch": "291671002824"}, {"name": "WILLIAM MATTHEW MIDDLE SCHOOL", "lat": 40.183315, "lon": -92.565646, "proficiency": 0.17, "district": "KIRKSVILLE R-III", "city": "KIRKSVILLE", "ncessch": "291674002611"}, {"name": "NIPHER MIDDLE", "lat": 38.571821, "lon": -90.405746, "proficiency": 0.37, "district": "KIRKWOOD R-VII", "city": "KIRKWOOD", "ncessch": "291677000923"}, {"name": "NORTH KIRKWOOD MIDDLE", "lat": 38.60058, "lon": -90.419246, "proficiency": 0.62, "district": "KIRKWOOD R-VII", "city": "KIRKWOOD", "ncessch": "291677000925"}, {"name": "KNOB NOSTER MIDDLE", "lat": 38.763367, "lon": -93.554299, "proficiency": 0.72, "district": "KNOB NOSTER R-VIII", "city": "KNOB NOSTER", "ncessch": "291683002290"}, {"name": "KOSHKONONG ELEM.", "lat": 36.600807, "lon": -91.645722, "proficiency": 0.1, "district": "OREGON-HOWELL R-III", "city": "KOSHKONONG", "ncessch": "291686000934"}, {"name": "LA MONTE HIGH", "lat": 38.772189, "lon": -93.418888, "proficiency": 0.1, "district": "LA MONTE R-IV", "city": "LA MONTE", "ncessch": "291692000937"}, {"name": "LA PLATA HIGH", "lat": 40.023713, "lon": -92.493783, "proficiency": 0.3, "district": "LA PLATA R-II", "city": "LA PLATA", "ncessch": "291695000939"}, {"name": "JOEL E. BARBER ELEM.", "lat": 37.672081, "lon": -92.743662, "proficiency": 0.15, "district": "LACLEDE CO. C-5", "city": "LEBANON", "ncessch": "291700000940"}, {"name": "LADUE MIDDLE", "lat": 38.640668, "lon": -90.385968, "proficiency": 0.57, "district": "LADUE", "city": "ST LOUIS", "ncessch": "291782000944"}, {"name": "LAMAR MIDDLE", "lat": 37.500313, "lon": -94.278093, "proficiency": 0.37, "district": "LAMAR R-I", "city": "LAMAR", "ncessch": "291785002467"}, {"name": "LAQUEY R-V HIGH", "lat": 37.76188, "lon": -92.312969, "proficiency": 0.15, "district": "LAQUEY R-V", "city": "LAQUEY", "ncessch": "291788000957"}, {"name": "LAREDO ELEM.", "lat": 40.025636, "lon": -93.449151, "proficiency": 0.245, "district": "LAREDO R-VII", "city": "LAREDO", "ncessch": "291791000958"}, {"name": "LATHROP MIDDLE SCHOOL", "lat": 39.545065, "lon": -94.329632, "proficiency": 0.27, "district": "LATHROP R-II", "city": "LATHROP", "ncessch": "291797001684"}, {"name": "LAWSON MIDDLE", "lat": 39.443234, "lon": -94.198298, "proficiency": 0.42, "district": "LAWSON R-XIV", "city": "LAWSON", "ncessch": "291822000961"}, {"name": "WEST COUNTY MIDDLE", "lat": 37.866467, "lon": -90.61122, "proficiency": 0.47, "district": "WEST ST. FRANCOIS CO. R-IV", "city": "PARK HILLS", "ncessch": "291824001091"}, {"name": "LEBANON MIDDLE SCHOOL", "lat": 37.642025, "lon": -92.660667, "proficiency": 0.27, "district": "LEBANON R-III", "city": "LEBANON", "ncessch": "291827000971"}, {"name": "BERNARD C. CAMPBELL MIDDLE", "lat": 38.94476, "lon": -94.350913, "proficiency": 0.38, "district": "LEE'S SUMMIT R-VII", "city": "LEE'S SUMMIT", "ncessch": "291830000222"}, {"name": "PLEASANT LEA MIDDLE", "lat": 38.898914, "lon": -94.38818, "proficiency": 0.48, "district": "LEE'S SUMMIT R-VII", "city": "LEE'S SUMMIT", "ncessch": "291830000982"}, {"name": "SUMMIT LAKES MIDDLE", "lat": 38.856423, "lon": -94.387149, "proficiency": 0.5, "district": "LEE'S SUMMIT R-VII", "city": "LEE'S SUMMIT", "ncessch": "291830002806"}, {"name": "LEESVILLE ELEM.", "lat": 38.320052, "lon": -93.606667, "proficiency": 0.245, "district": "LEESVILLE R-IX", "city": "CLINTON", "ncessch": "291833000985"}, {"name": "LEETON MIDDLE", "lat": 38.587652, "lon": -93.696205, "proficiency": 0.695, "district": "LEETON R-X", "city": "LEETON", "ncessch": "291836002812"}, {"name": "LEOPOLD HIGH", "lat": 37.25828, "lon": -89.925807, "proficiency": 0.75, "district": "LEOPOLD R-III", "city": "LEOPOLD", "ncessch": "291842000989"}, {"name": "LESTERVILLE HIGH SCHOOL", "lat": 37.454648, "lon": -90.84872, "proficiency": 0.1, "district": "LESTERVILLE R-IV", "city": "LESTERVILLE", "ncessch": "291845000991"}, {"name": "ALTERNATIVE SCHOOL", "lat": 37.454648, "lon": -90.84872, "proficiency": 0.245, "district": "LESTERVILLE R-IV", "city": "Lesterville", "ncessch": "291845002667"}, {"name": "HIGHLAND JR.-SR. HIGH", "lat": 40.033738, "lon": -91.734539, "proficiency": 0.27, "district": "LEWIS CO. C-1", "city": "LEWISTOWN", "ncessch": "291846000993"}, {"name": "LEXINGTON MIDDLE", "lat": 39.173887, "lon": -93.864177, "proficiency": 0.12, "district": "LEXINGTON R-V", "city": "LEXINGTON", "ncessch": "291848001000"}, {"name": "LIBERAL MIDDLE", "lat": 37.561793, "lon": -94.516138, "proficiency": 0.245, "district": "LIBERAL R-II", "city": "LIBERAL", "ncessch": "291851002719"}, {"name": "LIBERTY MIDDLE SCHOOL", "lat": 39.224439, "lon": -94.439288, "proficiency": 0.22, "district": "LIBERTY 53", "city": "LIBERTY", "ncessch": "291854002616"}, {"name": "SOUTH VALLEY MIDDLE", "lat": 39.224338, "lon": -94.462972, "proficiency": 0.27, "district": "LIBERTY 53", "city": "LIBERTY", "ncessch": "291854002800"}, {"name": "DISCOVERY MIDDLE SCHOOL", "lat": 39.226468, "lon": -94.463487, "proficiency": 0.37, "district": "LIBERTY 53", "city": "LIBERTY", "ncessch": "291854003226"}, {"name": "HERITAGE MIDDLE SCHOOL", "lat": 39.246649, "lon": -94.42974, "proficiency": 0.32, "district": "LIBERTY 53", "city": "LIBERTY", "ncessch": "291854003238"}, {"name": "LICKING HIGH", "lat": 37.490916, "lon": -91.856083, "proficiency": 0.27, "district": "LICKING R-VIII", "city": "LICKING", "ncessch": "291860001014"}, {"name": "LINCOLN HIGH", "lat": 38.393596, "lon": -93.337173, "proficiency": 0.545, "district": "LINCOLN R-II", "city": "LINCOLN", "ncessch": "291867001016"}, {"name": "ROBERT H. SPERRENG MIDDLE", "lat": 38.517585, "lon": -90.36748, "proficiency": 0.37, "district": "LINDBERGH SCHOOLS", "city": "ST LOUIS", "ncessch": "291869001024"}, {"name": "TRUMAN MIDDLE SCHOOL", "lat": 38.545685, "lon": -90.398242, "proficiency": 0.32, "district": "LINDBERGH SCHOOLS", "city": "ST. LOUIS", "ncessch": "291869003200"}, {"name": "LINN HIGH", "lat": 38.463773, "lon": -91.808807, "proficiency": 0.745, "district": "OSAGE CO. R-II", "city": "LINN", "ncessch": "291908001030"}, {"name": "LOCKWOOD MIDDLE SCHOOL", "lat": 37.390525, "lon": -93.958487, "proficiency": 0.1, "district": "LOCKWOOD R-I", "city": "Lockwood", "ncessch": "291914003283"}, {"name": "LOGAN-ROGERSVILLE MIDDLE", "lat": 37.127383, "lon": -93.116432, "proficiency": 0.47, "district": "LOGAN-ROGERSVILLE R-VIII", "city": "ROGERSVILLE", "ncessch": "291917002433"}, {"name": "LONEDELL ELEM.", "lat": 38.289334, "lon": -90.820761, "proficiency": 0.245, "district": "LONEDELL R-14", "city": "LONEDELL", "ncessch": "291920001038"}, {"name": "LONE JACK HIGH", "lat": 38.863416, "lon": -94.172443, "proficiency": 0.17, "district": "LONE JACK C-6", "city": "LONE JACK", "ncessch": "291923001040"}, {"name": "LOUISIANA MIDDLE", "lat": 39.432835, "lon": -91.073727, "proficiency": 0.345, "district": "LOUISIANA R-II", "city": "LOUISIANA", "ncessch": "291926001041"}, {"name": "WOODLAND MIDDLE", "lat": 37.311081, "lon": -90.013367, "proficiency": 0.47, "district": "WOODLAND R-IV", "city": "MARBLE HILL", "ncessch": "291935002985"}, {"name": "MACKS CREEK HIGH", "lat": 37.97043, "lon": -92.967829, "proficiency": 0.345, "district": "MACKS CREEK R-V", "city": "MACKS CREEK", "ncessch": "291938001049"}, {"name": "MACON MIDDLE SCHOOL", "lat": 39.745673, "lon": -92.463962, "proficiency": 0.47, "district": "MACON CO. R-I", "city": "MACON", "ncessch": "291941001052"}, {"name": "MADISON HIGH", "lat": 39.470882, "lon": -92.214342, "proficiency": 0.245, "district": "MADISON C-3", "city": "MADISON", "ncessch": "291984001055"}, {"name": "MALDEN HIGH", "lat": 36.568362, "lon": -89.974067, "proficiency": 0.075, "district": "MALDEN R-I", "city": "MALDEN", "ncessch": "291989001058"}, {"name": "MANSFIELD JR. HIGH", "lat": 37.11178, "lon": -92.585086, "proficiency": 0.545, "district": "MANSFIELD R-IV", "city": "MANSFIELD", "ncessch": "291998002560"}, {"name": "MRH MIDDLE", "lat": 38.614161, "lon": -90.324482, "proficiency": 0.17, "district": "MAPLEWOOD-RICHMOND HEIGHTS", "city": "MAPLEWOOD", "ncessch": "292001001895"}, {"name": "MARCELINE MIDDLE", "lat": 39.714493, "lon": -92.945051, "proficiency": 0.645, "district": "MARCELINE R-V", "city": "MARCELINE", "ncessch": "292005002503"}, {"name": "MARION C. EARLY JUNIOR HIGH", "lat": 37.480645, "lon": -93.428494, "proficiency": 0.345, "district": "MARION C. EARLY R-V", "city": "Morrisville", "ncessch": "292016003187"}, {"name": "MARION CO. HIGH", "lat": 39.842755, "lon": -91.741117, "proficiency": 0.695, "district": "MARION CO. R-II", "city": "PHILADELPHIA", "ncessch": "292028001075"}, {"name": "MARIONVILLE MIDDLE", "lat": 36.998648, "lon": -93.638698, "proficiency": 0.545, "district": "MARIONVILLE R-IX", "city": "Marionville", "ncessch": "292031003139"}, {"name": "MARK TWAIN ELEM.", "lat": 36.594563, "lon": -92.846491, "proficiency": 0.75, "district": "MARK TWAIN R-VIII", "city": "RUETER", "ncessch": "292034001078"}, {"name": "MARQUAND-ZION HIGH", "lat": 37.431121, "lon": -90.16657, "proficiency": 0.245, "district": "MARQUAND-ZION R-VI", "city": "MARQUAND", "ncessch": "292037001080"}, {"name": "BUEKER MIDDLE", "lat": 39.116187, "lon": -93.195411, "proficiency": 0.12, "district": "MARSHALL", "city": "MARSHALL", "ncessch": "292041001083"}, {"name": "MARSHFIELD JR. HIGH", "lat": 37.345952, "lon": -92.896196, "proficiency": 0.32, "district": "MARSHFIELD R-I", "city": "MARSHFIELD", "ncessch": "292043001088"}, {"name": "MARYVILLE MIDDLE", "lat": 40.325519, "lon": -94.879943, "proficiency": 0.47, "district": "MARYVILLE R-II", "city": "MARYVILLE", "ncessch": "292049001096"}, {"name": "MAYSVILLE JR.-SR. HIGH", "lat": 39.890288, "lon": -94.365014, "proficiency": 0.345, "district": "MAYSVILLE R-I", "city": "MAYSVILLE", "ncessch": "292055001099"}, {"name": "NOEL ELEM.", "lat": 36.539619, "lon": -94.484635, "proficiency": 0.12, "district": "MCDONALD CO. R-I", "city": "NOEL", "ncessch": "292061001101"}, {"name": "PINEVILLE ELEM.", "lat": 36.595555, "lon": -94.382871, "proficiency": 0.05, "district": "MCDONALD CO. R-I", "city": "NOEL", "ncessch": "292061001102"}, {"name": "ROCKY COMFORT ELEM.", "lat": 36.696688, "lon": -94.201768, "proficiency": 0.495, "district": "MCDONALD CO. R-I", "city": "ROCKY COMFORT", "ncessch": "292061001103"}, {"name": "SOUTHWEST CITY ELEM.", "lat": 36.516746, "lon": -94.61645, "proficiency": 0.445, "district": "MCDONALD CO. R-I", "city": "SOUTHWEST CITY", "ncessch": "292061001105"}, {"name": "WHITE ROCK ELEM.", "lat": 36.551542, "lon": -94.301835, "proficiency": 0.545, "district": "MCDONALD CO. R-I", "city": "PINEVILLE", "ncessch": "292061001106"}, {"name": "ANDERSON MIDDLE", "lat": 36.645996, "lon": -94.423003, "proficiency": 0.42, "district": "MCDONALD CO. R-I", "city": "ANDERSON", "ncessch": "292061003007"}, {"name": "MEADVILLE HIGH", "lat": 39.788556, "lon": -93.302787, "proficiency": 0.495, "district": "MEADVILLE R-IV", "city": "MEADVILLE", "ncessch": "292064001108"}, {"name": "MARGARET BUERKLE MIDDLE", "lat": 38.504067, "lon": -90.307414, "proficiency": 0.17, "district": "MEHLVILLE R-IX", "city": "ST LOUIS", "ncessch": "292067001114"}, {"name": "OAKVILLE MIDDLE", "lat": 38.459859, "lon": -90.303158, "proficiency": 0.32, "district": "MEHLVILLE R-IX", "city": "ST LOUIS", "ncessch": "292067001117"}, {"name": "WASHINGTON MIDDLE", "lat": 38.492183, "lon": -90.371071, "proficiency": 0.32, "district": "MEHLVILLE R-IX", "city": "ST LOUIS", "ncessch": "292067001123"}, {"name": "BERNARD MIDDLE", "lat": 38.49518, "lon": -90.326386, "proficiency": 0.22, "district": "MEHLVILLE R-IX", "city": "ST LOUIS", "ncessch": "292067003032"}, {"name": "SCOTLAND CO. HIGH", "lat": 40.47213, "lon": -92.17801, "proficiency": 0.245, "district": "SCOTLAND CO. R-I", "city": "MEMPHIS", "ncessch": "292070001127"}, {"name": "MERCER HIGH", "lat": 40.511738, "lon": -93.528597, "proficiency": 0.245, "district": "NORTH MERCER CO. R-III", "city": "MERCER", "ncessch": "292075001129"}, {"name": "MEXICO MIDDLE", "lat": 39.162415, "lon": -91.897102, "proficiency": 0.37, "district": "MEXICO 59", "city": "MEXICO", "ncessch": "292081001136"}, {"name": "MIAMI HIGH", "lat": 38.334941, "lon": -94.531344, "proficiency": 0.245, "district": "MIAMI R-I", "city": "AMORET", "ncessch": "292082001139"}, {"name": "MILAN HIGH", "lat": 40.198201, "lon": -93.126431, "proficiency": 0.445, "district": "MILAN C-2", "city": "MILAN", "ncessch": "292094001144"}, {"name": "MILLER HIGH", "lat": 37.221039, "lon": -93.843942, "proficiency": 0.05, "district": "MILLER R-II", "city": "MILLER", "ncessch": "292100001148"}, {"name": "MOBERLY MIDDLE", "lat": 39.401251, "lon": -92.425212, "proficiency": 0.52, "district": "MOBERLY", "city": "MOBERLY", "ncessch": "292110002561"}, {"name": "MONETT MIDDLE", "lat": 36.928123, "lon": -93.919315, "proficiency": 0.37, "district": "MONETT R-I", "city": "MONETT", "ncessch": "292112000183"}, {"name": "HIGH POINT ELEM.", "lat": 38.485173, "lon": -92.58522, "proficiency": 0.75, "district": "HIGH POINT R-III", "city": "HIGH POINT", "ncessch": "292115001163"}, {"name": "MONROE CITY MIDDLE", "lat": 39.656887, "lon": -91.73187, "proficiency": 0.545, "district": "MONROE CITY R-I", "city": "MONROE CITY", "ncessch": "292121001799"}, {"name": "MONTGOMERY CO. MIDDLE", "lat": 38.953085, "lon": -91.483432, "proficiency": 0.27, "district": "MONTGOMERY CO. R-II", "city": "MONTGOMERY CITY", "ncessch": "292133001171"}, {"name": "MONTROSE ELEM.", "lat": 38.255249, "lon": -93.977899, "proficiency": 0.245, "district": "MONTROSE R-XIV", "city": "MONTROSE", "ncessch": "292136001174"}, {"name": "SCOTT CO. CENTRAL HIGH", "lat": 36.981357, "lon": -89.620449, "proficiency": 0.495, "district": "SCOTT CO. CENTRAL", "city": "SIKESTON", "ncessch": "292142001177"}, {"name": "MOUND CITY MIDDLE", "lat": 40.133923, "lon": -95.230386, "proficiency": 0.3, "district": "MOUND CITY R-II", "city": "MOUND CITY", "ncessch": "292148003112"}, {"name": "MOUNTAIN GROVE MIDDLE", "lat": 37.142377, "lon": -92.258019, "proficiency": 0.32, "district": "MOUNTAIN GROVE R-III", "city": "MOUNTAIN GROVE", "ncessch": "292151002619"}, {"name": "LIBERTY MIDDLE", "lat": 36.9909, "lon": -91.641837, "proficiency": 0.42, "district": "MOUNTAIN VIEW-BIRCH TREE R-III", "city": "MOUNTAIN VIEW", "ncessch": "292154003026"}, {"name": "MT. VERNON MIDDLE", "lat": 37.098944, "lon": -93.823414, "proficiency": 0.47, "district": "MT. VERNON R-V", "city": "MT VERNON", "ncessch": "292160001988"}, {"name": "NORTHEAST NODAWAY HIGH", "lat": 40.351048, "lon": -94.669425, "proficiency": 0.3, "district": "NORTHEAST NODAWAY CO. R-V", "city": "RAVENWOOD", "ncessch": "292166001191"}, {"name": "NORTH NODAWAY JR.-SR. HIGH", "lat": 40.551322, "lon": -94.813617, "proficiency": 0.245, "district": "NORTH NODAWAY CO. R-VI", "city": "HOPKINS", "ncessch": "292169001194"}, {"name": "Naylor High School", "lat": 36.572103, "lon": -90.604388, "proficiency": 0.245, "district": "NAYLOR R-II", "city": "Naylor", "ncessch": "292172001198"}, {"name": "NEELYVILLE HIGH", "lat": 36.562788, "lon": -90.509555, "proficiency": 0.445, "district": "NEELYVILLE R-IV", "city": "NEELYVILLE", "ncessch": "292175001200"}, {"name": "NEOSHO JR. HIGH", "lat": 36.855633, "lon": -94.417524, "proficiency": 0.45, "district": "NEOSHO SCHOOL DISTRICT", "city": "NEOSHO", "ncessch": "292181001208"}, {"name": "NEVADA MIDDLE", "lat": 37.847705, "lon": -94.370374, "proficiency": 0.32, "district": "NEVADA R-V", "city": "NEVADA", "ncessch": "292184001216"}, {"name": "NEW BLOOMFIELD HIGH", "lat": 38.722588, "lon": -92.087736, "proficiency": 0.27, "district": "NEW BLOOMFIELD R-III", "city": "NEW BLOOMFIELD", "ncessch": "292187501219"}, {"name": "MACON CO. HIGH", "lat": 39.7706, "lon": -92.748776, "proficiency": 0.245, "district": "MACON CO. R-IV", "city": "NEW CAMBRIA", "ncessch": "292188001221"}, {"name": "New Franklin Middle-High", "lat": 39.018085, "lon": -92.742565, "proficiency": 0.1, "district": "NEW FRANKLIN R-I", "city": "New Franklin", "ncessch": "292194001223"}, {"name": "NEW HAVEN MIDDLE", "lat": 38.597092, "lon": -91.226908, "proficiency": 0.695, "district": "NEW HAVEN", "city": "NEW HAVEN", "ncessch": "292196002732"}, {"name": "NEWBURG HIGH", "lat": 37.920246, "lon": -91.899605, "proficiency": 0.15, "district": "NEWBURG R-II", "city": "NEWBURG", "ncessch": "292214001229"}, {"name": "NEWTOWN-HARRIS HIGH", "lat": 40.379395, "lon": -93.335063, "proficiency": 0.245, "district": "NEWTOWN-HARRIS R-III", "city": "NEWTOWN", "ncessch": "292247001231"}, {"name": "NIANGUA MIDDLE SCHOOL", "lat": 37.392705, "lon": -92.832282, "proficiency": 0.1, "district": "NIANGUA R-V", "city": "NIANGUA", "ncessch": "292250003343"}, {"name": "NIXA JUNIOR HIGH", "lat": 37.051828, "lon": -93.292312, "proficiency": 0.7, "district": "Nixa Public Schools", "city": "NIXA", "ncessch": "292253000425"}, {"name": "Nodaway-Holt MS/HS", "lat": 40.199127, "lon": -95.040234, "proficiency": 0.245, "district": "NODAWAY-HOLT R-VII", "city": "Graham", "ncessch": "292256001234"}, {"name": "NORBORNE HIGH", "lat": 39.298851, "lon": -93.672003, "proficiency": 0.245, "district": "NORBORNE R-VIII", "city": "NORBORNE", "ncessch": "292262001238"}, {"name": "JEFFERSON ELEM.", "lat": 38.71002, "lon": -90.294344, "proficiency": 0.15, "district": "NORMANDY SCHOOLS COLLABORATIVE", "city": "ST LOUIS", "ncessch": "292265001243"}, {"name": "WASHINGTON ELEM.", "lat": 38.684564, "lon": -90.32773, "proficiency": 0.05, "district": "NORMANDY SCHOOLS COLLABORATIVE", "city": "ST LOUIS", "ncessch": "292265001249"}, {"name": "LUCAS CROSSING ELEM. COMPLEX", "lat": 38.708154, "lon": -90.306272, "proficiency": 0.025, "district": "NORMANDY SCHOOLS COLLABORATIVE", "city": "ST LOUIS", "ncessch": "292265002850"}, {"name": "BARACK OBAMA ELEMENTARY SCHOOL", "lat": 38.693286, "lon": -90.277273, "proficiency": 0.05, "district": "NORMANDY SCHOOLS COLLABORATIVE", "city": "ST. LOUIS", "ncessch": "292265003189"}, {"name": "NORTH ANDREW MIDDLE", "lat": 40.039309, "lon": -94.876841, "proficiency": 0.3, "district": "NORTH ANDREW CO. R-VI", "city": "ROSENDALE", "ncessch": "292271000006"}, {"name": "NORTH CALLAWAY MIDDLE SCHOOL", "lat": 39.016764, "lon": -91.891627, "proficiency": 0.22, "district": "NORTH CALLAWAY CO. R-I", "city": "AUXVASSE", "ncessch": "292274003375"}, {"name": "NORTH HARRISON HIGH", "lat": 40.471056, "lon": -93.985893, "proficiency": 0.75, "district": "NORTH HARRISON R-III", "city": "EAGLEVILLE", "ncessch": "292277001257"}, {"name": "ANTIOCH MIDDLE", "lat": 39.211445, "lon": -94.554623, "proficiency": 0.36, "district": "NORTH KANSAS CITY 74", "city": "GLADSTONE", "ncessch": "292280001258"}, {"name": "MAPLE PARK MIDDLE", "lat": 39.190213, "lon": -94.504737, "proficiency": 0.17, "district": "NORTH KANSAS CITY 74", "city": "KANSAS CITY", "ncessch": "292280001278"}, {"name": "NEW MARK MIDDLE", "lat": 39.284857, "lon": -94.572576, "proficiency": 0.46, "district": "NORTH KANSAS CITY 74", "city": "KANSAS CITY", "ncessch": "292280001282"}, {"name": "NORTHGATE MIDDLE", "lat": 39.180539, "lon": -94.554644, "proficiency": 0.22, "district": "NORTH KANSAS CITY 74", "city": "KANSAS CITY", "ncessch": "292280002730"}, {"name": "NORTH PLATTE JR. HIGH", "lat": 39.525197, "lon": -94.771448, "proficiency": 0.245, "district": "NORTH PLATTE CO. R-I", "city": "DEARBORN", "ncessch": "292283002016"}, {"name": "NORTHEAST HIGH", "lat": 39.512121, "lon": -92.443178, "proficiency": 0.445, "district": "NORTHEAST RANDOLPH CO. R-IV", "city": "CAIRO", "ncessch": "292286001299"}, {"name": "NORTHWEST VALLEY SCH.", "lat": 38.41828, "lon": -90.561675, "proficiency": 0.27, "district": "NORTHWEST R-I", "city": "HOUSE SPRINGS", "ncessch": "292289002378"}, {"name": "WOODRIDGE MIDDLE SCHOOL", "lat": 38.4815, "lon": -90.512672, "proficiency": 0.22, "district": "NORTHWEST R-I", "city": "HIGH RIDGE", "ncessch": "292289003191"}, {"name": "NORTHWESTERN HIGH", "lat": 39.587422, "lon": -93.130721, "proficiency": 0.245, "district": "NORTHWESTERN R-I", "city": "MENDON", "ncessch": "292292001311"}, {"name": "NORWOOD HIGH", "lat": 37.113144, "lon": -92.417997, "proficiency": 0.245, "district": "NORWOOD R-I", "city": "NORWOOD", "ncessch": "292295001313"}, {"name": "ADAIR CO. HIGH", "lat": 40.234741, "lon": -92.703721, "proficiency": 0.495, "district": "ADAIR CO. R-I", "city": "NOVINGER", "ncessch": "292298001315"}, {"name": "OAK GROVE MIDDLE", "lat": 39.004, "lon": -94.125989, "proficiency": 0.22, "district": "OAK GROVE R-VI", "city": "OAK GROVE", "ncessch": "292301001318"}, {"name": "OAK HILL ELEM.", "lat": 37.569635, "lon": -91.525119, "proficiency": 0.245, "district": "OAK HILL R-I", "city": "SALEM", "ncessch": "292304001319"}, {"name": "OAK RIDGE HIGH", "lat": 37.50195, "lon": -89.733952, "proficiency": 0.1, "district": "OAK RIDGE R-VI", "city": "OAK RIDGE", "ncessch": "292307001321"}, {"name": "ODESSA MIDDLE", "lat": 38.990164, "lon": -93.959444, "proficiency": 0.42, "district": "ODESSA R-VII", "city": "ODESSA", "ncessch": "292310001730"}, {"name": "ORAN HIGH SCHOOL", "lat": 37.088085, "lon": -89.652078, "proficiency": 0.495, "district": "ORAN R-III", "city": "ORAN", "ncessch": "292313001327"}, {"name": "Orchard Farm Middle School", "lat": 38.899777, "lon": -90.448687, "proficiency": 0.22, "district": "ORCHARD FARM R-V", "city": "ST CHARLES", "ncessch": "292316001330"}, {"name": "SOUTH HOLT HIGH", "lat": 39.98479, "lon": -95.138466, "proficiency": 0.495, "district": "SOUTH HOLT CO. R-I", "city": "OREGON", "ncessch": "292319001334"}, {"name": "ORRICK HIGH", "lat": 39.213222, "lon": -94.12992, "proficiency": 0.495, "district": "ORRICK R-XI", "city": "ORRICK", "ncessch": "292322001336"}, {"name": "OSBORN HIGH", "lat": 39.751817, "lon": -94.357473, "proficiency": 0.75, "district": "OSBORN R-O", "city": "OSBORN", "ncessch": "292325001338"}, {"name": "OSCEOLA JR.-SR. HIGH", "lat": 38.018508, "lon": -93.696317, "proficiency": 0.445, "district": "OSCEOLA", "city": "OSCEOLA", "ncessch": "292327001340"}, {"name": "OTTERVILLE HIGH", "lat": 38.704722, "lon": -93.002947, "proficiency": 0.245, "district": "OTTERVILLE R-VI", "city": "OTTERVILLE", "ncessch": "292331001342"}, {"name": "OWENSVILLE MIDDLE", "lat": 38.367516, "lon": -91.479581, "proficiency": 0.47, "district": "GASCONADE CO. R-II", "city": "OWENSVILLE", "ncessch": "292334001477"}, {"name": "THORNFIELD ELEM.", "lat": 36.709769, "lon": -92.651009, "proficiency": 0.75, "district": "THORNFIELD R-I", "city": "THORNFIELD", "ncessch": "292337001348"}, {"name": "LUTIE HIGH", "lat": 36.581887, "lon": -92.672444, "proficiency": 0.245, "district": "LUTIE R-VI", "city": "THEODOSIA", "ncessch": "292340002565"}, {"name": "OZARK JR. HIGH", "lat": 37.026258, "lon": -93.214676, "proficiency": 0.54, "district": "OZARK R-VI", "city": "OZARK", "ncessch": "292343002438"}, {"name": "RIVERBEND SCH.", "lat": 38.466005, "lon": -90.768134, "proficiency": 0.47, "district": "MERAMEC VALLEY R-III", "city": "PACIFIC", "ncessch": "292346002864"}, {"name": "PALMYRA MIDDLE", "lat": 39.79517, "lon": -91.528251, "proficiency": 0.32, "district": "PALMYRA R-I", "city": "PALMYRA", "ncessch": "292349001361"}, {"name": "PARIS JR. HIGH", "lat": 39.470367, "lon": -92.007414, "proficiency": 0.1, "district": "PARIS R-II", "city": "PARIS", "ncessch": "292353002440"}, {"name": "PLAZA MIDDLE", "lat": 39.224075, "lon": -94.654645, "proficiency": 0.37, "district": "PARK HILL", "city": "KANSAS CITY", "ncessch": "292355001369"}, {"name": "CONGRESS MIDDLE", "lat": 39.243288, "lon": -94.672022, "proficiency": 0.37, "district": "PARK HILL", "city": "KANSAS CITY", "ncessch": "292355002418"}, {"name": "LAKEVIEW MIDDLE", "lat": 39.211816, "lon": -94.660195, "proficiency": 0.47, "district": "PARK HILL", "city": "KANSAS CITY", "ncessch": "292355002623"}, {"name": "WALDEN MIDDLE", "lat": 39.195286, "lon": -94.63426, "proficiency": 0.32, "district": "PARK HILL", "city": "KANSAS CITY", "ncessch": "292355003359"}, {"name": "SOUTHWEST MIDDLE", "lat": 38.57755, "lon": -90.518481, "proficiency": 0.47, "district": "PARKWAY C-2", "city": "BALLWIN", "ncessch": "292358001540"}, {"name": "CENTRAL MIDDLE", "lat": 38.668052, "lon": -90.503768, "proficiency": 0.47, "district": "PARKWAY C-2", "city": "CHESTERFIELD", "ncessch": "292358001547"}, {"name": "NORTHEAST MIDDLE", "lat": 38.65813, "lon": -90.450544, "proficiency": 0.32, "district": "PARKWAY C-2", "city": "CREVE COEUR", "ncessch": "292358001549"}, {"name": "SOUTH MIDDLE", "lat": 38.610217, "lon": -90.507366, "proficiency": 0.37, "district": "PARKWAY C-2", "city": "MANCHESTER", "ncessch": "292358001553"}, {"name": "WEST MIDDLE", "lat": 38.622945, "lon": -90.544271, "proficiency": 0.52, "district": "PARKWAY C-2", "city": "CHESTERFIELD", "ncessch": "292358001555"}, {"name": "MEADOW HEIGHTS MIDDLE SCHOOL", "lat": 37.514679, "lon": -89.978946, "proficiency": 0.245, "district": "MEADOW HEIGHTS R-II", "city": "PATTON", "ncessch": "292364003339"}, {"name": "PATTONSBURG HIGH", "lat": 40.074715, "lon": -94.109496, "proficiency": 0.3, "district": "PATTONSBURG R-II", "city": "PATTONSBURG", "ncessch": "292367001410"}, {"name": "HOLMAN MIDDLE", "lat": 38.736998, "lon": -90.394444, "proficiency": 0.22, "district": "PATTONVILLE R-III", "city": "ST ANN", "ncessch": "292370001415"}, {"name": "PATTONVILLE HEIGHTS MIDDLE", "lat": 38.71768, "lon": -90.426341, "proficiency": 0.22, "district": "PATTONVILLE R-III", "city": "MARYLAND HEIGHTS", "ncessch": "292370001417"}, {"name": "TRADITIONAL SCH.", "lat": 38.718879, "lon": -90.422642, "proficiency": 0.745, "district": "PATTONVILLE R-III", "city": "MARYLAND HEIGHTS", "ncessch": "292370001419"}, {"name": "RAYMORE-PECULIAR EAST MIDDLE", "lat": 38.801081, "lon": -94.389903, "proficiency": 0.27, "district": "RAYMORE-PECULIAR R-II", "city": "RAYMORE", "ncessch": "292373000088"}, {"name": "RAYMORE-PECULIAR SOUTH MIDDLE", "lat": 38.748825, "lon": -94.457624, "proficiency": 0.27, "district": "RAYMORE-PECULIAR R-II", "city": "Peculiar", "ncessch": "292373003312"}, {"name": "NORTH PEMISCOT SR. HIGH", "lat": 36.350165, "lon": -89.823272, "proficiency": 0.245, "district": "NORTH PEMISCOT CO. R-I", "city": "WARDELL", "ncessch": "292376001431"}, {"name": "PEMISCOT CO. R-III ELEM.", "lat": 36.119129, "lon": -89.700175, "proficiency": 0.245, "district": "PEMISCOT CO. R-III", "city": "CARUTHERSVILLE", "ncessch": "292379001436"}, {"name": "PERRY CO. MIDDLE", "lat": 37.718691, "lon": -89.861457, "proficiency": 0.22, "district": "PERRY CO. 32", "city": "PERRYVILLE", "ncessch": "292453001845"}, {"name": "PETTIS CO. ELEM.", "lat": 38.748975, "lon": -93.336442, "proficiency": 0.75, "district": "PETTIS CO. R-XII", "city": "SEDALIA", "ncessch": "292469001713"}, {"name": "PHELPS CO. ELEM.", "lat": 37.722252, "lon": -91.89472, "proficiency": 0.245, "district": "PHELPS CO. R-III", "city": "EDGAR SPRINGS", "ncessch": "292508001439"}, {"name": "PIERCE CITY MIDDLE", "lat": 36.948619, "lon": -93.998943, "proficiency": 0.445, "district": "PIERCE CITY R-VI", "city": "PIERCE CITY", "ncessch": "292511001987"}, {"name": "CLOPTON HIGH", "lat": 39.293368, "lon": -90.948374, "proficiency": 0.3, "district": "PIKE CO. R-III", "city": "CLARKSVILLE", "ncessch": "292514001445"}, {"name": "PILOT GROVE HIGH", "lat": 38.875229, "lon": -92.907268, "proficiency": 0.3, "district": "PILOT GROVE C-4", "city": "PILOT GROVE", "ncessch": "292517001448"}, {"name": "PLATO HIGH", "lat": 37.502583, "lon": -92.222416, "proficiency": 0.15, "district": "PLATO R-V", "city": "PLATO", "ncessch": "292521001450"}, {"name": "BARRY SCH.", "lat": 39.252499, "lon": -94.605528, "proficiency": 0.32, "district": "PLATTE CO. R-III", "city": "KANSAS CITY", "ncessch": "292523001451"}, {"name": "PLATTE CITY MIDDLE", "lat": 39.354142, "lon": -94.771114, "proficiency": 0.42, "district": "PLATTE CO. R-III", "city": "PLATTE CITY", "ncessch": "292523001455"}, {"name": "CLINTON CO. R-III MIDDLE", "lat": 39.560913, "lon": -94.45601, "proficiency": 0.345, "district": "CLINTON CO. R-III", "city": "PLATTSBURG", "ncessch": "292529000846"}, {"name": "PLEASANT HILL MIDDLE", "lat": 38.788892, "lon": -94.259313, "proficiency": 0.32, "district": "PLEASANT HILL R-III", "city": "PLEASANT HILL", "ncessch": "292533001459"}, {"name": "PLEASANT HOPE MIDDLE", "lat": 37.460346, "lon": -93.28028, "proficiency": 0.12, "district": "PLEASANT HOPE R-VI", "city": "PLEASANT HOPE", "ncessch": "292535002436"}, {"name": "POLO MIDDLE", "lat": 39.54991, "lon": -94.043374, "proficiency": 0.495, "district": "POLO R-VII", "city": "POLO", "ncessch": "292541000227"}, {"name": "POPLAR BLUFF JR. HIGH", "lat": 36.761587, "lon": -90.408603, "proficiency": 0.36, "district": "POPLAR BLUFF R-I", "city": "POPLAR BLUFF", "ncessch": "292545001469"}, {"name": "JOHN A. EVANS MIDDLE", "lat": 37.936753, "lon": -90.794298, "proficiency": 0.42, "district": "POTOSI R-III", "city": "POTOSI", "ncessch": "292550001495"}, {"name": "PRAIRIE HOME HIGH", "lat": 38.815641, "lon": -92.594423, "proficiency": 0.245, "district": "PRAIRIE HOME R-V", "city": "PRAIRIE HOME", "ncessch": "292553001500"}, {"name": "PRINCETON R-V JR.-SR. HIGH", "lat": 40.394013, "lon": -93.582899, "proficiency": 0.3, "district": "PRINCETON R-V", "city": "PRINCETON", "ncessch": "292559002300"}, {"name": "PURDY HIGH", "lat": 36.814765, "lon": -93.919413, "proficiency": 0.05, "district": "PURDY R-II", "city": "PURDY", "ncessch": "292562001502"}, {"name": "PUTNAM CO. MIDDLE", "lat": 40.470487, "lon": -93.005974, "proficiency": 0.545, "district": "PUTNAM CO. R-I", "city": "UNIONVILLE", "ncessch": "292564001847"}, {"name": "PUXICO JR. HIGH", "lat": 36.952763, "lon": -90.155074, "proficiency": 0.345, "district": "PUXICO R-VIII", "city": "PUXICO", "ncessch": "292565002871"}, {"name": "MARK TWAIN JR. HIGH", "lat": 39.51575, "lon": -91.51257, "proficiency": 0.345, "district": "RALLS CO. R-II", "city": "CENTER", "ncessch": "292571001034"}, {"name": "RAYMONDVILLE ELEM.", "lat": 37.340224, "lon": -91.83705, "proficiency": 0.695, "district": "RAYMONDVILLE R-VII", "city": "RAYMONDVILLE", "ncessch": "292604001514"}, {"name": "RAYTOWN MIDDLE", "lat": 39.033883, "lon": -94.463657, "proficiency": 0.12, "district": "RAYTOWN C-2", "city": "KANSAS CITY", "ncessch": "292607001523"}, {"name": "SOUTH MIDDLE", "lat": 38.972833, "lon": -94.490189, "proficiency": 0.025, "district": "RAYTOWN C-2", "city": "RAYTOWN", "ncessch": "292607001524"}, {"name": "RAYTOWN CENTRAL MIDDLE", "lat": 39.015029, "lon": -94.456293, "proficiency": 0.12, "district": "RAYTOWN C-2", "city": "RAYTOWN", "ncessch": "292607003085"}, {"name": "REEDS SPRING MIDDLE", "lat": 36.723725, "lon": -93.385004, "proficiency": 0.32, "district": "REEDS SPRING R-IV", "city": "REEDS SPRING", "ncessch": "292616000786"}, {"name": "RENICK ELEM.", "lat": 39.343298, "lon": -92.41267, "proficiency": 0.245, "district": "RENICK R-V", "city": "RENICK", "ncessch": "292619001537"}, {"name": "REPUBLIC MIDDLE", "lat": 37.124109, "lon": -93.46832, "proficiency": 0.51, "district": "REPUBLIC R-III", "city": "REPUBLIC", "ncessch": "292622002302"}, {"name": "RICH HILL HIGH", "lat": 38.102812, "lon": -94.365705, "proficiency": 0.495, "district": "RICH HILL R-IV", "city": "RICH HILL", "ncessch": "292631001544"}, {"name": "RICHARDS ELEM.", "lat": 36.787529, "lon": -91.893237, "proficiency": 0.245, "district": "RICHARDS R-V", "city": "WEST PLAINS", "ncessch": "292637001546"}, {"name": "RICHLAND HIGH", "lat": 36.814904, "lon": -89.836071, "proficiency": 0.3, "district": "RICHLAND R-I", "city": "ESSEX", "ncessch": "292640001548"}, {"name": "RICHLAND HIGH", "lat": 37.860206, "lon": -92.387705, "proficiency": 0.445, "district": "RICHLAND R-IV", "city": "RICHLAND", "ncessch": "292643001551"}, {"name": "RICHMOND MIDDLE", "lat": 39.268031, "lon": -93.972886, "proficiency": 0.42, "district": "RICHMOND R-XVI", "city": "RICHMOND", "ncessch": "292648002444"}, {"name": "RIDGEWAY HIGH", "lat": 40.37576, "lon": -93.936654, "proficiency": 0.245, "district": "RIDGEWAY R-V", "city": "RIDGEWAY", "ncessch": "292649001559"}, {"name": "RIPLEY CO. ELEM.", "lat": 36.582284, "lon": -91.029987, "proficiency": 0.245, "district": "RIPLEY CO. R-III", "city": "GATEWOOD", "ncessch": "292655001560"}, {"name": "RIPLEY CO. ELEM.", "lat": 36.63058, "lon": -90.864575, "proficiency": 0.245, "district": "RIPLEY CO. R-IV", "city": "Doniphan", "ncessch": "292658001561"}, {"name": "RISCO HIGH", "lat": 36.553226, "lon": -89.824644, "proficiency": 0.1, "district": "RISCO R-II", "city": "RISCO", "ncessch": "292661001564"}, {"name": "HOECH MIDDLE", "lat": 38.718477, "lon": -90.386839, "proficiency": 0.17, "district": "RITENOUR", "city": "ST ANN", "ncessch": "292664001567"}, {"name": "RITENOUR MIDDLE", "lat": 38.703396, "lon": -90.3482, "proficiency": 0.17, "district": "RITENOUR", "city": "ST LOUIS", "ncessch": "292664001572"}, {"name": "R. G. CENTRAL MIDDLE", "lat": 38.745887, "lon": -90.237578, "proficiency": 0.025, "district": "RIVERVIEW GARDENS", "city": "ST LOUIS", "ncessch": "292667002539"}, {"name": "Westview Middle School", "lat": 38.741444, "lon": -90.262243, "proficiency": 0.075, "district": "RIVERVIEW GARDENS", "city": "Saint Louis", "ncessch": "292667002687"}, {"name": "ACKERMAN", "lat": 38.77848, "lon": -90.296109, "proficiency": 0.1, "district": "SPECL. SCH. DST. ST. LOUIS CO.", "city": "FLORISSANT", "ncessch": "292676001588"}, {"name": "LITZSINGER", "lat": 38.624448, "lon": -90.404788, "proficiency": 0.1, "district": "SPECL. SCH. DST. ST. LOUIS CO.", "city": "LADUE", "ncessch": "292676001599"}, {"name": "SOUTHVIEW", "lat": 38.543165, "lon": -90.381466, "proficiency": 0.245, "district": "SPECL. SCH. DST. ST. LOUIS CO.", "city": "CRESTWOOD", "ncessch": "292676001608"}, {"name": "EXTERNAL SITES", "lat": 38.631817, "lon": -90.440943, "proficiency": 0.1, "district": "SPECL. SCH. DST. ST. LOUIS CO.", "city": "TOWN AND COUNTRY", "ncessch": "292676002628"}, {"name": "ROCK PORT HIGH", "lat": 40.409818, "lon": -95.517747, "proficiency": 0.495, "district": "ROCK PORT R-II", "city": "ROCK PORT", "ncessch": "292679001613"}, {"name": "CRESTVIEW MIDDLE", "lat": 38.60594, "lon": -90.592113, "proficiency": 0.56, "district": "ROCKWOOD R-VI", "city": "ELLISVILLE", "ncessch": "292685000670"}, {"name": "LASALLE SPRINGS MIDDLE", "lat": 38.551833, "lon": -90.638761, "proficiency": 0.42, "district": "ROCKWOOD R-VI", "city": "WILDWOOD", "ncessch": "292685000671"}, {"name": "ROCKWOOD SOUTH MIDDLE", "lat": 38.511401, "lon": -90.496945, "proficiency": 0.37, "district": "ROCKWOOD R-VI", "city": "FENTON", "ncessch": "292685000706"}, {"name": "SELVIDGE MIDDLE", "lat": 38.586934, "lon": -90.559502, "proficiency": 0.52, "district": "ROCKWOOD R-VI", "city": "BALLWIN", "ncessch": "292685000712"}, {"name": "ROCKWOOD VALLEY MIDDLE", "lat": 38.612003, "lon": -90.662984, "proficiency": 0.57, "district": "ROCKWOOD R-VI", "city": "WILDWOOD", "ncessch": "292685002688"}, {"name": "WILDWOOD MIDDLE", "lat": 38.58286, "lon": -90.661328, "proficiency": 0.57, "district": "ROCKWOOD R-VI", "city": "WILDWOOD", "ncessch": "292685002785"}, {"name": "ROLLA JR. HIGH", "lat": 37.943667, "lon": -91.74928, "proficiency": 0.37, "district": "ROLLA 31", "city": "ROLLA", "ncessch": "292689001633"}, {"name": "Roscoe Elementary", "lat": 37.976997, "lon": -93.814528, "proficiency": 0.245, "district": "ROSCOE C-1", "city": "Osceola", "ncessch": "292694001637"}, {"name": "COLE CO. R-I MIDDLE", "lat": 38.507602, "lon": -92.439412, "proficiency": 0.47, "district": "COLE CO. R-I", "city": "RUSSELLVILLE", "ncessch": "292697000847"}, {"name": "BODE MIDDLE", "lat": 39.773798, "lon": -94.826324, "proficiency": 0.27, "district": "ST. JOSEPH", "city": "ST JOSEPH", "ncessch": "292706001646"}, {"name": "ROBIDOUX MIDDLE", "lat": 39.804349, "lon": -94.8431, "proficiency": 0.22, "district": "ST. JOSEPH", "city": "ST JOSEPH", "ncessch": "292706001670"}, {"name": "SPRING GARDEN MIDDLE", "lat": 39.714961, "lon": -94.834586, "proficiency": 0.17, "district": "ST. JOSEPH", "city": "ST JOSEPH", "ncessch": "292706001673"}, {"name": "TRUMAN MIDDLE", "lat": 39.759328, "lon": -94.814299, "proficiency": 0.17, "district": "ST. JOSEPH", "city": "ST JOSEPH", "ncessch": "292706001674"}, {"name": "SALEM MIDDLE SCHOOL", "lat": 37.643952, "lon": -91.551749, "proficiency": 0.22, "district": "SALEM R-80", "city": "SALEM", "ncessch": "292709001677"}, {"name": "HARDEMAN ELEM.", "lat": 39.09016, "lon": -93.01098, "proficiency": 0.245, "district": "HARDEMAN R-X", "city": "MARSHALL", "ncessch": "292733001680"}, {"name": "OREARVILLE ELEM.", "lat": 39.171198, "lon": -93.069021, "proficiency": 0.245, "district": "OREARVILLE R-IV", "city": "SLATER", "ncessch": "292745001682"}, {"name": "SALISBURY HIGH", "lat": 39.414839, "lon": -92.805241, "proficiency": 0.3, "district": "SALISBURY R-IV", "city": "SALISBURY", "ncessch": "292752001685"}, {"name": "SARCOXIE HIGH", "lat": 37.068325, "lon": -94.131711, "proficiency": 0.445, "district": "SARCOXIE R-II", "city": "SARCOXIE", "ncessch": "292754001686"}, {"name": "SAVANNAH MIDDLE", "lat": 39.931547, "lon": -94.849838, "proficiency": 0.47, "district": "SAVANNAH R-III", "city": "SAVANNAH", "ncessch": "292757001691"}, {"name": "NORTHEAST VERNON CO. R-I HIGH", "lat": 37.896965, "lon": -94.228928, "proficiency": 0.1, "district": "NORTHEAST VERNON CO. R-I", "city": "WALKER", "ncessch": "292760001695"}, {"name": "OSAGE MIDDLE", "lat": 38.144527, "lon": -92.594067, "proficiency": 0.32, "district": "SCHOOL OF THE OSAGE", "city": "OSAGE BEACH", "ncessch": "292763001020"}, {"name": "SCHUYLER CO. HIGH", "lat": 40.422217, "lon": -92.565269, "proficiency": 0.245, "district": "SCHUYLER CO. R-I", "city": "QUEEN CITY", "ncessch": "292766001702"}, {"name": "SMITH COTTON JUNIOR HIGH SCHL", "lat": 38.703098, "lon": -93.225581, "proficiency": 0.55, "district": "SEDALIA 200", "city": "SEDALIA", "ncessch": "292783003143"}, {"name": "SENATH-HORNERSVILLE MIDDLE SCH", "lat": 36.041891, "lon": -90.117249, "proficiency": 0.22, "district": "SENATH-HORNERSVILLE C-8", "city": "HORNERSVILLE", "ncessch": "292787001714"}, {"name": "SENECA JUNIOR HIGH", "lat": 36.840033, "lon": -94.609613, "proficiency": 0.37, "district": "SENECA R-VII", "city": "SENECA", "ncessch": "292790002446"}, {"name": "SEYMOUR MIDDLE", "lat": 37.150036, "lon": -92.762559, "proficiency": 0.15, "district": "SEYMOUR R-II", "city": "SEYMOUR", "ncessch": "292793001580"}, {"name": "SHAWNEE ELEM.", "lat": 38.531342, "lon": -93.762309, "proficiency": 0.245, "district": "SHAWNEE R-III", "city": "CHILHOWEE", "ncessch": "292808001723"}, {"name": "SOUTH SHELBY MIDDLE SCHOOL", "lat": 39.709783, "lon": -92.102947, "proficiency": 0.37, "district": "SHELBY CO. R-IV", "city": "SHELBINA", "ncessch": "292811003130"}, {"name": "NORTH SHELBY HIGH", "lat": 39.83933, "lon": -92.033447, "proficiency": 0.695, "district": "NORTH SHELBY", "city": "SHELBYVILLE", "ncessch": "292814001731"}, {"name": "SHELDON HIGH", "lat": 37.662081, "lon": -94.28991, "proficiency": 0.75, "district": "SHELDON R-VIII", "city": "SHELDON", "ncessch": "292817001734"}, {"name": "SHELL KNOB ELEM.", "lat": 36.63087, "lon": -93.628001, "proficiency": 0.245, "district": "SHELL KNOB 78", "city": "SHELL KNOB", "ncessch": "292820001735"}, {"name": "SIKESTON JUNIOR HIGH SCHOOL", "lat": 36.892777, "lon": -89.605164, "proficiency": 0.37, "district": "SIKESTON R-6", "city": "SIKESTON", "ncessch": "292826001737"}, {"name": "SILEX HIGH", "lat": 39.126742, "lon": -91.060633, "proficiency": 0.495, "district": "SILEX R-I", "city": "SILEX", "ncessch": "292829001748"}, {"name": "ALEXANDER ELEM.", "lat": 39.223715, "lon": -93.065179, "proficiency": 0.245, "district": "SLATER", "city": "SLATER", "ncessch": "292836001749"}, {"name": "SMITHTON HIGH", "lat": 38.679279, "lon": -93.092467, "proficiency": 0.245, "district": "SMITHTON R-VI", "city": "SMITHTON", "ncessch": "292838001752"}, {"name": "SMITHVILLE MIDDLE", "lat": 39.373027, "lon": -94.57397, "proficiency": 0.47, "district": "SMITHVILLE R-II", "city": "SMITHVILLE", "ncessch": "292841000070"}, {"name": "SOUTH CALLAWAY MIDDLE", "lat": 38.689056, "lon": -91.89392, "proficiency": 0.22, "district": "SOUTH CALLAWAY CO. R-II", "city": "MOKANE", "ncessch": "292843002401"}, {"name": "SOUTH IRON HIGH", "lat": 37.362906, "lon": -90.699538, "proficiency": 0.3, "district": "SOUTH IRON CO. R-I", "city": "ANNAPOLIS", "ncessch": "292847001759"}, {"name": "SOUTH NODAWAY HIGH", "lat": 40.177605, "lon": -94.821733, "proficiency": 0.75, "district": "SOUTH NODAWAY CO. R-IV", "city": "BARNARD", "ncessch": "292850001761"}, {"name": "SOUTH PEMISCOT HIGH", "lat": 36.079357, "lon": -89.823747, "proficiency": 0.05, "district": "SOUTH PEMISCOT CO. R-V", "city": "STEELE", "ncessch": "292853001764"}, {"name": "SOUTHERN BOONE MIDDLE", "lat": 38.776921, "lon": -92.262647, "proficiency": 0.27, "district": "SOUTHERN BOONE CO. R-I", "city": "ASHLAND", "ncessch": "292856001596"}, {"name": "ELLINGTON HIGH SCHOOL", "lat": 37.239262, "lon": -90.963151, "proficiency": 0.445, "district": "SOUTHERN REYNOLDS CO. R-II", "city": "ELLINGTON", "ncessch": "292859001768"}, {"name": "SOUTHLAND HIGH", "lat": 36.043211, "lon": -90.292586, "proficiency": 0.1, "district": "SOUTHLAND C-9", "city": "CARDWELL", "ncessch": "292862001770"}, {"name": "SOUTHWEST LIVINGSTON CO R-1 HS", "lat": 39.670819, "lon": -93.685514, "proficiency": 0.3, "district": "SOUTHWEST LIVINGSTON CO. R-I", "city": "LUDLOW", "ncessch": "292868001772"}, {"name": "SOUTHWEST MIDDLE", "lat": 36.588035, "lon": -93.957585, "proficiency": 0.15, "district": "SOUTHWEST R-V", "city": "WASHBURN", "ncessch": "292871002801"}, {"name": "SPARTA MIDDLE", "lat": 37.005812, "lon": -93.083753, "proficiency": 0.52, "district": "SPARTA R-III", "city": "SPARTA", "ncessch": "292874001430"}, {"name": "SPOKANE MIDDLE", "lat": 36.862567, "lon": -93.296644, "proficiency": 0.345, "district": "SPOKANE R-VII", "city": "SPOKANE", "ncessch": "292880000008"}, {"name": "CARVER MIDDLE", "lat": 37.163365, "lon": -93.346801, "proficiency": 0.32, "district": "SPRINGFIELD R-XII", "city": "SPRINGFIELD", "ncessch": "292886000901"}, {"name": "CENTRAL HIGH", "lat": 37.218109, "lon": -93.28848, "proficiency": 0.95, "district": "SPRINGFIELD R-XII", "city": "SPRINGFIELD", "ncessch": "292886001786"}, {"name": "CHEROKEE MIDDLE", "lat": 37.117515, "lon": -93.290769, "proficiency": 0.5, "district": "SPRINGFIELD R-XII", "city": "SPRINGFIELD", "ncessch": "292886001788"}, {"name": "HICKORY HILLS MIDDLE", "lat": 37.222209, "lon": -93.196227, "proficiency": 0.32, "district": "SPRINGFIELD R-XII", "city": "SPRINGFIELD", "ncessch": "292886001798"}, {"name": "JARRETT MIDDLE", "lat": 37.199003, "lon": -93.289636, "proficiency": 0.17, "district": "SPRINGFIELD R-XII", "city": "SPRINGFIELD", "ncessch": "292886001803"}, {"name": "PERSHING MIDDLE", "lat": 37.174832, "lon": -93.242816, "proficiency": 0.37, "district": "SPRINGFIELD R-XII", "city": "SPRINGFIELD", "ncessch": "292886001811"}, {"name": "PIPKIN MIDDLE", "lat": 37.221644, "lon": -93.292721, "proficiency": 0.27, "district": "SPRINGFIELD R-XII", "city": "SPRINGFIELD", "ncessch": "292886001813"}, {"name": "REED MIDDLE", "lat": 37.233902, "lon": -93.294353, "proficiency": 0.42, "district": "SPRINGFIELD R-XII", "city": "SPRINGFIELD", "ncessch": "292886001818"}, {"name": "WESTPORT MIDDLE SCHOOL", "lat": 37.207479, "lon": -93.340387, "proficiency": 0.12, "district": "SPRINGFIELD R-XII", "city": "SPRINGFIELD", "ncessch": "292886001827"}, {"name": "PLEASANT VIEW MIDDLE", "lat": 37.295994, "lon": -93.250051, "proficiency": 0.17, "district": "SPRINGFIELD R-XII", "city": "SPRINGFIELD", "ncessch": "292886002680"}, {"name": "HARDIN MIDDLE", "lat": 38.792179, "lon": -90.495844, "proficiency": 0.53, "district": "ST. CHARLES R-VI", "city": "ST CHARLES", "ncessch": "292892001850"}, {"name": "FRANCIS HOWELL MIDDLE", "lat": 38.719828, "lon": -90.676797, "proficiency": 0.62, "district": "FRANCIS HOWELL R-III", "city": "ST CHARLES", "ncessch": "292895000220"}, {"name": "HOLLENBECK MIDDLE", "lat": 38.743812, "lon": -90.613808, "proficiency": 0.52, "district": "FRANCIS HOWELL R-III", "city": "ST CHARLES", "ncessch": "292895001855"}, {"name": "SAEGER MIDDLE", "lat": 38.746322, "lon": -90.6473, "proficiency": 0.62, "district": "FRANCIS HOWELL R-III", "city": "ST CHARLES", "ncessch": "292895001884"}, {"name": "BARNWELL MIDDLE", "lat": 38.742109, "lon": -90.564014, "proficiency": 0.52, "district": "FRANCIS HOWELL R-III", "city": "ST CHARLES", "ncessch": "292895002307"}, {"name": "BRYAN MIDDLE", "lat": 38.710605, "lon": -90.665771, "proficiency": 0.47, "district": "FRANCIS HOWELL R-III", "city": "ST CHARLES", "ncessch": "292895002698"}, {"name": "ST. CLAIR JR. HIGH", "lat": 38.336278, "lon": -90.97799, "proficiency": 0.52, "district": "ST. CLAIR R-XIII", "city": "ST CLAIR", "ncessch": "292910001863"}, {"name": "ST. ELIZABETH HIGH", "lat": 38.25517, "lon": -92.267203, "proficiency": 0.9, "district": "ST. ELIZABETH R-IV", "city": "ST ELIZABETH", "ncessch": "292913001867"}, {"name": "CENTRAL MIDDLE", "lat": 37.847225, "lon": -90.495741, "proficiency": 0.32, "district": "CENTRAL R-III", "city": "PARK HILLS", "ncessch": "292917002449"}, {"name": "ST. JAMES MIDDLE", "lat": 38.005721, "lon": -91.626582, "proficiency": 0.32, "district": "ST. JAMES R-I", "city": "ST JAMES", "ncessch": "292925002840"}, {"name": "CARR LANE VPA MIDDLE", "lat": 38.639418, "lon": -90.212163, "proficiency": 0.075, "district": "ST. LOUIS CITY", "city": "ST LOUIS", "ncessch": "292928000792"}, {"name": "GATEWAY MIDDLE", "lat": 38.640707, "lon": -90.210752, "proficiency": 0.025, "district": "ST. LOUIS CITY", "city": "ST LOUIS", "ncessch": "292928001585"}, {"name": "COLE ELEM.", "lat": 38.645119, "lon": -90.238218, "proficiency": 0.1, "district": "ST. LOUIS CITY", "city": "ST LOUIS", "ncessch": "292928001906"}, {"name": "COMPTON-DREW ILC MIDDLE", "lat": 38.629087, "lon": -90.272078, "proficiency": 0.025, "district": "ST. LOUIS CITY", "city": "ST LOUIS", "ncessch": "292928001927"}, {"name": "LACLEDE ELEM.", "lat": 38.677382, "lon": -90.276805, "proficiency": 0.245, "district": "ST. LOUIS CITY", "city": "ST LOUIS", "ncessch": "292928001955"}, {"name": "LONG MIDDLE COMMUNITY ED. CTR.", "lat": 38.580162, "lon": -90.267151, "proficiency": 0.025, "district": "ST. LOUIS CITY", "city": "ST LOUIS", "ncessch": "292928001960"}, {"name": "LYON AT BLOW ELEM.", "lat": 38.554909, "lon": -90.256861, "proficiency": 0.05, "district": "ST. LOUIS CITY", "city": "ST LOUIS", "ncessch": "292928002403"}, {"name": "BUSCH MS CHARACTER  ATHLETICS", "lat": 38.577919, "lon": -90.297303, "proficiency": 0.075, "district": "ST. LOUIS CITY", "city": "ST LOUIS", "ncessch": "292928002569"}, {"name": "YEATMAN-LIDDELL MIDDLE SCHOOL", "lat": 38.675624, "lon": -90.228269, "proficiency": 0.025, "district": "ST. LOUIS CITY", "city": "ST LOUIS", "ncessch": "292928002878"}, {"name": "MCKINLEY CLASS. LEADERSHIP AC.", "lat": 38.609895, "lon": -90.219445, "proficiency": 0.57, "district": "ST. LOUIS CITY", "city": "ST LOUIS", "ncessch": "292928002990"}, {"name": "ACAD OF ENTRE STDY@LOUVERTURE", "lat": 38.622845, "lon": -90.227767, "proficiency": 0.025, "district": "ST. LOUIS CITY", "city": "ST. LOUIS", "ncessch": "292928003215"}, {"name": "NAHED CHAPMAN NEW AMERICAN ACA", "lat": 38.619706, "lon": -90.238321, "proficiency": 0.1, "district": "ST. LOUIS CITY", "city": "ST. LOUIS", "ncessch": "292928003276"}, {"name": "STANBERRY HIGH", "lat": 40.219444, "lon": -94.540882, "proficiency": 0.9, "district": "STANBERRY R-II", "city": "STANBERRY", "ncessch": "292934002030"}, {"name": "STE. GENEVIEVE MIDDLE", "lat": 37.982121, "lon": -90.050781, "proficiency": 0.47, "district": "STE. GENEVIEVE CO. R-II", "city": "STE GENEVIEVE", "ncessch": "292937002032"}, {"name": "STEELVILLE MIDDLE", "lat": 37.96775, "lon": -91.364065, "proficiency": 0.32, "district": "STEELVILLE R-III", "city": "STEELVILLE", "ncessch": "292943002482"}, {"name": "STEWARTSVILLE HIGH", "lat": 39.75261, "lon": -94.502686, "proficiency": 0.245, "district": "STEWARTSVILLE C-2", "city": "STEWARTSVILLE", "ncessch": "292949002042"}, {"name": "STOCKTON MIDDLE", "lat": 37.690947, "lon": -93.794991, "proficiency": 0.47, "district": "STOCKTON R-I", "city": "STOCKTON", "ncessch": "292952000089"}, {"name": "STOUTLAND HIGH", "lat": 37.81671, "lon": -92.515523, "proficiency": 0.1, "district": "STOUTLAND R-II", "city": "STOUTLAND", "ncessch": "292958002046"}, {"name": "MORGAN CO. R-I HIGH", "lat": 38.447556, "lon": -92.992453, "proficiency": 0.545, "district": "MORGAN CO. R-I", "city": "STOVER", "ncessch": "292961002048"}, {"name": "STRAFFORD MIDDLE", "lat": 37.271764, "lon": -93.120071, "proficiency": 0.52, "district": "STRAFFORD R-VI", "city": "STRAFFORD", "ncessch": "292964001479"}, {"name": "STRASBURG ELEM.", "lat": 38.762966, "lon": -94.16722, "proficiency": 0.245, "district": "STRASBURG C-3", "city": "STRASBURG", "ncessch": "292967002051"}, {"name": "STURGEON MIDDLE", "lat": 39.233234, "lon": -92.283054, "proficiency": 0.15, "district": "STURGEON R-V", "city": "STURGEON", "ncessch": "292970001392"}, {"name": "SUCCESS ELEM.", "lat": 37.42648, "lon": -92.084966, "proficiency": 0.75, "district": "SUCCESS R-VI", "city": "SUCCESS", "ncessch": "292973002054"}, {"name": "SULLIVAN MIDDLE", "lat": 38.2104, "lon": -91.188143, "proficiency": 0.42, "district": "SULLIVAN", "city": "SULLIVAN", "ncessch": "292976002056"}, {"name": "SUMMERSVILLE HIGH", "lat": 37.182447, "lon": -91.658743, "proficiency": 0.445, "district": "SUMMERSVILLE R-II", "city": "SUMMERSVILLE", "ncessch": "292981002059"}, {"name": "SUNRISE ELEM.", "lat": 38.045745, "lon": -90.549242, "proficiency": 0.645, "district": "SUNRISE R-IX", "city": "DESOTO", "ncessch": "292982002060"}, {"name": "SWEET SPRINGS HIGH", "lat": 38.963757, "lon": -93.404096, "proficiency": 0.1, "district": "SWEET SPRINGS R-VII", "city": "SWEET SPRINGS", "ncessch": "292988002064"}, {"name": "TANEYVILLE ELEM.", "lat": 36.737628, "lon": -93.035307, "proficiency": 0.245, "district": "TANEYVILLE R-II", "city": "TANEYVILLE", "ncessch": "292991002065"}, {"name": "TARKIO HIGH", "lat": 40.437973, "lon": -95.389777, "proficiency": 0.495, "district": "TARKIO R-I", "city": "TARKIO", "ncessch": "292994002067"}, {"name": "THAYER SR. HIGH", "lat": 36.524468, "lon": -91.52977, "proficiency": 0.645, "district": "THAYER R-II", "city": "THAYER", "ncessch": "293027002069"}, {"name": "TINA-AVALON HIGH", "lat": 39.587246, "lon": -93.476419, "proficiency": 0.245, "district": "TINA-AVALON R-II", "city": "TINA", "ncessch": "293030002071"}, {"name": "TIPTON MIDDLE SCHOOL", "lat": 38.652199, "lon": -92.778892, "proficiency": 0.15, "district": "TIPTON R-VI", "city": "TIPTON", "ncessch": "293033003383"}, {"name": "TRENTON MIDDLE", "lat": 40.08068, "lon": -93.601837, "proficiency": 0.17, "district": "TRENTON R-IX", "city": "TRENTON", "ncessch": "293036002573"}, {"name": "TRI-COUNTY HIGH", "lat": 39.974575, "lon": -93.809292, "proficiency": 0.3, "district": "TRI-COUNTY R-VII", "city": "JAMESPORT", "ncessch": "293039002082"}, {"name": "GRANBY", "lat": 36.917475, "lon": -94.251595, "proficiency": 0.245, "district": "EAST NEWTON CO. R-VI", "city": "GRANBY", "ncessch": "293042002083"}, {"name": "TRIWAY", "lat": 36.765388, "lon": -94.19484, "proficiency": 0.445, "district": "EAST NEWTON CO. R-VI", "city": "STELLA", "ncessch": "293042002085"}, {"name": "TROY MIDDLE", "lat": 38.97947, "lon": -90.98702, "proficiency": 0.37, "district": "TROY R-III", "city": "TROY", "ncessch": "293045002088"}, {"name": "TROY SOUTH MIDDLE SCHOOL", "lat": 38.935424, "lon": -90.949059, "proficiency": 0.42, "district": "TROY R-III", "city": "MOSCOW MILLS", "ncessch": "293045003293"}, {"name": "MILLER CO. ELEM.", "lat": 38.236868, "lon": -92.459881, "proficiency": 0.245, "district": "MILLER CO. R-III", "city": "TUSCUMBIA", "ncessch": "293051002091"}, {"name": "FISK ELEMENTARY", "lat": 36.782274, "lon": -90.210611, "proficiency": 0.245, "district": "TWIN RIVERS R-X", "city": "FISK", "ncessch": "293052002093"}, {"name": "QULIN MIDDLE", "lat": 36.593026, "lon": -90.248489, "proficiency": 0.3, "district": "TWIN RIVERS R-X", "city": "QULIN", "ncessch": "293052003337"}, {"name": "UNION MIDDLE", "lat": 38.448286, "lon": -91.014301, "proficiency": 0.37, "district": "UNION R-XI", "city": "UNION", "ncessch": "293057002575"},