{"state": "MS", "stateName": "Mississippi", "year": 2020, "naep": {"text": "3 out of 4", "numerator": 3, "denominator": 4}, "schools": [{"name": "WEST BOLIVAR HIGH SCHOOL", "lat": 33.856767, "lon": -91.026453, "proficiency": 0.05, "district": "WEST BOLIVAR CONS SCHOOL DIST", "city": "ROSEDALE", "ncessch": "280018501526"}, {"name": "MCEVANS SCHOOL", "lat": 33.610554, "lon": -90.766438, "proficiency": 0.05, "district": "WEST BOLIVAR CONS SCHOOL DIST", "city": "SHAW", "ncessch": "280018501527"}, {"name": "NORTHSIDE HIGH SCHOOL", "lat": 33.945801, "lon": -90.762209, "proficiency": 0.05, "district": "NORTH BOLIVAR CONS SCHOOL DIST", "city": "SHELBY", "ncessch": "280018601411"}, {"name": "RULEVILLE MIDDLE SCHOOL", "lat": 33.723594, "lon": -90.548374, "proficiency": 0.075, "district": "SUNFLOWER CTY CONS SCHOOL DISTRICT", "city": "RULEVILLE", "ncessch": "280018701398"}, {"name": "DREW HUNTER MIDDLE SCHOOL", "lat": 33.806443, "lon": -90.522674, "proficiency": 0.05, "district": "SUNFLOWER CTY CONS SCHOOL DISTRICT", "city": "DREW", "ncessch": "280018701403"}, {"name": "ROBERT L MERRITT JUNIOR HIGH SCHOOL", "lat": 33.441793, "lon": -90.654166, "proficiency": 0.17, "district": "SUNFLOWER CTY CONS SCHOOL DISTRICT", "city": "Indianola", "ncessch": "280018701421"}, {"name": "INVERNESS SCHOOL", "lat": 33.348864, "lon": -90.594465, "proficiency": 0.3, "district": "SUNFLOWER CTY CONS SCHOOL DISTRICT", "city": "INVERNESS", "ncessch": "280018701430"}, {"name": "MOORHEAD CENTRAL SCHOOL", "lat": 33.451744, "lon": -90.512323, "proficiency": 0.1, "district": "SUNFLOWER CTY CONS SCHOOL DISTRICT", "city": "Moorhead", "ncessch": "280018701498"}, {"name": "REIMAGINE PREP", "lat": 32.267283, "lon": -90.222074, "proficiency": 0.17, "district": "REIMAGINE PREP", "city": "JACKSON", "ncessch": "280018801442"}, {"name": "ARMSTRONG JUNIOR HIGH SCHOOL", "lat": 33.46046, "lon": -88.824262, "proficiency": 0.28, "district": "STARKVILLE- OKTIBBEHA CONS DIST", "city": "Starkville", "ncessch": "280018901453"}, {"name": "SOCSD/MSU PARTNERSHIP MIDDLE SCHOOL", "lat": 33.465436, "lon": -88.787407, "proficiency": -0.03, "district": "STARKVILLE- OKTIBBEHA CONS DIST", "city": "Starkville", "ncessch": "280018901532"}, {"name": "MIDTOWN PUBLIC CHARTER SCHOOL", "lat": 32.361112, "lon": -90.152142, "proficiency": 0.025, "district": "MIDTOWN PUBLIC CHARTER SCHOOL", "city": "JACKSON", "ncessch": "280019001448"}, {"name": "WEST POINT HIGH SCHOOL", "lat": 33.592965, "lon": -88.631696, "proficiency": 0.12, "district": "WEST POINT CONSOLIDATED SCHOOL DIST", "city": "WEST POINT", "ncessch": "280019101441"}, {"name": "JOEL E. SMILOW PREP", "lat": 32.355086, "lon": -90.160222, "proficiency": 0.025, "district": "JOEL E. SMILLOW PREP", "city": "JACKSON", "ncessch": "280019201471"}, {"name": "WILLIAMS-SULLIVAN MIDDLE SCHOOL", "lat": 33.065148, "lon": -89.862003, "proficiency": 0.075, "district": "HOLMES COUNTY CONSOLIDATED SD", "city": "Durant", "ncessch": "280019501491"}, {"name": "S V MARSHALL MIDDLE SCHOOL", "lat": 33.16693, "lon": -90.18375, "proficiency": 0.025, "district": "HOLMES COUNTY CONSOLIDATED SD", "city": "Lexington", "ncessch": "280019501528"}, {"name": "WINONA SECONDARY SCHOOL", "lat": 33.487508, "lon": -89.734729, "proficiency": 0.22, "district": "WINONA-MONTGOMERY CONSOLIDATED", "city": "Winona", "ncessch": "280019601485"}, {"name": "AMANDA ELZY JUNIOR HIGH SCHOOL", "lat": 33.500095, "lon": -90.167967, "proficiency": 0.025, "district": "GREENWOOD-LEFLORE CONS SCH DISTRICT", "city": "GREENWOOD", "ncessch": "280019801513"}, {"name": "LEFLORE COUNTY HIGH SCHOOL", "lat": 33.48872, "lon": -90.320809, "proficiency": 0.05, "district": "GREENWOOD-LEFLORE CONS SCH DISTRICT", "city": "ITTA BENA", "ncessch": "280019801518"}, {"name": "GREENWOOD MIDDLE SCHOOL", "lat": 33.513722, "lon": -90.195241, "proficiency": 0.025, "district": "GREENWOOD-LEFLORE CONS SCH DISTRICT", "city": "Greenwood", "ncessch": "280019801522"}, {"name": "BELLE SHIVERS MIDDLE SCHOOL", "lat": 33.829449, "lon": -88.550154, "proficiency": 0.17, "district": "ABERDEEN SCHOOL DIST", "city": "Aberdeen", "ncessch": "280036001467"}, {"name": "BIGGERSVILLE HIGH SCHOOL", "lat": 34.838425, "lon": -88.56003, "proficiency": 0.245, "district": "ALCORN SCHOOL DIST", "city": "CORINTH", "ncessch": "280039001152"}, {"name": "ALCORN CENTRAL MIDDLE SCHOOL", "lat": 34.902547, "lon": -88.432441, "proficiency": 0.47, "district": "ALCORN SCHOOL DIST", "city": "GLEN", "ncessch": "280039001188"}, {"name": "KOSSUTH MIDDLE SCHOOL", "lat": 34.875674, "lon": -88.6412, "proficiency": 0.52, "district": "ALCORN SCHOOL DIST", "city": "Corinth", "ncessch": "280039001566"}, {"name": "AMITE COUNTY HIGH SCHOOL", "lat": 31.154862, "lon": -90.799278, "proficiency": 0.12, "district": "AMITE COUNTY SCHOOL DISTRICT", "city": "LIBERTY", "ncessch": "280042000027"}, {"name": "EAST AMORY SCHOOL", "lat": 33.996426, "lon": -88.461114, "proficiency": -0.03, "district": "AMORY SCHOOL DIST", "city": "Amory", "ncessch": "280045000028"}, {"name": "AMORY MIDDLE SCHOOL", "lat": 33.989129, "lon": -88.48388, "proficiency": 0.37, "district": "AMORY SCHOOL DIST", "city": "Amory", "ncessch": "280045000030"}, {"name": "ETHEL ATTENDANCE CENTER", "lat": 33.122945, "lon": -89.467999, "proficiency": 0.15, "district": "ATTALA CO SCHOOL DIST", "city": "ETHEL", "ncessch": "280051000036"}, {"name": "MCADAMS ATTENDANCE CENTER", "lat": 33.023101, "lon": -89.689652, "proficiency": 0.1, "district": "ATTALA CO SCHOOL DIST", "city": "SALLIS", "ncessch": "280051000039"}, {"name": "BALDWYN MIDDLE SCHOOL", "lat": 34.51421, "lon": -88.633007, "proficiency": 0.12, "district": "BALDWYN SCHOOL DISTRICT", "city": "BALDWYN", "ncessch": "280054000043"}, {"name": "Bay Waveland Middle School", "lat": 30.322319, "lon": -89.348104, "proficiency": 0.52, "district": "BAY ST LOUIS WAVELAND SCHOOL DIST", "city": "Bay St. Louis", "ncessch": "280057001233"}, {"name": "ASHLAND MIDDLE-HIGH SCHOOL", "lat": 34.838305, "lon": -89.175958, "proficiency": 0.05, "district": "BENTON CO SCHOOL DIST", "city": "Ashland", "ncessch": "280060000049"}, {"name": "HICKORY FLAT ATTENDANCE CENTER", "lat": 34.613706, "lon": -89.191154, "proficiency": 0.645, "district": "BENTON CO SCHOOL DIST", "city": "Hickory Flat", "ncessch": "280060000050"}, {"name": "BILOXI JUNIOR HIGH", "lat": 30.43398, "lon": -88.949419, "proficiency": 0.61, "district": "BILOXI PUBLIC SCHOOL DIST", "city": "Biloxi", "ncessch": "280063001107"}, {"name": "CLEVELAND CENTRAL MIDDLE SCHOOL", "lat": 33.739092, "lon": -90.712506, "proficiency": 0.17, "district": "CLEVELAND SCHOOL DIST", "city": "CLEVELAND", "ncessch": "280075001475"}, {"name": "R.H. LONG BOONEVILLE MIDDLE SCHOOL", "lat": 34.669758, "lon": -88.567112, "proficiency": 0.37, "district": "BOONEVILLE SCHOOL DIST", "city": "Booneville", "ncessch": "280082001329"}, {"name": "ALEXANDER JUNIOR HIGH SCHOOL", "lat": 31.570562, "lon": -90.433016, "proficiency": 0.47, "district": "BROOKHAVEN SCHOOL DIST", "city": "BROOKHAVEN", "ncessch": "280084000090"}, {"name": "LIPSEY SCHOOL", "lat": 31.589151, "lon": -90.454804, "proficiency": -0.03, "district": "BROOKHAVEN SCHOOL DIST", "city": "BROOKHAVEN", "ncessch": "280084000094"}, {"name": "BRUCE HIGH SCHOOL", "lat": 33.993217, "lon": -89.337922, "proficiency": 0.42, "district": "CALHOUN CO SCHOOL DIST", "city": "BRUCE", "ncessch": "280087000097"}, {"name": "CALHOUN CITY HIGH SCHOOL", "lat": 33.856891, "lon": -89.31549, "proficiency": 0.17, "district": "CALHOUN CO SCHOOL DIST", "city": "CALHOUN CITY", "ncessch": "280087000098"}, {"name": "VARDAMAN HIGH SCHOOL", "lat": 33.877276, "lon": -89.170731, "proficiency": 0.345, "district": "CALHOUN CO SCHOOL DIST", "city": "VARDAMAN", "ncessch": "280087000099"}, {"name": "NICHOLS MIDDLE SCHOOL", "lat": 32.620942, "lon": -90.049278, "proficiency": 0.12, "district": "CANTON PUBLIC SCHOOL DIST", "city": "Canton", "ncessch": "280090000103"}, {"name": "HUEY L. PORTER MIDDLE SCHOOL", "lat": 32.625071, "lon": -89.995887, "proficiency": 0.12, "district": "CANTON PUBLIC SCHOOL DIST", "city": "Canton", "ncessch": "280090001394"}, {"name": "J Z GEORGE HIGH SCHOOL", "lat": 33.520556, "lon": -89.920705, "proficiency": 0.12, "district": "CARROLL COUNTY SCHOOL DIST", "city": "NORTH CARROLLTON", "ncessch": "280093000104"}, {"name": "CHOCTAW COUNTY HIGH SCHOOL", "lat": 33.310905, "lon": -89.164852, "proficiency": 0.27, "district": "CHOCTAW CO SCHOOL DIST", "city": "ACKERMAN", "ncessch": "280099000111"}, {"name": "PORT GIBSON MIDDLE SCHOOL", "lat": 31.952521, "lon": -90.988407, "proficiency": 0.075, "district": "CLAIBORNE CO SCHOOL DIST", "city": "PORT GIBSON", "ncessch": "280102000115"}, {"name": "W.A. HIGGINS MIDDLE SCHOOL ACADEMY", "lat": 34.194367, "lon": -90.554581, "proficiency": 0.075, "district": "CLARKSDALE MUNICIPAL SCHOOL DIST", "city": "CLARKSDALE", "ncessch": "280105000119"}, {"name": "CLINTON JR HI SCHOOL", "lat": 32.344183, "lon": -90.312669, "proficiency": 0.65, "district": "CLINTON PUBLIC SCHOOL DIST", "city": "Clinton", "ncessch": "280109000132"}, {"name": "COAHOMA COUNTY JR/SR HIGH SCHOOL", "lat": 34.208225, "lon": -90.607909, "proficiency": 0.075, "district": "COAHOMA COUNTY SCHOOL DISTRICT", "city": "CLARKSDALE", "ncessch": "280111000139"}, {"name": "COFFEEVILLE HIGH SCHOOL", "lat": 33.976979, "lon": -89.674961, "proficiency": 0.05, "district": "COFFEEVILLE SCHOOL DIST", "city": "COFFEEVILLE", "ncessch": "280114000146"}, {"name": "JEFFERSON MIDDLE SCHOOL", "lat": 31.261613, "lon": -89.827282, "proficiency": 0.22, "district": "COLUMBIA SCHOOL DISTRICT", "city": "Columbia", "ncessch": "280117000151"}, {"name": "MS SCHOOL FOR THE BLIND", "lat": 32.341025, "lon": -90.156566, "proficiency": -0.03, "district": "MS SCHLS FOR THE DEAF AND THE BLIND", "city": "JACKSON", "ncessch": "280118901194"}, {"name": "MS SCHOOL FOR THE DEAF", "lat": 32.341025, "lon": -90.156566, "proficiency": 0.245, "district": "MS SCHLS FOR THE DEAF AND THE BLIND", "city": "Jackson", "ncessch": "280118901504"}, {"name": "WILLIAMS SCHOOL", "lat": 32.220456, "lon": -90.506132, "proficiency": 0.245, "district": "MDHS DIVISION OF YOUTH SERVICES", "city": "RAYMOND", "ncessch": "280119101197"}, {"name": "COLUMBUS MIDDLE SCHOOL", "lat": 33.564366, "lon": -88.437138, "proficiency": 0.075, "district": "COLUMBUS MUNICIPAL SCHOOL DIST", "city": "Columbus", "ncessch": "280120001380"}, {"name": "CRYSTAL SPRINGS MIDDLE SCHOOL", "lat": 31.968136, "lon": -90.365344, "proficiency": 0.12, "district": "COPIAH CO SCHOOL DIST", "city": "CRYSTAL SPRINGS", "ncessch": "280122000167"}, {"name": "WESSON ATTENDANCE CENTER", "lat": 31.699279, "lon": -90.39249, "proficiency": 0.37, "district": "COPIAH CO SCHOOL DIST", "city": "Wesson", "ncessch": "280122000169"}, {"name": "CORINTH MIDDLE SCHOOL", "lat": 34.94293, "lon": -88.512206, "proficiency": 0.37, "district": "CORINTH SCHOOL DIST", "city": "CORINTH", "ncessch": "280126000006"}, {"name": "CARVER MIDDLE SCHOOL", "lat": 31.646208, "lon": -89.564948, "proficiency": 0.12, "district": "COVINGTON COUNTY SCHOOL DISTRICT", "city": "COLLINS", "ncessch": "280129000178"}, {"name": "MOUNT OLIVE ATTENDANCE CENTER", "lat": 31.759898, "lon": -89.657947, "proficiency": 0.1, "district": "COVINGTON COUNTY SCHOOL DISTRICT", "city": "Mount Olive", "ncessch": "280129000181"}, {"name": "SEMINARY MIDDLE SCHOOL", "lat": 31.560682, "lon": -89.49931, "proficiency": 0.22, "district": "COVINGTON COUNTY SCHOOL DISTRICT", "city": "Seminary", "ncessch": "280129001337"}, {"name": "HERNANDO MIDDLE SCHOOL", "lat": 34.832703, "lon": -89.977633, "proficiency": 0.76, "district": "DESOTO CO SCHOOL DIST", "city": "HERNANDO", "ncessch": "280132000140"}, {"name": "HORN LAKE MIDDLE SCHOOL", "lat": 34.948919, "lon": -90.035423, "proficiency": 0.38, "district": "DESOTO CO SCHOOL DIST", "city": "HORN LAKE", "ncessch": "280132000191"}, {"name": "OLIVE BRANCH MIDDLE", "lat": 34.955894, "lon": -89.824174, "proficiency": 0.42, "district": "DESOTO CO SCHOOL DIST", "city": "OLIVE BRANCH", "ncessch": "280132000194"}, {"name": "SOUTHAVEN MIDDLE SCHOOL", "lat": 34.976655, "lon": -90.005479, "proficiency": 0.29, "district": "DESOTO CO SCHOOL DIST", "city": "SOUTHAVEN", "ncessch": "280132000933"}, {"name": "DESOTO CENTRAL MIDDLE SCHOOL", "lat": 34.9401, "lon": -89.944731, "proficiency": 0.57, "district": "DESOTO CO SCHOOL DIST", "city": "SOUTHAVEN", "ncessch": "280132000979"}, {"name": "LAKE CORMORANT MIDDLE", "lat": 34.908227, "lon": -90.169029, "proficiency": 0.42, "district": "DESOTO CO SCHOOL DIST", "city": "LAKE CORMORANT", "ncessch": "280132001282"}, {"name": "LEWISBURG MIDDLE", "lat": 34.823065, "lon": -89.824008, "proficiency": 0.82, "district": "DESOTO CO SCHOOL DIST", "city": "Hernando", "ncessch": "280132001343"}, {"name": "CENTER HILL MIDDLE", "lat": 34.990498, "lon": -89.757763, "proficiency": 0.62, "district": "DESOTO CO SCHOOL DIST", "city": "Olive Branch", "ncessch": "280132001358"}, {"name": "HEIDELBERG JUNIOR HIGH SCHOOL", "lat": 31.895528, "lon": -88.990988, "proficiency": 0.32, "district": "EAST JASPER CONSOLIDATED SCH DIST", "city": "Heidelberg", "ncessch": "280138001315"}, {"name": "CHARLESTON MIDDLE SCHOOL", "lat": 34.016519, "lon": -90.05138, "proficiency": 0.075, "district": "EAST TALLAHATCHIE CONSOL SCH DIST", "city": "CHARLESTON", "ncessch": "280141000208"}, {"name": "ENTERPRISE MIDDLE SCHOOL", "lat": 32.171287, "lon": -88.806366, "proficiency": 0.67, "district": "ENTERPRISE SCHOOL DIST", "city": "ENTERPRISE", "ncessch": "280144000977"}, {"name": "HAWKINS MIDDLE SCHOOL", "lat": 32.359258, "lon": -89.464648, "proficiency": 0.22, "district": "FOREST MUNICIPAL SCHOOL DIST", "city": "FOREST", "ncessch": "280147000214"}, {"name": "DIXIE ATTENDANCE CENTER", "lat": 31.216638, "lon": -89.302441, "proficiency": 0.345, "district": "FORREST COUNTY SCHOOL DISTRICT", "city": "Hattiesburg", "ncessch": "280149000216"}, {"name": "NORTH FORREST HIGH SCHOOL", "lat": 31.412469, "lon": -89.330127, "proficiency": 0.42, "district": "FORREST COUNTY SCHOOL DISTRICT", "city": "Hattiesburg", "ncessch": "280149000218"}, {"name": "SOUTH FORREST ATTENDANCE CENTER", "lat": 31.057042, "lon": -89.18499, "proficiency": 0.57, "district": "FORREST COUNTY SCHOOL DISTRICT", "city": "Brooklyn", "ncessch": "280149000220"}, {"name": "EARL TRAVILLION ATTENDANCE CENTER", "lat": 31.275826, "lon": -89.260987, "proficiency": 0.05, "district": "FORREST COUNTY SCHOOL DISTRICT", "city": "Hattiesburg", "ncessch": "280149000221"}, {"name": "FRANKLIN COUNTY MIDDLE SCHOOL", "lat": 31.469294, "lon": -90.891733, "proficiency": 0.37, "district": "FRANKLIN CO SCHOOL DIST", "city": "Meadville", "ncessch": "280153001111"}, {"name": "GEORGE COUNTY MIDDLE SCHOOL", "lat": 30.920469, "lon": -88.596178, "proficiency": 0.37, "district": "GEORGE CO SCHOOL DIST", "city": "LUCEDALE", "ncessch": "280156000840"}, {"name": "MC LAIN ELEMENTARY SCHOOL", "lat": 31.11221, "lon": -88.82848, "proficiency": 0.3, "district": "GREENE COUNTY SCHOOL DISTRICT", "city": "McLain", "ncessch": "280159000233"}, {"name": "SAND HILL ELEMENTARY SCHOOL", "lat": 31.349812, "lon": -88.76241, "proficiency": 0.15, "district": "GREENE COUNTY SCHOOL DISTRICT", "city": "Richton", "ncessch": "280159000234"}, {"name": "LEAKESVILLE JR HIGH SCHOOL", "lat": 31.157401, "lon": -88.555818, "proficiency": 0.025, "district": "GREENE COUNTY SCHOOL DISTRICT", "city": "Leakesville", "ncessch": "280159001134"}, {"name": "COLEMAN MIDDLE SCHOOL", "lat": 33.408373, "lon": -91.038669, "proficiency": 0.025, "district": "GREENVILLE PUBLIC SCHOOLS", "city": "Greenville", "ncessch": "280162000240"}, {"name": "T.L. WESTON MIDDLE SCHOOL", "lat": 33.39037, "lon": -91.067527, "proficiency": 0.025, "district": "GREENVILLE PUBLIC SCHOOLS", "city": "GREENVILLE", "ncessch": "280162001361"}, {"name": "GRENADA MIDDLE SCHOOL", "lat": 33.760003, "lon": -89.803241, "proficiency": 0.52, "district": "GRENADA SCHOOL DIST", "city": "GRENADA", "ncessch": "280168000264"}, {"name": "BAYOU VIEW MIDDLE SCHOOL", "lat": 30.404006, "lon": -89.055169, "proficiency": 0.52, "district": "GULFPORT SCHOOL DIST", "city": "GULFPORT", "ncessch": "280171000270"}, {"name": "GULFPORT CENTRAL MIDDLE SCHOOL", "lat": 30.367432, "lon": -89.110488, "proficiency": 0.27, "district": "GULFPORT SCHOOL DIST", "city": "Gulfport", "ncessch": "280171000272"}, {"name": "HANCOCK MIDDLE SCHOOL", "lat": 30.376356, "lon": -89.44252, "proficiency": 0.37, "district": "HANCOCK CO SCHOOL DIST", "city": "Kiln", "ncessch": "280174001232"}, {"name": "DIBERVILLE MIDDLE SCHOOL", "lat": 30.441943, "lon": -88.893685, "proficiency": 0.52, "district": "HARRISON CO SCHOOL DIST", "city": "DIBERVILLE", "ncessch": "280177000286"}, {"name": "NORTH WOOLMARKET ELEMENTARY AND MID", "lat": 30.522613, "lon": -88.990664, "proficiency": 0.77, "district": "HARRISON CO SCHOOL DIST", "city": "BILOXI", "ncessch": "280177000958"}, {"name": "WEST WORTHAM ELEMENTARY AND MIDDLE", "lat": 30.567074, "lon": -89.182826, "proficiency": 0.52, "district": "HARRISON CO SCHOOL DIST", "city": "SAUCIER", "ncessch": "280177000959"}, {"name": "N R BURGER MIDDLE SCHOOL", "lat": 31.296011, "lon": -89.294978, "proficiency": 0.22, "district": "HATTIESBURG PUBLIC SCHOOL DIST", "city": "HATTIESBURG", "ncessch": "280180000980"}, {"name": "HAZLEHURST MIDDLE SCHOOL", "lat": 31.851614, "lon": -90.386852, "proficiency": 0.075, "district": "HAZLEHURST CITY SCHOOL DISTRICT", "city": "HAZLEHURST", "ncessch": "280183000316"}, {"name": "BYRAM MIDDLE SCHOOL", "lat": 32.190394, "lon": -90.312111, "proficiency": 0.27, "district": "HINDS CO SCHOOL DIST", "city": "Terry", "ncessch": "280186000321"}, {"name": "CARVER MIDDLE SCHOOL", "lat": 32.250078, "lon": -90.438773, "proficiency": 0.42, "district": "HINDS CO SCHOOL DIST", "city": "Raymond", "ncessch": "280186000322"}, {"name": "UTICA ELEM. / MIDDLE SCHOOL", "lat": 32.102552, "lon": -90.618092, "proficiency": 0.345, "district": "HINDS CO SCHOOL DIST", "city": "Utica", "ncessch": "280186000326"}, {"name": "BOLTON-EDWARDS ELEM./MIDDLE SCHOOL", "lat": 32.364475, "lon": -90.515138, "proficiency": 0.05, "district": "HINDS CO SCHOOL DIST", "city": "Bolton", "ncessch": "280186000984"}, {"name": "SIMMONS HIGH SCHOOL", "lat": 33.16641, "lon": -90.859427, "proficiency": 0.05, "district": "HOLLANDALE SCHOOL DIST", "city": "HOLLANDALE", "ncessch": "280189001037"}, {"name": "HOLLY SPRINGS JUNIOR HIGH SCHOOL", "lat": 34.769182, "lon": -89.440912, "proficiency": 0.12, "district": "HOLLY SPRINGS SCHOOL DIST", "city": "HOLLY SPRINGS", "ncessch": "280195001248"}, {"name": "O M MC NAIR MIDDLE SCHOOL", "lat": 33.189825, "lon": -90.487604, "proficiency": 0.025, "district": "HUMPHREYS CO SCHOOL DIST", "city": "Belzoni", "ncessch": "280204001039"}, {"name": "ITAWAMBA ATTENDANCE CENTER", "lat": 34.228944, "lon": -88.390476, "proficiency": 0.32, "district": "ITAWAMBA COUNTY SCHOOL DIST", "city": "Fulton", "ncessch": "280210000358"}, {"name": "MANTACHIE ATTENDANCE CENTER", "lat": 34.328473, "lon": -88.489514, "proficiency": 0.37, "district": "ITAWAMBA COUNTY SCHOOL DIST", "city": "MANTACHIE", "ncessch": "280210000361"}, {"name": "TREMONT ATTENDANCE CENTER", "lat": 34.239056, "lon": -88.256697, "proficiency": 0.15, "district": "ITAWAMBA COUNTY SCHOOL DIST", "city": "Tremont", "ncessch": "280210000362"}, {"name": "EAST CENTRAL MIDDLE SCHOOL", "lat": 30.657451, "lon": -88.518128, "proficiency": 0.62, "district": "JACKSON CO SCHOOL DIST", "city": "Hurley", "ncessch": "280216000364"}, {"name": "ST. MARTIN MIDDLE SCHOOL", "lat": 30.433796, "lon": -88.794103, "proficiency": 0.41, "district": "JACKSON CO SCHOOL DIST", "city": "Ocean Springs", "ncessch": "280216000963"}, {"name": "VANCLEAVE MIDDLE SCHOOL", "lat": 30.521371, "lon": -88.687442, "proficiency": 0.67, "district": "JACKSON CO SCHOOL DIST", "city": "Vancleave", "ncessch": "280216001049"}, {"name": "BLACKBURN MIDDLE SCHOOL", "lat": 32.300064, "lon": -90.207808, "proficiency": 0.12, "district": "JACKSON PUBLIC SCHOOL DISTRICT", "city": "JACKSON", "ncessch": "280219000372"}, {"name": "BRINKLEY MIDDLE SCHOOL", "lat": 32.340457, "lon": -90.204768, "proficiency": 0.075, "district": "JACKSON PUBLIC SCHOOL DISTRICT", "city": "JACKSON", "ncessch": "280219000375"}, {"name": "CHASTAIN MIDDLE SCHOOL", "lat": 32.357619, "lon": -90.156957, "proficiency": 0.025, "district": "JACKSON PUBLIC SCHOOL DISTRICT", "city": "JACKSON", "ncessch": "280219000380"}, {"name": "PEEPLES MIDDLE SCHOOL", "lat": 32.26393, "lon": -90.226186, "proficiency": 0.025, "district": "JACKSON PUBLIC SCHOOL DISTRICT", "city": "JACKSON", "ncessch": "280219000405"}, {"name": "POWELL MIDDLE SCHOOL", "lat": 32.353593, "lon": -90.202653, "proficiency": 0.025, "district": "JACKSON PUBLIC SCHOOL DISTRICT", "city": "JACKSON", "ncessch": "280219000407"}, {"name": "WHITTEN MIDDLE SCHOOL", "lat": 32.25261, "lon": -90.2215, "proficiency": 0.025, "district": "JACKSON PUBLIC SCHOOL DISTRICT", "city": "JACKSON", "ncessch": "280219000421"}, {"name": "NORTHWEST MIDDLE SCHOOL", "lat": 32.380635, "lon": -90.255265, "proficiency": 0.22, "district": "JACKSON PUBLIC SCHOOL DISTRICT", "city": "JACKSON", "ncessch": "280219001155"}, {"name": "KIRKSEY MIDDLE SCHOOL", "lat": 32.380524, "lon": -90.171306, "proficiency": 0.075, "district": "JACKSON PUBLIC SCHOOL DISTRICT", "city": "Jackson", "ncessch": "280219001365"}, {"name": "CARDOZO MIDDLE SCHOOL", "lat": 32.278813, "lon": -90.275408, "proficiency": 0.025, "district": "JACKSON PUBLIC SCHOOL DISTRICT", "city": "Jackson", "ncessch": "280219001370"}, {"name": "BAILEY MIDDLE APAC SCHOOL", "lat": 32.324441, "lon": -90.175092, "proficiency": 0.47, "district": "JACKSON PUBLIC SCHOOL DISTRICT", "city": "JACKSON", "ncessch": "280219001385"}, {"name": "JEFFERSON CO JR HI", "lat": 31.698302, "lon": -91.077436, "proficiency": 0.075, "district": "JEFFERSON CO SCHOOL DIST", "city": "Fayette", "ncessch": "280222001292"}, {"name": "CARVER ELEMENTARY SCHOOL", "lat": 31.498263, "lon": -89.732049, "proficiency": 0.05, "district": "JEFFERSON DAVIS CO SCHOOL DIST", "city": "BASSFIELD", "ncessch": "280225000430"}, {"name": "J E JOHNSON ELEMENTARY", "lat": 31.581484, "lon": -89.85586, "proficiency": 0.12, "district": "JEFFERSON DAVIS CO SCHOOL DIST", "city": "PRENTISS", "ncessch": "280225000432"}, {"name": "NORTHEAST JONES HIGH SCHOOL", "lat": 31.695814, "lon": -89.051932, "proficiency": 0.57, "district": "JONES CO SCHOOL DIST", "city": "Laurel", "ncessch": "280228000443"}, {"name": "SOUTH JONES HIGH SCHOOL", "lat": 31.610543, "lon": -89.198672, "proficiency": 0.37, "district": "JONES CO SCHOOL DIST", "city": "Ellisville", "ncessch": "280228000450"}, {"name": "WEST JONES HIGH SCHOOL", "lat": 31.722243, "lon": -89.220805, "proficiency": 0.47, "district": "JONES CO SCHOOL DIST", "city": "Laurel", "ncessch": "280228000451"}, {"name": "KEMPER COUNTY MIDDLE SCHOOL", "lat": 32.774846, "lon": -88.666269, "proficiency": 0.22, "district": "KEMPER CO SCHOOL DIST", "city": "DEKALB", "ncessch": "280231001489"}, {"name": "KEMPER COUNTY UPPER ELEMENTARY", "lat": 32.770994, "lon": -88.648745, "proficiency": -0.03, "district": "KEMPER CO SCHOOL DIST", "city": "DE KALB", "ncessch": "280231001530"}, {"name": "KOSCIUSKO JUNIOR HIGH SCHOOL", "lat": 33.056621, "lon": -89.585679, "proficiency": 0.52, "district": "KOSCIUSKO SCHOOL DISTRICT", "city": "KOSCIUSKO", "ncessch": "280234000457"}, {"name": "LAFAYETTE MIDDLE SCHOOL", "lat": 34.349534, "lon": -89.498047, "proficiency": 0.37, "district": "LAFAYETTE CO SCHOOL DIST", "city": "Oxford", "ncessch": "280237000967"}, {"name": "BAXTERVILLE SCHOOL", "lat": 31.08231, "lon": -89.59124, "proficiency": 0.495, "district": "LAMAR COUNTY SCHOOL DISTRICT", "city": "Lumberton", "ncessch": "280240000464"}, {"name": "OAK GROVE MIDDLE SCHOOL", "lat": 31.284987, "lon": -89.419093, "proficiency": 0.44, "district": "LAMAR COUNTY SCHOOL DISTRICT", "city": "Hattiesburg", "ncessch": "280240001253"}, {"name": "PURVIS MIDDLE SCHOOL", "lat": 31.140107, "lon": -89.406518, "proficiency": 0.42, "district": "LAMAR COUNTY SCHOOL DISTRICT", "city": "Purvis", "ncessch": "280240001254"}, {"name": "SUMRALL MIDDLE SCHOOL", "lat": 31.418978, "lon": -89.542378, "proficiency": 0.42, "district": "LAMAR COUNTY SCHOOL DISTRICT", "city": "Sumrall", "ncessch": "280240001316"}, {"name": "WEST LAUDERDALE MIDDLE SCHOOL", "lat": 32.527197, "lon": -88.820334, "proficiency": 0.57, "district": "LAUDERDALE CO SCHOOL DIST", "city": "Collinsville", "ncessch": "280243000471"}, {"name": "NORTHEAST LAUDERDALE MIDDLE SCHOOL", "lat": 32.44754, "lon": -88.67315, "proficiency": 0.27, "district": "LAUDERDALE CO SCHOOL DIST", "city": "Meridain", "ncessch": "280243000568"}, {"name": "SOUTHEAST LAUDERDALE MIDDLE SCHOOL", "lat": 32.332214, "lon": -88.56537, "proficiency": 0.37, "district": "LAUDERDALE CO SCHOOL DIST", "city": "Meridian", "ncessch": "280243001174"}, {"name": "CLARKDALE HIGH SCHOOL", "lat": 32.225575, "lon": -88.701236, "proficiency": 0.47, "district": "LAUDERDALE CO SCHOOL DIST", "city": "Meridian", "ncessch": "280243001348"}, {"name": "LAUREL MIDDLE SCHOOL", "lat": 31.680596, "lon": -89.149116, "proficiency": 0.12, "district": "LAUREL SCHOOL DISTRICT", "city": "Laurel", "ncessch": "280246001345"}, {"name": "ROD PAIGE MIDDLE SCHOOL", "lat": 31.560846, "lon": -90.123216, "proficiency": 0.075, "district": "LAWRENCE CO SCHOOL DIST", "city": "Monticello", "ncessch": "280249000480"}, {"name": "NEW HEBRON ATTENDANCE CENTER", "lat": 31.731965, "lon": -89.986493, "proficiency": 0.05, "district": "LAWRENCE CO SCHOOL DIST", "city": "New Hebron", "ncessch": "280249000483"}, {"name": "TOPEKA TILTON ATTENDANCE CENTER", "lat": 31.40626, "lon": -90.148111, "proficiency": 0.245, "district": "LAWRENCE CO SCHOOL DIST", "city": "Monticello", "ncessch": "280249000485"}, {"name": "LEAKE COUNTY HIGH SCHOOL", "lat": 32.596616, "lon": -89.456681, "proficiency": 0.15, "district": "LEAKE CO SCHOOL DIST", "city": "WALNUT GROVE", "ncessch": "280252000490"}, {"name": "LEAKE CENTRAL JUNIOR HIGH", "lat": 32.738338, "lon": -89.550956, "proficiency": 0.075, "district": "LEAKE CO SCHOOL DIST", "city": "CARTHAGE", "ncessch": "280252001119"}, {"name": "GUNTOWN MIDDLE SCHOOL", "lat": 34.446558, "lon": -88.66449, "proficiency": 0.42, "district": "LEE COUNTY SCHOOL DISTRICT", "city": "GUNTOWN", "ncessch": "280255000492"}, {"name": "PLANTERSVILLE MIDDLE SCHOOL", "lat": 34.202792, "lon": -88.661113, "proficiency": 0.15, "district": "LEE COUNTY SCHOOL DISTRICT", "city": "PLANTERSVILLE", "ncessch": "280255000495"}, {"name": "MOOREVILLE MIDDLE SCHOOL", "lat": 34.27182, "lon": -88.57827, "proficiency": 0.57, "district": "LEE COUNTY SCHOOL DISTRICT", "city": "MOOREVILLE", "ncessch": "280255001276"}, {"name": "SHANNON MIDDLE SCHOOL", "lat": 34.123215, "lon": -88.714041, "proficiency": 0.22, "district": "LEE COUNTY SCHOOL DISTRICT", "city": "Shannon", "ncessch": "280255001325"}, {"name": "LELAND SCHOOL PARK", "lat": 33.413405, "lon": -90.898918, "proficiency": 0.05, "district": "LELAND SCHOOL DIST", "city": "LELAND", "ncessch": "280261001472"}, {"name": "BOGUE CHITTO SCHOOL", "lat": 31.440423, "lon": -90.456883, "proficiency": 0.17, "district": "LINCOLN COUNTY SCHOOL DISTRICT", "city": "BOGUE CHITTO", "ncessch": "280264000512"}, {"name": "ENTERPRISE SCHOOL", "lat": 31.473694, "lon": -90.384602, "proficiency": 0.245, "district": "LINCOLN COUNTY SCHOOL DISTRICT", "city": "BROOKHAVEN", "ncessch": "280264000513"}, {"name": "LOYD STAR SCHOOL", "lat": 31.628555, "lon": -90.555685, "proficiency": 0.17, "district": "LINCOLN COUNTY SCHOOL DISTRICT", "city": "BROOKHAVEN", "ncessch": "280264000515"}, {"name": "WEST LINCOLN SCHOOL", "lat": 31.491627, "lon": -90.568503, "proficiency": 0.67, "district": "LINCOLN COUNTY SCHOOL DISTRICT", "city": "BROOKHAVEN", "ncessch": "280264000516"}, {"name": "LONG BEACH MIDDLE SCHOOL", "lat": 30.359236, "lon": -89.150052, "proficiency": 0.57, "district": "LONG BEACH SCHOOL DIST", "city": "Long Beach", "ncessch": "280267000519"}, {"name": "EILAND MIDDLE SCHOOL", "lat": 33.118034, "lon": -89.064576, "proficiency": 0.32, "district": "LOUISVILLE MUNICIPAL SCHOOL DIST", "city": "LOUISVILLE", "ncessch": "280270000524"}, {"name": "NANIH WAIYA ATTENDANCE CENTER", "lat": 32.980542, "lon": -88.902471, "proficiency": 0.545, "district": "LOUISVILLE MUNICIPAL SCHOOL DIST", "city": "LOUISVILLE", "ncessch": "280270000526"}, {"name": "NOXAPATER ATTENDANCE CENTER", "lat": 32.994573, "lon": -89.06802, "proficiency": 0.545, "district": "LOUISVILLE MUNICIPAL SCHOOL DIST", "city": "NOXAPATER", "ncessch": "280270000527"}, {"name": "WEST LOWNDES HIGH SCHOOL", "lat": 33.47878, "lon": -88.499758, "proficiency": 0.245, "district": "LOWNDES CO SCHOOL DIST", "city": "COLUMBUS", "ncessch": "280273000531"}, {"name": "CALEDONIA MIDDLE SCHOOL", "lat": 33.68001, "lon": -88.327875, "proficiency": 0.52, "district": "LOWNDES CO SCHOOL DIST", "city": "CALEDONIA", "ncessch": "280273001126"}, {"name": "NEW HOPE MIDDLE SCHOOL", "lat": 33.446389, "lon": -88.32197, "proficiency": 0.32, "district": "LOWNDES CO SCHOOL DIST", "city": "COLUMBUS", "ncessch": "280273001128"}, {"name": "OLD TOWN MIDDLE", "lat": 32.432099, "lon": -90.139522, "proficiency": 0.27, "district": "MADISON CO SCHOOL DIST", "city": "Ridgeland", "ncessch": "280279000938"}, {"name": "SHIRLEY D. SIMMONS MIDDLE SCHOOL", "lat": 32.710794, "lon": -89.819084, "proficiency": 0.15, "district": "MADISON CO SCHOOL DIST", "city": "Canton", "ncessch": "280279000989"}, {"name": "MADISON MIDDLE SCHOOL", "lat": 32.477867, "lon": -90.16831, "proficiency": 0.67, "district": "MADISON CO SCHOOL DIST", "city": "MADISON", "ncessch": "280279001082"}, {"name": "GERMANTOWN MIDDLE SCHOOL", "lat": 32.539263, "lon": -90.104829, "proficiency": 0.6, "district": "MADISON CO SCHOOL DIST", "city": "Madison", "ncessch": "280279001283"}, {"name": "EAST MARION HIGH SCHOOL", "lat": 31.219878, "lon": -89.821276, "proficiency": 0.22, "district": "MARION CO SCHOOL DIST", "city": "Columbia", "ncessch": "280282000545"}, {"name": "WEST MARION HIGH SCHOOL", "lat": 31.236346, "lon": -89.877022, "proficiency": 0.32, "district": "MARION CO SCHOOL DIST", "city": "Foxworth", "ncessch": "280282001247"}, {"name": "POTTS CAMP HIGH SCHOOL (5-12)", "lat": 34.643285, "lon": -89.303086, "proficiency": 0.245, "district": "MARSHALL CO SCHOOL DIST", "city": "POTTS CAMP", "ncessch": "280285000551"}, {"name": "H. W. BYERS HIGH SCHOOL (5-12)", "lat": 34.955429, "lon": -89.489858, "proficiency": 0.05, "district": "MARSHALL CO SCHOOL DIST", "city": "Holly Springs", "ncessch": "280285000553"}, {"name": "BYHALIA MIDDLE SCHOOL (5-8)", "lat": 34.877546, "lon": -89.687192, "proficiency": 0.17, "district": "MARSHALL CO SCHOOL DIST", "city": "Byhalia", "ncessch": "280285001291"}, {"name": "DENMAN JUNIOR HIGH SCHOOL", "lat": 31.245364, "lon": -90.466217, "proficiency": 0.12, "district": "MCCOMB SCHOOL DISTRICT", "city": "MCCOMB", "ncessch": "280288000972"}, {"name": "GEORGE WASHINGTON CARVER MIDDLE", "lat": 32.366327, "lon": -88.721319, "proficiency": 0.025, "district": "MERIDIAN PUBLIC SCHOOLS", "city": "MERIDIAN", "ncessch": "280291000559"}, {"name": "MAGNOLIA MIDDLE SCHOOL", "lat": 32.383688, "lon": -88.692012, "proficiency": 0.12, "district": "MERIDIAN PUBLIC SCHOOLS", "city": "MERIDIAN", "ncessch": "280291000564"}, {"name": "NORTHWEST JUNIOR HIGH SCHOOL", "lat": 32.390944, "lon": -88.722386, "proficiency": 0.075, "district": "MERIDIAN PUBLIC SCHOOLS", "city": "MERIDIAN", "ncessch": "280291000569"}, {"name": "HAMILTON HIGH SCHOOL", "lat": 33.742038, "lon": -88.410641, "proficiency": 0.445, "district": "MONROE CO SCHOOL DIST", "city": "HAMILTON", "ncessch": "280294000580"}, {"name": "HATLEY HIGH SCHOOL", "lat": 33.976547, "lon": -88.415704, "proficiency": 0.62, "district": "MONROE CO SCHOOL DIST", "city": "AMORY", "ncessch": "280294000581"}, {"name": "SMITHVILLE HIGH SCHOOL", "lat": 34.07381, "lon": -88.386064, "proficiency": 0.245, "district": "MONROE CO SCHOOL DIST", "city": "SMITHVILLE", "ncessch": "280294000582"}, {"name": "MAGNOLIA MIDDLE SCHOOL", "lat": 30.408248, "lon": -88.545876, "proficiency": 0.27, "district": "MOSS POINT SEPARATE SCHOOL DIST", "city": "MOSS POINT", "ncessch": "280300000592"}, {"name": "MORGANTOWN MIDDLE", "lat": 31.57449, "lon": -91.354014, "proficiency": 0.025, "district": "NATCHEZ-ADAMS SCHOOL DISTRICT", "city": "NATCHEZ", "ncessch": "280303000602"}, {"name": "ROBERT LEWIS MAGNET SCHOOL", "lat": 31.570677, "lon": -91.370426, "proficiency": 0.12, "district": "NATCHEZ-ADAMS SCHOOL DISTRICT", "city": "NATCHEZ", "ncessch": "280303000604"}, {"name": "NESHOBA CENTRAL HIGH SCHOOL", "lat": 32.76622, "lon": -89.091037, "proficiency": -0.03, "district": "NESHOBA COUNTY SCHOOL DISTRICT", "city": "PHILADELPHIA", "ncessch": "280306000612"}, {"name": "NESHOBA CENTRAL MIDDLE SCHOOL", "lat": 32.764612, "lon": -89.090742, "proficiency": 0.57, "district": "NESHOBA COUNTY SCHOOL DISTRICT", "city": "Philadelphia", "ncessch": "280306000990"}, {"name": "NETTLETON INTERMEDIATE SCHOOL", "lat": 34.091234, "lon": -88.619138, "proficiency": 0.27, "district": "NETTLETON SCHOOL DIST", "city": "Nettleton", "ncessch": "280309001160"}, {"name": "NEW ALBANY MIDDLE SCHOOL", "lat": 34.488204, "lon": -89.006539, "proficiency": 0.47, "district": "NEW ALBANY PUBLIC SCHOOLS", "city": "New Albany", "ncessch": "280312000618"}, {"name": "NEWTON COUNTY HIGH SCHOOL", "lat": 32.424263, "lon": -89.094833, "proficiency": 0.32, "district": "NEWTON COUNTY SCHOOL DISTRICT", "city": "Decatur", "ncessch": "280315001135"}, {"name": "N H PILATE MIDDLE SCHOOL", "lat": 32.320145, "lon": -89.152129, "proficiency": 0.15, "district": "NEWTON MUNICIPAL SCHOOL DISTRICT", "city": "Newton", "ncessch": "280318001179"}, {"name": "NORTH PANOLA MIDDLE SCHOOL", "lat": 34.522539, "lon": -89.945344, "proficiency": 0.025, "district": "NORTH PANOLA SCHOOL DISTRICT", "city": "Como", "ncessch": "280321001339"}, {"name": "NORTH PIKE JUNIOR HIGH SCHOOL", "lat": 31.279777, "lon": -90.333503, "proficiency": 0.32, "district": "NORTH PIKE SCHOOL DIST", "city": "Summit", "ncessch": "280324000635"}, {"name": "CHALYBEATE ELEMENTARY SCHOOL", "lat": 34.931292, "lon": -88.869815, "proficiency": 0.495, "district": "NORTH TIPPAH SCHOOL DIST", "city": "Walnut", "ncessch": "280327000637"}, {"name": "WALNUT ATTENDANCE CENTER", "lat": 34.94624, "lon": -88.905452, "proficiency": 0.545, "district": "NORTH TIPPAH SCHOOL DIST", "city": "WALNUT", "ncessch": "280327000640"}, {"name": "FALKNER ATTENDANCE CENTER", "lat": 34.847846, "lon": -88.936748, "proficiency": 0.15, "district": "NORTH TIPPAH SCHOOL DIST", "city": "Falkner", "ncessch": "280327001534"}, {"name": "B F LIDDELL MIDDLE SCHOOL", "lat": 33.112511, "lon": -88.557469, "proficiency": 0.025, "district": "NOXUBEE COUNTY SCHOOL DISTRICT", "city": "MACON", "ncessch": "280330000643"}, {"name": "OCEAN SPRINGS MIDDLE SCHOOL", "lat": 30.396425, "lon": -88.756241, "proficiency": 0.59, "district": "OCEAN SPRINGS SCHOOL DIST", "city": "Ocean Springs", "ncessch": "280336000934"}, {"name": "OKOLONA MIDDLE SCHOOL", "lat": 34.013151, "lon": -88.753244, "proficiency": 0.05, "district": "OKOLONA SEPARATE SCHOOL DIST", "city": "OKOLONA", "ncessch": "280339001482"}, {"name": "OXFORD MIDDLE SCHOOL", "lat": 34.36811, "lon": -89.507051, "proficiency": 0.41, "district": "OXFORD SCHOOL DISTRICT", "city": "OXFORD", "ncessch": "280345000664"}, {"name": "WILLIAM M COLMER MIDDLE SCHOOL", "lat": 30.364124, "lon": -88.529221, "proficiency": 0.38, "district": "PASCAGOULA-GAUTIER SCHOOL DISTRICT", "city": "PASCAGOULA", "ncessch": "280348000671"}, {"name": "GAUTIER MIDDLE SCHOOL", "lat": 30.369287, "lon": -88.641935, "proficiency": 0.47, "district": "PASCAGOULA-GAUTIER SCHOOL DISTRICT", "city": "Gautier", "ncessch": "280348000675"}, {"name": "EXCEPTIONAL SCHOOL", "lat": 30.378369, "lon": -88.533086, "proficiency": -0.03, "district": "PASCAGOULA-GAUTIER SCHOOL DISTRICT", "city": "Pascagoula", "ncessch": "280348001161"}, {"name": "PASS CHRISTIAN MIDDLE", "lat": 30.315389, "lon": -89.254384, "proficiency": 0.42, "district": "PASS CHRISTIAN PUBLIC SCHOOL DIST", "city": "PASS CHRISTIAN", "ncessch": "280351000685"}, {"name": "PEARL JUNIOR HIGH SCHOOL", "lat": 32.278504, "lon": -90.107664, "proficiency": 0.51, "district": "PEARL PUBLIC SCHOOL DISTRICT", "city": "PEARL", "ncessch": "280352001354"}, {"name": "PETAL MIDDLE SCHOOL", "lat": 31.347879, "lon": -89.25945, "proficiency": 0.62, "district": "PETAL SCHOOL DIST", "city": "PETAL", "ncessch": "280353000005"}, {"name": "PEARL RIVER CENTRAL JUNIOR HIGH", "lat": 30.626317, "lon": -89.654297, "proficiency": 0.42, "district": "PEARL RIVER CO SCHOOL DIST", "city": "CARRIERE", "ncessch": "280354001069"}, {"name": "PERRY CENTRAL MIDDLE SCHOOL", "lat": 31.204392, "lon": -89.026825, "proficiency": 0.32, "district": "PERRY CO SCHOOL DIST", "city": "NEW AUGUSTA", "ncessch": "280357000689"}, {"name": "PHILADELPHIA HIGH SCHOOL", "lat": 32.773617, "lon": -89.111429, "proficiency": 0.27, "district": "PHILADELPHIA PUBLIC SCHOOL DIST", "city": "Philadelphia", "ncessch": "280360000692"}, {"name": "PICAYUNE JUNIOR HIGH SCHOOL", "lat": 30.530728, "lon": -89.687373, "proficiency": 0.37, "district": "PICAYUNE SCHOOL DISTRICT", "city": "Picayune", "ncessch": "280363000697"}, {"name": "North Pontotoc Middle School", "lat": 34.364005, "lon": -89.02684, "proficiency": 0.27, "district": "PONTOTOC CO SCHOOL DIST", "city": "Ecru", "ncessch": "280366001009"}, {"name": "South Pontotoc Middle School", "lat": 34.221162, "lon": -89.08269, "proficiency": 0.52, "district": "PONTOTOC CO SCHOOL DIST", "city": "Pontotoc", "ncessch": "280366001011"}, {"name": "PONTOTOC JUNIOR HIGH SCHOOL", "lat": 34.25145, "lon": -88.999367, "proficiency": 0.52, "district": "PONTOTOC CITY SCHOOLS", "city": "Pontotoc", "ncessch": "280369001162"}, {"name": "MIDDLE SCHOOL OF POPLARVILLE", "lat": 30.829182, "lon": -89.523831, "proficiency": 0.47, "district": "POPLARVILLE SEPARATE SCHOOL DIST", "city": "Poplarville", "ncessch": "280372000992"}, {"name": "HILLS CHAPEL SCHOOL", "lat": 34.63173, "lon": -88.455026, "proficiency": 0.545, "district": "PRENTISS CO SCHOOL DIST", "city": "BOONEVILLE", "ncessch": "280375000716"}, {"name": "JUMPERTOWN HIGH SCHOOL", "lat": 34.71152, "lon": -88.666914, "proficiency": 0.15, "district": "PRENTISS CO SCHOOL DIST", "city": "Booneville", "ncessch": "280375000717"}, {"name": "MARIETTA ELEMENTARY SCHOOL", "lat": 34.498815, "lon": -88.465578, "proficiency": 0.495, "district": "PRENTISS CO SCHOOL DIST", "city": "Marietta", "ncessch": "280375000718"}, {"name": "THRASHER HIGH SCHOOL", "lat": 34.718235, "lon": -88.534356, "proficiency": 0.245, "district": "PRENTISS CO SCHOOL DIST", "city": "Booneville", "ncessch": "280375000721"}, {"name": "WHEELER HIGH SCHOOL", "lat": 34.578511, "lon": -88.60293, "proficiency": 0.445, "district": "PRENTISS CO SCHOOL DIST", "city": "Booneville", "ncessch": "280375000722"}, {"name": "QUITMAN JR HIGH SCHOOL", "lat": 32.054089, "lon": -88.734188, "proficiency": 0.025, "district": "QUITMAN SCHOOL DIST", "city": "Quitman", "ncessch": "280378000723"}, {"name": "QUITMAN COUNTY MIDDLE SCHOOL", "lat": 34.254596, "lon": -90.277757, "proficiency": 0.075, "district": "QUITMAN CO SCHOOL DIST", "city": "MARKS", "ncessch": "280381000734"}, {"name": "BRANDON MIDDLE SCHOOL", "lat": 32.269767, "lon": -89.989839, "proficiency": 0.66, "district": "RANKIN CO SCHOOL DIST", "city": "Brandon", "ncessch": "280383000737"}, {"name": "FLORENCE MIDDLE SCHOOL", "lat": 32.151366, "lon": -90.125679, "proficiency": 0.52, "district": "RANKIN CO SCHOOL DIST", "city": "Florence", "ncessch": "280383000738"}, {"name": "MCLAURIN ATTENDANCE CENTER", "lat": 32.142852, "lon": -90.024095, "proficiency": 0.27, "district": "RANKIN CO SCHOOL DIST", "city": "Florence", "ncessch": "280383000739"}, {"name": "PELAHATCHIE ATTENDANCE CENTER", "lat": 32.310765, "lon": -89.796621, "proficiency": 0.37, "district": "RANKIN CO SCHOOL DIST", "city": "Pelahatchie", "ncessch": "280383000740"}, {"name": "PISGAH ELEMENTARY SCHOOL", "lat": 32.484259, "lon": -89.86921, "proficiency": -0.03, "district": "RANKIN CO SCHOOL DIST", "city": "Brandon", "ncessch": "280383000741"}, {"name": "PUCKETT ATTENDANCE CENTER", "lat": 32.084344, "lon": -89.780275, "proficiency": 0.445, "district": "RANKIN CO SCHOOL DIST", "city": "Puckett", "ncessch": "280383000742"}, {"name": "RICHLAND HIGH SCHOOL", "lat": 32.213598, "lon": -90.150992, "proficiency": 0.27, "district": "RANKIN CO SCHOOL DIST", "city": "Richland", "ncessch": "280383000743"}, {"name": "NORTHWEST RANKIN MIDDLE SCHOOL", "lat": 32.358592, "lon": -89.990202, "proficiency": 0.56, "district": "RANKIN CO SCHOOL DIST", "city": "Flowood", "ncessch": "280383000955"}, {"name": "PISGAH HIGH SCHOOL", "lat": 32.485041, "lon": -89.869271, "proficiency": 0.52, "district": "RANKIN CO SCHOOL DIST", "city": "Brandon", "ncessch": "280383001079"}, {"name": "RICHTON HIGH SCHOOL", "lat": 31.350724, "lon": -88.942375, "proficiency": 0.245, "district": "RICHTON SCHOOL DIST", "city": "RICHTON", "ncessch": "280387000744"}, {"name": "SCOTT CENTRAL ATTENDANCE CENTER", "lat": 32.454278, "lon": -89.471596, "proficiency": 0.32, "district": "SCOTT CO SCHOOL DIST", "city": "FOREST", "ncessch": "280390000748"}, {"name": "SEBASTOPOL ATTENDANCE CENTER", "lat": 32.5704, "lon": -89.338754, "proficiency": 0.37, "district": "SCOTT CO SCHOOL DIST", "city": "SEBASTOPOL", "ncessch": "280390000749"}, {"name": "LAKE MIDDLE SCHOOL", "lat": 32.41217, "lon": -89.359385, "proficiency": 0.37, "district": "SCOTT CO SCHOOL DIST", "city": "LAKE", "ncessch": "280390001144"}, {"name": "BETTYE MAE JACK MIDDLE SCHOOL", "lat": 32.355169, "lon": -89.651123, "proficiency": 0.17, "district": "SCOTT CO SCHOOL DIST", "city": "MORTON", "ncessch": "280390001145"}, {"name": "SENATOBIA MIDDLE SCHOOL", "lat": 34.621168, "lon": -89.965741, "proficiency": 0.32, "district": "SENATOBIA MUNICIPAL SCHOOL DIST", "city": "Senatobia", "ncessch": "280393001083"}, {"name": "SOUTH DELTA MIDDLE SCHOOL", "lat": 32.973203, "lon": -90.826391, "proficiency": 0.05, "district": "SOUTH DELTA SCHOOL DISTRICT", "city": "ANGUILLA", "ncessch": "280396000383"}, {"name": "SIMPSON CENTRAL SCHOOL", "lat": 31.880204, "lon": -90.083319, "proficiency": 0.345, "district": "SIMPSON CO SCHOOL DIST", "city": "PINOLA", "ncessch": "280399000757"}, {"name": "MAGEE MIDDLE SCHOOL", "lat": 31.873748, "lon": -89.729892, "proficiency": 0.12, "district": "SIMPSON CO SCHOOL DIST", "city": "Magee", "ncessch": "280399001085"}, {"name": "MENDENHALL JUNIOR HIGH SCHOOL", "lat": 31.96122, "lon": -89.880608, "proficiency": 0.075, "district": "SIMPSON CO SCHOOL DIST", "city": "Mendenhall", "ncessch": "280399001087"}, {"name": "MIZE ATTENDANCE CENTER", "lat": 31.861089, "lon": -89.551424, "proficiency": 0.62, "district": "SMITH CO SCHOOL DIST", "city": "MIZE", "ncessch": "280402000758"}, {"name": "RALEIGH HIGH SCHOOL", "lat": 31.993111, "lon": -89.518913, "proficiency": 0.62, "district": "SMITH CO SCHOOL DIST", "city": "RALEIGH", "ncessch": "280402000759"}, {"name": "TAYLORSVILLE ATTENDANCE CENTER", "lat": 31.833344, "lon": -89.42455, "proficiency": 0.15, "district": "SMITH CO SCHOOL DIST", "city": "TAYLORSVILLE", "ncessch": "280402000762"}, {"name": "BATESVILLE JUNIOR HIGH SCHOOL", "lat": 34.321026, "lon": -89.937716, "proficiency": 0.22, "district": "SOUTH PANOLA SCHOOL DISTRICT", "city": "Batesville", "ncessch": "280405000764"}, {"name": "POPE ELEMENTARY SCHOOL", "lat": 34.215555, "lon": -89.941529, "proficiency": 0.27, "district": "SOUTH PANOLA SCHOOL DISTRICT", "city": "Pope", "ncessch": "280405000765"}, {"name": "SOUTH PIKE JR HIGH", "lat": 31.148341, "lon": -90.462984, "proficiency": 0.075, "district": "SOUTH PIKE SCHOOL DIST", "city": "Magnolia", "ncessch": "280408000772"}, {"name": "BLUE MOUNTAIN HIGH SCHOOL", "lat": 34.669523, "lon": -89.032755, "proficiency": 0.495, "district": "SOUTH TIPPAH SCHOOL DIST", "city": "BLUE MOUNTAIN", "ncessch": "280411000775"}, {"name": "PINE GROVE HIGH SCHOOL", "lat": 34.662441, "lon": -88.797801, "proficiency": 0.345, "district": "SOUTH TIPPAH SCHOOL DIST", "city": "Ripley", "ncessch": "280411000776"}, {"name": "RIPLEY MIDDLE SCHOOL", "lat": 34.72385, "lon": -88.943013, "proficiency": 0.27, "district": "SOUTH TIPPAH SCHOOL DIST", "city": "Ripley", "ncessch": "280411000779"}, {"name": "STONE MIDDLE SCHOOL", "lat": 30.850857, "lon": -89.1312, "proficiency": 0.47, "district": "STONE CO SCHOOL DIST", "city": "WIGGINS", "ncessch": "280417000791"}, {"name": "INDEPENDENCE HIGH SCHOOL", "lat": 34.667055, "lon": -89.809835, "proficiency": 0.22, "district": "TATE CO SCHOOL DIST", "city": "INDEPENDENCE", "ncessch": "280423000800"}, {"name": "STRAYHORN HIGH SCHOOL", "lat": 34.610361, "lon": -90.14842, "proficiency": 0.22, "district": "TATE CO SCHOOL DIST", "city": "Sarah", "ncessch": "280423001295"}, {"name": "COLDWATER HIGH SCHOOL", "lat": 34.687753, "lon": -89.985633, "proficiency": 0.05, "district": "TATE CO SCHOOL DIST", "city": "Coldwater", "ncessch": "280423001508"}, {"name": "BELMONT SCHOOL", "lat": 34.509567, "lon": -88.215753, "proficiency": 0.77, "district": "TISHOMINGO CO SP MUN SCH DIST", "city": "Belmont", "ncessch": "280426000803"}, {"name": "BURNSVILLE ELEMENTARY", "lat": 34.837192, "lon": -88.313848, "proficiency": 0.245, "district": "TISHOMINGO CO SP MUN SCH DIST", "city": "Burnsville", "ncessch": "280426000804"}, {"name": "TISHOMINGO ELEMENTARY", "lat": 34.633973, "lon": -88.225272, "proficiency": 0.1, "district": "TISHOMINGO CO SP MUN SCH DIST", "city": "Tishomingo", "ncessch": "280426000805"}, {"name": "IUKA MIDDLE SCHOOL", "lat": 34.808987, "lon": -88.194874, "proficiency": 0.52, "district": "TISHOMINGO CO SP MUN SCH DIST", "city": "Iuka", "ncessch": "280426001226"}, {"name": "TUNICA MIDDLE SCHOOL", "lat": 34.706066, "lon": -90.374498, "proficiency": 0.27, "district": "TUNICA COUNTY SCHOOL DISTRICT", "city": "TUNICA", "ncessch": "280429000809"}, {"name": "TUPELO MIDDLE SCHOOL", "lat": 34.250251, "lon": -88.722453, "proficiency": 0.39, "district": "TUPELO PUBLIC SCHOOL DIST", "city": "Tupelo", "ncessch": "280432000293"}, {"name": "EAST UNION ATTENDANCE CENTER", "lat": 34.442481, "lon": -88.840332, "proficiency": 0.57, "district": "UNION CO SCHOOL DIST", "city": "BLUE SPRINGS", "ncessch": "280435000821"}, {"name": "INGOMAR ATTENDANCE CENTER", "lat": 34.408621, "lon": -89.042652, "proficiency": 0.52, "district": "UNION CO SCHOOL DIST", "city": "NEW ALBANY", "ncessch": "280435000822"}, {"name": "MYRTLE ATTENDANCE CENTER", "lat": 34.555361, "lon": -89.11491, "proficiency": 0.545, "district": "UNION CO SCHOOL DIST", "city": "MYRTLE", "ncessch": "280435000823"}, {"name": "WEST UNION ATTENDANCE CENTER", "lat": 34.467686, "lon": -89.168496, "proficiency": 0.645, "district": "UNION CO SCHOOL DIST", "city": "MYRTLE", "ncessch": "280435000824"}, {"name": "UNION MIDDLE SCHOOL", "lat": 32.567544, "lon": -89.116107, "proficiency": 0.62, "district": "UNION PUBLIC SCHOOL DIST", "city": "UNION", "ncessch": "280438001327"}, {"name": "DEXTER ELEMENTARY SCHOOL", "lat": 31.073202, "lon": -89.994188, "proficiency": 0.245, "district": "WALTHALL CO SCHOOL DIST", "city": "Tylertown", "ncessch": "280444000833"}, {"name": "SALEM ATTENDANCE CENTER", "lat": 31.230363, "lon": -90.116861, "proficiency": 0.345, "district": "WALTHALL CO SCHOOL DIST", "city": "Tylertown", "ncessch": "280444000834"}, {"name": "TYLERTOWN HIGH SCHOOL", "lat": 31.108028, "lon": -90.152693, "proficiency": 0.075, "district": "WALTHALL CO SCHOOL DIST", "city": "Tylertown", "ncessch": "280444000836"}, {"name": "VICKSBURG JUNIOR HIGH SCHOOL", "lat": 32.344372, "lon": -90.871059, "proficiency": 0.12, "district": "VICKSBURG WARREN SCHOOL DIST", "city": "VICKSBURG", "ncessch": "280447000831"}, {"name": "WARREN CENTRAL JUNIOR HIGH SCHOOL", "lat": 32.343545, "lon": -90.867844, "proficiency": 0.12, "district": "VICKSBURG WARREN SCHOOL DIST", "city": "VICKSBURG", "ncessch": "280447000843"}, {"name": "WATER VALLEY HIGH SCHOOL", "lat": 34.157403, "lon": -89.641332, "proficiency": 0.22, "district": "WATER VALLEY SCHOOL DISTRICT", "city": "Water Valley", "ncessch": "280450000845"}, {"name": "BEAT FOUR ELEMENTARY SCHOOL", "lat": 31.696847, "lon": -88.805746, "proficiency": 0.345, "district": "WAYNE CO SCHOOL DIST", "city": "Waynesboro", "ncessch": "280453000846"}, {"name": "CLARA ELEMENTARY SCHOOL", "lat": 31.580983, "lon": -88.69522, "proficiency": 0.245, "district": "WAYNE CO SCHOOL DIST", "city": "Clara", "ncessch": "280453000848"}, {"name": "WAYNE CENTRAL ELEMENTARY SCHOOL", "lat": 31.680114, "lon": -88.637141, "proficiency": 0.05, "district": "WAYNE CO SCHOOL DIST", "city": "Waynesboro", "ncessch": "280453000849"}, {"name": "WAYNESBORO RIVERVIEW ELE SCHOOL", "lat": 31.666367, "lon": -88.656813, "proficiency": 0.15, "district": "WAYNE CO SCHOOL DIST", "city": "Waynesboro", "ncessch": "280453000851"}, {"name": "BUCKATUNNA ELEMENTARY SCHOOL", "lat": 31.54042, "lon": -88.525765, "proficiency": 0.245, "district": "WAYNE CO SCHOOL DIST", "city": "Buckatunna", "ncessch": "280453000898"}, {"name": "EAST WEBSTER HIGH SCHOOL", "lat": 33.621463, "lon": -89.081765, "proficiency": 0.62, "district": "WEBSTER CO SCHOOL DIST", "city": "Maben", "ncessch": "280456000852"}, {"name": "EUPORA HIGH SCHOOL", "lat": 33.543141, "lon": -89.274143, "proficiency": 0.42, "district": "WEBSTER CO SCHOOL DIST", "city": "EUPORA", "ncessch": "280456001097"}, {"name": "STRINGER ATTENDANCE CENTER", "lat": 31.871896, "lon": -89.260995, "proficiency": 0.345, "district": "WEST JASPER CONSOLIDATED SCHOOLS", "city": "STRINGER", "ncessch": "280459000859"}, {"name": "BAY SPRINGS MIDDLE SCH", "lat": 31.978088, "lon": -89.278456, "proficiency": 0.345, "district": "WEST JASPER CONSOLIDATED SCHOOLS", "city": "BAY SPRINGS", "ncessch": "280459000899"}, {"name": "WEST TALLAHATCHIE HIGH SCHOOL", "lat": 33.948568, "lon": -90.35219, "proficiency": 0.05, "district": "WEST TALLAHATCHIE SCHOOL DISTRICT", "city": "WEBB", "ncessch": "280465000873"}, {"name": "O'BANNON HIGH SCHOOL", "lat": 33.385192, "lon": -91.006731, "proficiency": 0.12, "district": "WESTERN LINE SCHOOL DISTRICT", "city": "GREENVILLE", "ncessch": "280468000975"}, {"name": "RIVERSIDE HIGH SCHOOL", "lat": 33.227384, "lon": -91.04585, "proficiency": 0.32, "district": "WESTERN LINE SCHOOL DISTRICT", "city": "AVON", "ncessch": "280468000976"}, {"name": "WILLIAM WINANS MIDDLE SCHOOL", "lat": 31.093238, "lon": -91.06363, "proficiency": 0.12, "district": "WILKINSON CO SCHOOL DIST", "city": "Centreville", "ncessch": "280471001580"}, {"name": "BETTIE E WOOLFOLK MIDDLE SCHOOL", "lat": 32.856231, "lon": -90.409269, "proficiency": 0.025, "district": "YAZOO CITY MUNICIPAL SCHOOL DIST", "city": "YAZOO CITY", "ncessch": "280477000887"}, {"name": "YAZOO COUNTY MIDDLE SCHOOL", "lat": 32.781378, "lon": -90.375126, "proficiency": 0.12, "district": "YAZOO CO SCHOOL DIST", "city": "YAZOO CITY", "ncessch": "280480001581"}], "districts": [{"name": "WEST BOLIVAR CONS SCHOOL DIST", "lat": 33.7336605, "lon": -90.8964455, "proficiency": 0.05, "schoolCount": 2}, {"name": "NORTH BOLIVAR CONS SCHOOL DIST", "lat": 33.945801, "lon": -90.762209, "proficiency": 0.05, "schoolCount": 1}, {"name": "SUNFLOWER CTY CONS SCHOOL DISTRICT", "lat": 33.5544876, "lon": -90.56640039999999, "proficiency": 0.139, "schoolCount": 5}, {"name": "REIMAGINE PREP", "lat": 32.267283, "lon": -90.222074, "proficiency": 0.17, "schoolCount": 1}, {"name": "STARKVILLE- OKTIBBEHA CONS DIST", "lat": 33.462948, "lon": -88.8058345, "proficiency": 0.125, "schoolCount": 2}, {"name": "MIDTOWN PUBLIC CHARTER SCHOOL", "lat": 32.361112, "lon": -90.152142, "proficiency": 0.025, "schoolCount": 1}, {"name": "WEST POINT CONSOLIDATED SCHOOL DIST", "lat": 33.592965, "lon": -88.631696, "proficiency": 0.12, "schoolCount": 1}, {"name": "JOEL E. SMILLOW PREP", "lat": 32.355086, "lon": -90.160222, "proficiency": 0.025, "schoolCount": 1}, {"name": "HOLMES COUNTY CONSOLIDATED SD", "lat": 33.116039, "lon": -90.0228765, "proficiency": 0.05, "schoolCount": 2}, {"name": "WINONA-MONTGOMERY CONSOLIDATED", "lat": 33.487508, "lon": -89.734729, "proficiency": 0.22, "schoolCount": 1}, {"name": "GREENWOOD-LEFLORE CONS SCH DISTRICT", "lat": 33.50084566666667, "lon": -90.22800566666666, "proficiency": 0.0333, "schoolCount": 3}, {"name": "ABERDEEN SCHOOL DIST", "lat": 33.829449, "lon": -88.550154, "proficiency": 0.17, "schoolCount": 1}, {"name": "ALCORN SCHOOL DIST", "lat": 34.87221533333334, "lon": -88.544557, "proficiency": 0.4117, "schoolCount": 3}, {"name": "AMITE COUNTY SCHOOL DISTRICT", "lat": 31.154862, "lon": -90.799278, "proficiency": 0.12, "schoolCount": 1}, {"name": "AMORY SCHOOL DIST", "lat": 33.9927775, "lon": -88.472497, "proficiency": 0.17, "schoolCount": 2}, {"name": "ATTALA CO SCHOOL DIST", "lat": 33.073023, "lon": -89.5788255, "proficiency": 0.125, "schoolCount": 2}, {"name": "BALDWYN SCHOOL DISTRICT", "lat": 34.51421, "lon": -88.633007, "proficiency": 0.12, "schoolCount": 1}, {"name": "BAY ST LOUIS WAVELAND SCHOOL DIST", "lat": 30.322319, "lon": -89.348104, "proficiency": 0.52, "schoolCount": 1}, {"name": "BENTON CO SCHOOL DIST", "lat": 34.7260055, "lon": -89.183556, "proficiency": 0.3475, "schoolCount": 2}, {"name": "BILOXI PUBLIC SCHOOL DIST", "lat": 30.43398, "lon": -88.949419, "proficiency": 0.61, "schoolCount": 1}, {"name": "CLEVELAND SCHOOL DIST", "lat": 33.739092, "lon": -90.712506, "proficiency": 0.17, "schoolCount": 1}, {"name": "BOONEVILLE SCHOOL DIST", "lat": 34.669758, "lon": -88.567112, "proficiency": 0.37, "schoolCount": 1}, {"name": "BROOKHAVEN SCHOOL DIST", "lat": 31.579856499999998, "lon": -90.44390999999999, "proficiency": 0.22, "schoolCount": 2}, {"name": "CALHOUN CO SCHOOL DIST", "lat": 33.909128, "lon": -89.27471433333334, "proficiency": 0.3117, "schoolCount": 3}, {"name": "CANTON PUBLIC SCHOOL DIST", "lat": 32.6230065, "lon": -90.0225825, "proficiency": 0.12, "schoolCount": 2}, {"name": "CARROLL COUNTY SCHOOL DIST", "lat": 33.520556, "lon": -89.920705, "proficiency": 0.12, "schoolCount": 1}, {"name": "CHOCTAW CO SCHOOL DIST", "lat": 33.310905, "lon": -89.164852, "proficiency": 0.27, "schoolCount": 1}, {"name": "CLAIBORNE CO SCHOOL DIST", "lat": 31.952521, "lon": -90.988407, "proficiency": 0.075, "schoolCount": 1}, {"name": "CLARKSDALE MUNICIPAL SCHOOL DIST", "lat": 34.194367, "lon": -90.554581, "proficiency": 0.075, "schoolCount": 1}, {"name": "CLINTON PUBLIC SCHOOL DIST", "lat": 32.344183, "lon": -90.312669, "proficiency": 0.65, "schoolCount": 1}, {"name": "COAHOMA COUNTY SCHOOL DISTRICT", "lat": 34.208225, "lon": -90.607909, "proficiency": 0.075, "schoolCount": 1}, {"name": "COFFEEVILLE SCHOOL DIST", "lat": 33.976979, "lon": -89.674961, "proficiency": 0.05, "schoolCount": 1}, {"name": "COLUMBIA SCHOOL DISTRICT", "lat": 31.261613, "lon": -89.827282, "proficiency": 0.22, "schoolCount": 1}, {"name": "MS SCHLS FOR THE DEAF AND THE BLIND", "lat": 32.341025, "lon": -90.156566, "proficiency": 0.1075, "schoolCount": 2}, {"name": "MDHS DIVISION OF YOUTH SERVICES", "lat": 32.220456, "lon": -90.506132, "proficiency": 0.245, "schoolCount": 1}, {"name": "COLUMBUS MUNICIPAL SCHOOL DIST", "lat": 33.564366, "lon": -88.437138, "proficiency": 0.075, "schoolCount": 1}, {"name": "COPIAH CO SCHOOL DIST", "lat": 31.833707500000003, "lon": -90.378917, "proficiency": 0.245, "schoolCount": 2}, {"name": "CORINTH SCHOOL DIST", "lat": 34.94293, "lon": -88.512206, "proficiency": 0.37, "schoolCount": 1}, {"name": "COVINGTON COUNTY SCHOOL DISTRICT", "lat": 31.655596000000003, "lon": -89.57406833333333, "proficiency": 0.1467, "schoolCount": 3}, {"name": "DESOTO CO SCHOOL DIST", "lat": 34.922007625, "lon": -89.94228, "proficiency": 0.535, "schoolCount": 8}, {"name": "EAST JASPER CONSOLIDATED SCH DIST", "lat": 31.895528, "lon": -88.990988, "proficiency": 0.32, "schoolCount": 1}, {"name": "EAST TALLAHATCHIE CONSOL SCH DIST", "lat": 34.016519, "lon": -90.05138, "proficiency": 0.075, "schoolCount": 1}, {"name": "ENTERPRISE SCHOOL DIST", "lat": 32.171287, "lon": -88.806366, "proficiency": 0.67, "schoolCount": 1}, {"name": "FOREST MUNICIPAL SCHOOL DIST", "lat": 32.359258, "lon": -89.464648, "proficiency": 0.22, "schoolCount": 1}, {"name": "FORREST COUNTY SCHOOL DISTRICT", "lat": 31.24049375, "lon": -89.26963625, "proficiency": 0.3463, "schoolCount": 4}, {"name": "FRANKLIN CO SCHOOL DIST", "lat": 31.469294, "lon": -90.891733, "proficiency": 0.37, "schoolCount": 1}, {"name": "GEORGE CO SCHOOL DIST", "lat": 30.920469, "lon": -88.596178, "proficiency": 0.37, "schoolCount": 1}, {"name": "GREENE COUNTY SCHOOL DISTRICT", "lat": 31.206474333333333, "lon": -88.71556933333333, "proficiency": 0.1583, "schoolCount": 3}, {"name": "GREENVILLE PUBLIC SCHOOLS", "lat": 33.3993715, "lon": -91.053098, "proficiency": 0.025, "schoolCount": 2}, {"name": "GRENADA SCHOOL DIST", "lat": 33.760003, "lon": -89.803241, "proficiency": 0.52, "schoolCount": 1}, {"name": "GULFPORT SCHOOL DIST", "lat": 30.385719, "lon": -89.0828285, "proficiency": 0.395, "schoolCount": 2}, {"name": "HANCOCK CO SCHOOL DIST", "lat": 30.376356, "lon": -89.44252, "proficiency": 0.37, "schoolCount": 1}, {"name": "HARRISON CO SCHOOL DIST", "lat": 30.510543333333334, "lon": -89.02239166666668, "proficiency": 0.6033, "schoolCount": 3}, {"name": "HATTIESBURG PUBLIC SCHOOL DIST", "lat": 31.296011, "lon": -89.294978, "proficiency": 0.22, "schoolCount": 1}, {"name": "HAZLEHURST CITY SCHOOL DISTRICT", "lat": 31.851614, "lon": -90.386852, "proficiency": 0.075, "schoolCount": 1}, {"name": "HINDS CO SCHOOL DIST", "lat": 32.22687475, "lon": -90.4710285, "proficiency": 0.2712, "schoolCount": 4}, {"name": "HOLLANDALE SCHOOL DIST", "lat": 33.16641, "lon": -90.859427, "proficiency": 0.05, "schoolCount": 1}, {"name": "HOLLY SPRINGS SCHOOL DIST", "lat": 34.769182, "lon": -89.440912, "proficiency": 0.12, "schoolCount": 1}, {"name": "HUMPHREYS CO SCHOOL DIST", "lat": 33.189825, "lon": -90.487604, "proficiency": 0.025, "schoolCount": 1}, {"name": "ITAWAMBA COUNTY SCHOOL DIST", "lat": 34.265491, "lon": -88.37889566666666, "proficiency": 0.28, "schoolCount": 3}, {"name": "JACKSON CO SCHOOL DIST", "lat": 30.53753933333333, "lon": -88.66655766666668, "proficiency": 0.5667, "schoolCount": 3}, {"name": "JACKSON PUBLIC SCHOOL DISTRICT", "lat": 32.3232686, "lon": -90.2096943, "proficiency": 0.1085, "schoolCount": 10}, {"name": "JEFFERSON CO SCHOOL DIST", "lat": 31.698302, "lon": -91.077436, "proficiency": 0.075, "schoolCount": 1}, {"name": "JEFFERSON DAVIS CO SCHOOL DIST", "lat": 31.5398735, "lon": -89.79395450000001, "proficiency": 0.085, "schoolCount": 2}, {"name": "JONES CO SCHOOL DIST", "lat": 31.676199999999998, "lon": -89.15713633333333, "proficiency": 0.47, "schoolCount": 3}, {"name": "KEMPER CO SCHOOL DIST", "lat": 32.77292, "lon": -88.65750700000001, "proficiency": 0.095, "schoolCount": 2}, {"name": "KOSCIUSKO SCHOOL DISTRICT", "lat": 33.056621, "lon": -89.585679, "proficiency": 0.52, "schoolCount": 1}, {"name": "LAFAYETTE CO SCHOOL DIST", "lat": 34.349534, "lon": -89.498047, "proficiency": 0.37, "schoolCount": 1}, {"name": "LAMAR COUNTY SCHOOL DISTRICT", "lat": 31.2315955, "lon": -89.48980725, "proficiency": 0.4437, "schoolCount": 4}, {"name": "LAUDERDALE CO SCHOOL DIST", "lat": 32.3831315, "lon": -88.6900225, "proficiency": 0.42, "schoolCount": 4}, {"name": "LAUREL SCHOOL DISTRICT", "lat": 31.680596, "lon": -89.149116, "proficiency": 0.12, "schoolCount": 1}, {"name": "LAWRENCE CO SCHOOL DIST", "lat": 31.566357, "lon": -90.08594, "proficiency": 0.1233, "schoolCount": 3}, {"name": "LEAKE CO SCHOOL DIST", "lat": 32.667477, "lon": -89.5038185, "proficiency": 0.1125, "schoolCount": 2}, {"name": "LEE COUNTY SCHOOL DISTRICT", "lat": 34.26109625, "lon": -88.6544785, "proficiency": 0.34, "schoolCount": 4}, {"name": "LELAND SCHOOL DIST", "lat": 33.413405, "lon": -90.898918, "proficiency": 0.05, "schoolCount": 1}, {"name": "LINCOLN COUNTY SCHOOL DISTRICT", "lat": 31.50857475, "lon": -90.49141825000001, "proficiency": 0.3138, "schoolCount": 4}, {"name": "LONG BEACH SCHOOL DIST", "lat": 30.359236, "lon": -89.150052, "proficiency": 0.57, "schoolCount": 1}, {"name": "LOUISVILLE MUNICIPAL SCHOOL DIST", "lat": 33.03104966666667, "lon": -89.011689, "proficiency": 0.47, "schoolCount": 3}, {"name": "LOWNDES CO SCHOOL DIST", "lat": 33.53505966666667, "lon": -88.383201, "proficiency": 0.3617, "schoolCount": 3}, {"name": "MADISON CO SCHOOL DIST", "lat": 32.54000575, "lon": -90.05793625, "proficiency": 0.4225, "schoolCount": 4}, {"name": "MARION CO SCHOOL DIST", "lat": 31.228112000000003, "lon": -89.849149, "proficiency": 0.27, "schoolCount": 2}, {"name": "MARSHALL CO SCHOOL DIST", "lat": 34.82542, "lon": -89.49337866666667, "proficiency": 0.155, "schoolCount": 3}, {"name": "MCCOMB SCHOOL DISTRICT", "lat": 31.245364, "lon": -90.466217, "proficiency": 0.12, "schoolCount": 1}, {"name": "MERIDIAN PUBLIC SCHOOLS", "lat": 32.380319666666665, "lon": -88.71190566666667, "proficiency": 0.0733, "schoolCount": 3}, {"name": "MONROE CO SCHOOL DIST", "lat": 33.930798333333335, "lon": -88.40413633333333, "proficiency": 0.4367, "schoolCount": 3}, {"name": "MOSS POINT SEPARATE SCHOOL DIST", "lat": 30.408248, "lon": -88.545876, "proficiency": 0.27, "schoolCount": 1}, {"name": "NATCHEZ-ADAMS SCHOOL DISTRICT", "lat": 31.5725835, "lon": -91.36222000000001, "proficiency": 0.0725, "schoolCount": 2}, {"name": "NESHOBA COUNTY SCHOOL DISTRICT", "lat": 32.765416, "lon": -89.0908895, "proficiency": 0.27, "schoolCount": 2}, {"name": "NETTLETON SCHOOL DIST", "lat": 34.091234, "lon": -88.619138, "proficiency": 0.27, "schoolCount": 1}, {"name": "NEW ALBANY PUBLIC SCHOOLS", "lat": 34.488204, "lon": -89.006539, "proficiency": 0.47, "schoolCount": 1}, {"name": "NEWTON COUNTY SCHOOL DISTRICT", "lat": 32.424263, "lon": -89.094833, "proficiency": 0.32, "schoolCount": 1}, {"name": "NEWTON MUNICIPAL SCHOOL DISTRICT", "lat": 32.320145, "lon": -89.152129, "proficiency": 0.15, "schoolCount": 1}, {"name": "NORTH PANOLA SCHOOL DISTRICT", "lat": 34.522539, "lon": -89.945344, "proficiency": 0.025, "schoolCount": 1}, {"name": "NORTH PIKE SCHOOL DIST", "lat": 31.279777, "lon": -90.333503, "proficiency": 0.32, "schoolCount": 1}, {"name": "NORTH TIPPAH SCHOOL DIST", "lat": 34.90845933333333, "lon": -88.904005, "proficiency": 0.3967, "schoolCount": 3}, {"name": "NOXUBEE COUNTY SCHOOL DISTRICT", "lat": 33.112511, "lon": -88.557469, "proficiency": 0.025, "schoolCount": 1}, {"name": "OCEAN SPRINGS SCHOOL DIST", "lat": 30.396425, "lon": -88.756241, "proficiency": 0.59, "schoolCount": 1}, {"name": "OKOLONA SEPARATE SCHOOL DIST", "lat": 34.013151, "lon": -88.753244, "proficiency": 0.05, "schoolCount": 1}, {"name": "OXFORD SCHOOL DISTRICT", "lat": 34.36811, "lon": -89.507051, "proficiency": 0.41, "schoolCount": 1}, {"name": "PASCAGOULA-GAUTIER SCHOOL DISTRICT", "lat": 30.370593333333332, "lon": -88.56808066666667, "proficiency": 0.2733, "schoolCount": 3}, {"name": "PASS CHRISTIAN PUBLIC SCHOOL DIST", "lat": 30.315389, "lon": -89.254384, "proficiency": 0.42, "schoolCount": 1}, {"name": "PEARL PUBLIC SCHOOL DISTRICT", "lat": 32.278504, "lon": -90.107664, "proficiency": 0.51, "schoolCount": 1}, {"name": "PETAL SCHOOL DIST", "lat": 31.347879, "lon": -89.25945, "proficiency": 0.62, "schoolCount": 1}, {"name": "PEARL RIVER CO SCHOOL DIST", "lat": 30.626317, "lon": -89.654297, "proficiency": 0.42, "schoolCount": 1}, {"name": "PERRY CO SCHOOL DIST", "lat": 31.204392, "lon": -89.026825, "proficiency": 0.32, "schoolCount": 1}, {"name": "PHILADELPHIA PUBLIC SCHOOL DIST", "lat": 32.773617, "lon": -89.111429, "proficiency": 0.27, "schoolCount": 1}, {"name": "PICAYUNE SCHOOL DISTRICT", "lat": 30.530728, "lon": -89.687373, "proficiency": 0.37, "schoolCount": 1}, {"name": "PONTOTOC CO SCHOOL DIST", "lat": 34.2925835, "lon": -89.054765, "proficiency": 0.395, "schoolCount": 2}, {"name": "PONTOTOC CITY SCHOOLS", "lat": 34.25145, "lon": -88.999367, "proficiency": 0.52, "schoolCount": 1}, {"name": "POPLARVILLE SEPARATE SCHOOL DIST", "lat": 30.829182, "lon": -89.523831, "proficiency": 0.47, "schoolCount": 1}, {"name": "PRENTISS CO SCHOOL DIST", "lat": 34.6277622, "lon": -88.5449608, "proficiency": 0.376, "schoolCount": 5}, {"name": "QUITMAN SCHOOL DIST", "lat": 32.054089, "lon": -88.734188, "proficiency": 0.025, "schoolCount": 1}, {"name": "QUITMAN CO SCHOOL DIST", "lat": 34.254596, "lon": -90.277757, "proficiency": 0.075, "schoolCount": 1}, {"name": "RANKIN CO SCHOOL DIST", "lat": 32.277842666666665, "lon": -89.95513155555555, "proficiency": 0.3983, "schoolCount": 9}, {"name": "RICHTON SCHOOL DIST", "lat": 31.350724, "lon": -88.942375, "proficiency": 0.245, "schoolCount": 1}, {"name": "SCOTT CO SCHOOL DIST", "lat": 32.44800425, "lon": -89.4552145, "proficiency": 0.3075, "schoolCount": 4}, {"name": "SENATOBIA MUNICIPAL SCHOOL DIST", "lat": 34.621168, "lon": -89.965741, "proficiency": 0.32, "schoolCount": 1}, {"name": "SOUTH DELTA SCHOOL DISTRICT", "lat": 32.973203, "lon": -90.826391, "proficiency": 0.05, "schoolCount": 1}, {"name": "SIMPSON CO SCHOOL DIST", "lat": 31.905057333333332, "lon": -89.89793966666667, "proficiency": 0.18, "schoolCount": 3}, {"name": "SMITH CO SCHOOL DIST", "lat": 31.895848, "lon": -89.49829566666666, "proficiency": 0.4633, "schoolCount": 3}, {"name": "SOUTH PANOLA SCHOOL DISTRICT", "lat": 34.268290500000006, "lon": -89.9396225, "proficiency": 0.245, "schoolCount": 2}, {"name": "SOUTH PIKE SCHOOL DIST", "lat": 31.148341, "lon": -90.462984, "proficiency": 0.075, "schoolCount": 1}, {"name": "SOUTH TIPPAH SCHOOL DIST", "lat": 34.68527133333333, "lon": -88.92452300000001, "proficiency": 0.37, "schoolCount": 3}, {"name": "STONE CO SCHOOL DIST", "lat": 30.850857, "lon": -89.1312, "proficiency": 0.47, "schoolCount": 1}, {"name": "TATE CO SCHOOL DIST", "lat": 34.655056333333334, "lon": -89.981296, "proficiency": 0.1633, "schoolCount": 3}, {"name": "TISHOMINGO CO SP MUN SCH DIST", "lat": 34.69742975, "lon": -88.23743675, "proficiency": 0.4088, "schoolCount": 4}, {"name": "TUNICA COUNTY SCHOOL DISTRICT", "lat": 34.706066, "lon": -90.374498, "proficiency": 0.27, "schoolCount": 1}, {"name": "TUPELO PUBLIC SCHOOL DIST", "lat": 34.250251, "lon": -88.722453, "proficiency": 0.39, "schoolCount": 1}, {"name": "UNION CO SCHOOL DIST", "lat": 34.46853725, "lon": -89.0415975, "proficiency": 0.57, "schoolCount": 4}, {"name": "UNION PUBLIC SCHOOL DIST", "lat": 32.567544, "lon": -89.116107, "proficiency": 0.62, "schoolCount": 1}, {"name": "WALTHALL CO SCHOOL DIST", "lat": 31.137197666666665, "lon": -90.087914, "proficiency": 0.2217, "schoolCount": 3}, {"name": "VICKSBURG WARREN SCHOOL DIST", "lat": 32.3439585, "lon": -90.8694515, "proficiency": 0.12, "schoolCount": 2}, {"name": "WATER VALLEY SCHOOL DISTRICT", "lat": 34.157403, "lon": -89.641332, "proficiency": 0.22, "schoolCount": 1}, {"name": "WAYNE CO SCHOOL DIST", "lat": 31.632946200000003, "lon": -88.66413700000001, "proficiency": 0.207, "schoolCount": 5}, {"name": "WEBSTER CO SCHOOL DIST", "lat": 33.582302, "lon": -89.177954, "proficiency": 0.52, "schoolCount": 2}, {"name": "WEST JASPER CONSOLIDATED SCHOOLS", "lat": 31.924992, "lon": -89.26972549999999, "proficiency": 0.345, "schoolCount": 2}, {"name": "WEST TALLAHATCHIE SCHOOL DISTRICT", "lat": 33.948568, "lon": -90.35219, "proficiency": 0.05, "schoolCount": 1}, {"name": "WESTERN LINE SCHOOL DISTRICT", "lat": 33.306288, "lon": -91.0262905, "proficiency": 0.22, "schoolCount": 2}, {"name": "WILKINSON CO SCHOOL DIST", "lat": 31.093238, "lon": -91.06363, "proficiency": 0.12, "schoolCount": 1}, {"name": "YAZOO CITY MUNICIPAL SCHOOL DIST", "lat": 32.856231, "lon": -90.409269, "proficiency": 0.025, "schoolCount": 1}, {"name": "YAZOO CO SCHOOL DIST", "lat": 32.781378, "lon": -90.375126, "proficiency": 0.12, "schoolCount": 1}], "cities": [{"name": "ROSEDALE", "lat": 33.856767, "lon": -91.026453, "proficiency": 0.05, "schoolCount": 1}, {"name": "SHAW", "lat": 33.610554, "lon": -90.766438, "proficiency": 0.05, "schoolCount": 1}, {"name": "SHELBY", "lat": 33.945801, "lon": -90.762209, "proficiency": 0.05, "schoolCount": 1}, {"name": "RULEVILLE", "lat": 33.723594, "lon": -90.548374, "proficiency": 0.075, "schoolCount": 1}, {"name": "DREW", "lat": 33.806443, "lon": -90.522674, "proficiency": 0.05, "schoolCount": 1}, {"name": "Indianola", "lat": 33.441793, "lon": -90.654166, "proficiency": 0.17, "schoolCount": 1}, {"name": "INVERNESS", "lat": 33.348864, "lon": -90.594465, "proficiency": 0.3, "schoolCount": 1}, {"name": "Moorhead", "lat": 33.451744, "lon": -90.512323, "proficiency": 0.1, "schoolCount": 1}, {"name": "JACKSON", "lat": 32.32482125, "lon": -90.19510275, "proficiency": 0.0979, "schoolCount": 12}, {"name": "Starkville", "lat": 33.462948, "lon": -88.8058345, "proficiency": 0.125, "schoolCount": 2}, {"name": "WEST POINT", "lat": 33.592965, "lon": -88.631696, "proficiency": 0.12, "schoolCount": 1}, {"name": "Durant", "lat": 33.065148, "lon": -89.862003, "proficiency": 0.075, "schoolCount": 1}, {"name": "Lexington", "lat": 33.16693, "lon": -90.18375, "proficiency": 0.025, "schoolCount": 1}, {"name": "Winona", "lat": 33.487508, "lon": -89.734729, "proficiency": 0.22, "schoolCount": 1}, {"name": "GREENWOOD", "lat": 33.500095, "lon": -90.167967, "proficiency": 0.025, "schoolCount": 1}, {"name": "ITTA BENA", "lat": 33.48872, "lon": -90.320809, "proficiency": 0.05, "schoolCount": 1}, {"name": "Greenwood", "lat": 33.513722, "lon": -90.195241, "proficiency": 0.025, "schoolCount": 1}, {"name": "Aberdeen", "lat": 33.829449, "lon": -88.550154, "proficiency": 0.17, "schoolCount": 1}, {"name": "CORINTH", "lat": 34.890677499999995, "lon": -88.536118, "proficiency": 0.3075, "schoolCount": 2}, {"name": "GLEN", "lat": 34.902547, "lon": -88.432441, "proficiency": 0.47, "schoolCount": 1}, {"name": "Corinth", "lat": 34.875674, "lon": -88.6412, "proficiency": 0.52, "schoolCount": 1}, {"name": "LIBERTY", "lat": 31.154862, "lon": -90.799278, "proficiency": 0.12, "schoolCount": 1}, {"name": "Amory", "lat": 33.9927775, "lon": -88.472497, "proficiency": 0.17, "schoolCount": 2}, {"name": "ETHEL", "lat": 33.122945, "lon": -89.467999, "proficiency": 0.15, "schoolCount": 1}, {"name": "SALLIS", "lat": 33.023101, "lon": -89.689652, "proficiency": 0.1, "schoolCount": 1}, {"name": "BALDWYN", "lat": 34.51421, "lon": -88.633007, "proficiency": 0.12, "schoolCount": 1}, {"name": "Bay St. Louis", "lat": 30.322319, "lon": -89.348104, "proficiency": 0.52, "schoolCount": 1}, {"name": "Ashland", "lat": 34.838305, "lon": -89.175958, "proficiency": 0.05, "schoolCount": 1}, {"name": "Hickory Flat", "lat": 34.613706, "lon": -89.191154, "proficiency": 0.645, "schoolCount": 1}, {"name": "Biloxi", "lat": 30.43398, "lon": -88.949419, "proficiency": 0.61, "schoolCount": 1}, {"name": "CLEVELAND", "lat": 33.739092, "lon": -90.712506, "proficiency": 0.17, "schoolCount": 1}, {"name": "Booneville", "lat": 34.669506, "lon": -88.592828, "proficiency": 0.3025, "schoolCount": 4}, {"name": "BROOKHAVEN", "lat": 31.5507178, "lon": -90.479322, "proficiency": 0.305, "schoolCount": 5}, {"name": "BRUCE", "lat": 33.993217, "lon": -89.337922, "proficiency": 0.42, "schoolCount": 1}, {"name": "CALHOUN CITY", "lat": 33.856891, "lon": -89.31549, "proficiency": 0.17, "schoolCount": 1}, {"name": "VARDAMAN", "lat": 33.877276, "lon": -89.170731, "proficiency": 0.345, "schoolCount": 1}, {"name": "Canton", "lat": 32.652269, "lon": -89.95474966666666, "proficiency": 0.13, "schoolCount": 3}, {"name": "NORTH CARROLLTON", "lat": 33.520556, "lon": -89.920705, "proficiency": 0.12, "schoolCount": 1}, {"name": "ACKERMAN", "lat": 33.310905, "lon": -89.164852, "proficiency": 0.27, "schoolCount": 1}, {"name": "PORT GIBSON", "lat": 31.952521, "lon": -90.988407, "proficiency": 0.075, "schoolCount": 1}, {"name": "CLARKSDALE", "lat": 34.201296, "lon": -90.581245, "proficiency": 0.075, "schoolCount": 2}, {"name": "Clinton", "lat": 32.344183, "lon": -90.312669, "proficiency": 0.65, "schoolCount": 1}, {"name": "COFFEEVILLE", "lat": 33.976979, "lon": -89.674961, "proficiency": 0.05, "schoolCount": 1}, {"name": "Columbia", "lat": 31.240745500000003, "lon": -89.82427899999999, "proficiency": 0.22, "schoolCount": 2}, {"name": "Jackson", "lat": 32.333453999999996, "lon": -90.20109333333333, "proficiency": 0.115, "schoolCount": 3}, {"name": "RAYMOND", "lat": 32.220456, "lon": -90.506132, "proficiency": 0.245, "schoolCount": 1}, {"name": "Columbus", "lat": 33.564366, "lon": -88.437138, "proficiency": 0.075, "schoolCount": 1}, {"name": "CRYSTAL SPRINGS", "lat": 31.968136, "lon": -90.365344, "proficiency": 0.12, "schoolCount": 1}, {"name": "Wesson", "lat": 31.699279, "lon": -90.39249, "proficiency": 0.37, "schoolCount": 1}, {"name": "COLLINS", "lat": 31.646208, "lon": -89.564948, "proficiency": 0.12, "schoolCount": 1}, {"name": "Mount Olive", "lat": 31.759898, "lon": -89.657947, "proficiency": 0.1, "schoolCount": 1}, {"name": "Seminary", "lat": 31.560682, "lon": -89.49931, "proficiency": 0.22, "schoolCount": 1}, {"name": "HERNANDO", "lat": 34.832703, "lon": -89.977633, "proficiency": 0.76, "schoolCount": 1}, {"name": "HORN LAKE", "lat": 34.948919, "lon": -90.035423, "proficiency": 0.38, "schoolCount": 1}, {"name": "OLIVE BRANCH", "lat": 34.955894, "lon": -89.824174, "proficiency": 0.42, "schoolCount": 1}, {"name": "SOUTHAVEN", "lat": 34.9583775, "lon": -89.975105, "proficiency": 0.43, "schoolCount": 2}, {"name": "LAKE CORMORANT", "lat": 34.908227, "lon": -90.169029, "proficiency": 0.42, "schoolCount": 1}, {"name": "Hernando", "lat": 34.823065, "lon": -89.824008, "proficiency": 0.82, "schoolCount": 1}, {"name": "Olive Branch", "lat": 34.990498, "lon": -89.757763, "proficiency": 0.62, "schoolCount": 1}, {"name": "Heidelberg", "lat": 31.895528, "lon": -88.990988, "proficiency": 0.32, "schoolCount": 1}, {"name": "CHARLESTON", "lat": 34.016519, "lon": -90.05138, "proficiency": 0.075, "schoolCount": 1}, {"name": "ENTERPRISE", "lat": 32.171287, "lon": -88.806366, "proficiency": 0.67, "schoolCount": 1}, {"name": "FOREST", "lat": 32.406768, "lon": -89.468122, "proficiency": 0.27, "schoolCount": 2}, {"name": "Hattiesburg", "lat": 31.29748, "lon": -89.328162, "proficiency": 0.3137, "schoolCount": 4}, {"name": "Brooklyn", "lat": 31.057042, "lon": -89.18499, "proficiency": 0.57, "schoolCount": 1}, {"name": "Meadville", "lat": 31.469294, "lon": -90.891733, "proficiency": 0.37, "schoolCount": 1}, {"name": "LUCEDALE", "lat": 30.920469, "lon": -88.596178, "proficiency": 0.37, "schoolCount": 1}, {"name": "McLain", "lat": 31.11221, "lon": -88.82848, "proficiency": 0.3, "schoolCount": 1}, {"name": "Richton", "lat": 31.349812, "lon": -88.76241, "proficiency": 0.15, "schoolCount": 1}, {"name": "Leakesville", "lat": 31.157401, "lon": -88.555818, "proficiency": 0.025, "schoolCount": 1}, {"name": "Greenville", "lat": 33.408373, "lon": -91.038669, "proficiency": 0.025, "schoolCount": 1}, {"name": "GREENVILLE", "lat": 33.387781000000004, "lon": -91.037129, "proficiency": 0.0725, "schoolCount": 2}, {"name": "GRENADA", "lat": 33.760003, "lon": -89.803241, "proficiency": 0.52, "schoolCount": 1}, {"name": "GULFPORT", "lat": 30.404006, "lon": -89.055169, "proficiency": 0.52, "schoolCount": 1}, {"name": "Gulfport", "lat": 30.367432, "lon": -89.110488, "proficiency": 0.27, "schoolCount": 1}, {"name": "Kiln", "lat": 30.376356, "lon": -89.44252, "proficiency": 0.37, "schoolCount": 1}, {"name": "DIBERVILLE", "lat": 30.441943, "lon": -88.893685, "proficiency": 0.52, "schoolCount": 1}, {"name": "BILOXI", "lat": 30.522613, "lon": -88.990664, "proficiency": 0.77, "schoolCount": 1}, {"name": "SAUCIER", "lat": 30.567074, "lon": -89.182826, "proficiency": 0.52, "schoolCount": 1}, {"name": "HATTIESBURG", "lat": 31.296011, "lon": -89.294978, "proficiency": 0.22, "schoolCount": 1}, {"name": "HAZLEHURST", "lat": 31.851614, "lon": -90.386852, "proficiency": 0.075, "schoolCount": 1}, {"name": "Terry", "lat": 32.190394, "lon": -90.312111, "proficiency": 0.27, "schoolCount": 1}, {"name": "Raymond", "lat": 32.250078, "lon": -90.438773, "proficiency": 0.42, "schoolCount": 1}, {"name": "Utica", "lat": 32.102552, "lon": -90.618092, "proficiency": 0.345, "schoolCount": 1}, {"name": "Bolton", "lat": 32.364475, "lon": -90.515138, "proficiency": 0.05, "schoolCount": 1}, {"name": "HOLLANDALE", "lat": 33.16641, "lon": -90.859427, "proficiency": 0.05, "schoolCount": 1}, {"name": "HOLLY SPRINGS", "lat": 34.769182, "lon": -89.440912, "proficiency": 0.12, "schoolCount": 1}, {"name": "Belzoni", "lat": 33.189825, "lon": -90.487604, "proficiency": 0.025, "schoolCount": 1}, {"name": "Fulton", "lat": 34.228944, "lon": -88.390476, "proficiency": 0.32, "schoolCount": 1}, {"name": "MANTACHIE", "lat": 34.328473, "lon": -88.489514, "proficiency": 0.37, "schoolCount": 1}, {"name": "Tremont", "lat": 34.239056, "lon": -88.256697, "proficiency": 0.15, "schoolCount": 1}, {"name": "Hurley", "lat": 30.657451, "lon": -88.518128, "proficiency": 0.62, "schoolCount": 1}, {"name": "Ocean Springs", "lat": 30.4151105, "lon": -88.775172, "proficiency": 0.5, "schoolCount": 2}, {"name": "Vancleave", "lat": 30.521371, "lon": -88.687442, "proficiency": 0.67, "schoolCount": 1}, {"name": "Fayette", "lat": 31.698302, "lon": -91.077436, "proficiency": 0.075, "schoolCount": 1}, {"name": "BASSFIELD", "lat": 31.498263, "lon": -89.732049, "proficiency": 0.05, "schoolCount": 1}, {"name": "PRENTISS", "lat": 31.581484, "lon": -89.85586, "proficiency": 0.12, "schoolCount": 1}, {"name": "Laurel", "lat": 31.699551, "lon": -89.14061766666667, "proficiency": 0.3867, "schoolCount": 3}, {"name": "Ellisville", "lat": 31.610543, "lon": -89.198672, "proficiency": 0.37, "schoolCount": 1}, {"name": "DEKALB", "lat": 32.774846, "lon": -88.666269, "proficiency": 0.22, "schoolCount": 1}, {"name": "DE KALB", "lat": 32.770994, "lon": -88.648745, "proficiency": -0.03, "schoolCount": 1}, {"name": "KOSCIUSKO", "lat": 33.056621, "lon": -89.585679, "proficiency": 0.52, "schoolCount": 1}, {"name": "Oxford", "lat": 34.349534, "lon": -89.498047, "proficiency": 0.37, "schoolCount": 1}, {"name": "Lumberton", "lat": 31.08231, "lon": -89.59124, "proficiency": 0.495, "schoolCount": 1}, {"name": "Purvis", "lat": 31.140107, "lon": -89.406518, "proficiency": 0.42, "schoolCount": 1}, {"name": "Sumrall", "lat": 31.418978, "lon": -89.542378, "proficiency": 0.42, "schoolCount": 1}, {"name": "Collinsville", "lat": 32.527197, "lon": -88.820334, "proficiency": 0.57, "schoolCount": 1}, {"name": "Meridain", "lat": 32.44754, "lon": -88.67315, "proficiency": 0.27, "schoolCount": 1}, {"name": "Meridian", "lat": 32.2788945, "lon": -88.633303, "proficiency": 0.42, "schoolCount": 2}, {"name": "Monticello", "lat": 31.483553, "lon": -90.13566349999999, "proficiency": 0.16, "schoolCount": 2}, {"name": "New Hebron", "lat": 31.731965, "lon": -89.986493, "proficiency": 0.05, "schoolCount": 1}, {"name": "WALNUT GROVE", "lat": 32.596616, "lon": -89.456681, "proficiency": 0.15, "schoolCount": 1}, {"name": "CARTHAGE", "lat": 32.738338, "lon": -89.550956, "proficiency": 0.075, "schoolCount": 1}, {"name": "GUNTOWN", "lat": 34.446558, "lon": -88.66449, "proficiency": 0.42, "schoolCount": 1}, {"name": "PLANTERSVILLE", "lat": 34.202792, "lon": -88.661113, "proficiency": 0.15, "schoolCount": 1}, {"name": "MOOREVILLE", "lat": 34.27182, "lon": -88.57827, "proficiency": 0.57, "schoolCount": 1}, {"name": "Shannon", "lat": 34.123215, "lon": -88.714041, "proficiency": 0.22, "schoolCount": 1}, {"name": "LELAND", "lat": 33.413405, "lon": -90.898918, "proficiency": 0.05, "schoolCount": 1}, {"name": "BOGUE CHITTO", "lat": 31.440423, "lon": -90.456883, "proficiency": 0.17, "schoolCount": 1}, {"name": "Long Beach", "lat": 30.359236, "lon": -89.150052, "proficiency": 0.57, "schoolCount": 1}, {"name": "LOUISVILLE", "lat": 33.049288000000004, "lon": -88.9835235, "proficiency": 0.4325, "schoolCount": 2}, {"name": "NOXAPATER", "lat": 32.994573, "lon": -89.06802, "proficiency": 0.545, "schoolCount": 1}, {"name": "COLUMBUS", "lat": 33.462584500000006, "lon": -88.410864, "proficiency": 0.2825, "schoolCount": 2}, {"name": "CALEDONIA", "lat": 33.68001, "lon": -88.327875, "proficiency": 0.52, "schoolCount": 1}, {"name": "Ridgeland", "lat": 32.432099, "lon": -90.139522, "proficiency": 0.27, "schoolCount": 1}, {"name": "MADISON", "lat": 32.477867, "lon": -90.16831, "proficiency": 0.67, "schoolCount": 1}, {"name": "Madison", "lat": 32.539263, "lon": -90.104829, "proficiency": 0.6, "schoolCount": 1}, {"name": "Foxworth", "lat": 31.236346, "lon": -89.877022, "proficiency": 0.32, "schoolCount": 1}, {"name": "POTTS CAMP", "lat": 34.643285, "lon": -89.303086, "proficiency": 0.245, "schoolCount": 1}, {"name": "Holly Springs", "lat": 34.955429, "lon": -89.489858, "proficiency": 0.05, "schoolCount": 1}, {"name": "Byhalia", "lat": 34.877546, "lon": -89.687192, "proficiency": 0.17, "schoolCount": 1}, {"name": "MCCOMB", "lat": 31.245364, "lon": -90.466217, "proficiency": 0.12, "schoolCount": 1}, {"name": "MERIDIAN", "lat": 32.380319666666665, "lon": -88.71190566666667, "proficiency": 0.0733, "schoolCount": 3}, {"name": "HAMILTON", "lat": 33.742038, "lon": -88.410641, "proficiency": 0.445, "schoolCount": 1}, {"name": "AMORY", "lat": 33.976547, "lon": -88.415704, "proficiency": 0.62, "schoolCount": 1}, {"name": "SMITHVILLE", "lat": 34.07381, "lon": -88.386064, "proficiency": 0.245, "schoolCount": 1}, {"name": "MOSS POINT", "lat": 30.408248, "lon": -88.545876, "proficiency": 0.27, "schoolCount": 1}, {"name": "NATCHEZ", "lat": 31.5725835, "lon": -91.36222000000001, "proficiency": 0.0725, "schoolCount": 2}, {"name": "PHILADELPHIA", "lat": 32.76622, "lon": -89.091037, "proficiency": -0.03, "schoolCount": 1}, {"name": "Philadelphia", "lat": 32.7691145, "lon": -89.10108550000001, "proficiency": 0.42, "schoolCount": 2}, {"name": "Nettleton", "lat": 34.091234, "lon": -88.619138, "proficiency": 0.27, "schoolCount": 1}, {"name": "New Albany", "lat": 34.488204, "lon": -89.006539, "proficiency": 0.47, "schoolCount": 1}, {"name": "Decatur", "lat": 32.424263, "lon": -89.094833, "proficiency": 0.32, "schoolCount": 1}, {"name": "Newton", "lat": 32.320145, "lon": -89.152129, "proficiency": 0.15, "schoolCount": 1}, {"name": "Como", "lat": 34.522539, "lon": -89.945344, "proficiency": 0.025, "schoolCount": 1}, {"name": "Summit", "lat": 31.279777, "lon": -90.333503, "proficiency": 0.32, "schoolCount": 1}, {"name": "Walnut", "lat": 34.931292, "lon": -88.869815, "proficiency": 0.495, "schoolCount": 1}, {"name": "WALNUT", "lat": 34.94624, "lon": -88.905452, "proficiency": 0.545, "schoolCount": 1}, {"name": "Falkner", "lat": 34.847846, "lon": -88.936748, "proficiency": 0.15, "schoolCount": 1}, {"name": "MACON", "lat": 33.112511, "lon": -88.557469, "proficiency": 0.025, "schoolCount": 1}, {"name": "OKOLONA", "lat": 34.013151, "lon": -88.753244, "proficiency": 0.05, "schoolCount": 1}, {"name": "OXFORD", "lat": 34.36811, "lon": -89.507051, "proficiency": 0.41, "schoolCount": 1}, {"name": "PASCAGOULA", "lat": 30.364124, "lon": -88.529221, "proficiency": 0.38, "schoolCount": 1}, {"name": "Gautier", "lat": 30.369287, "lon": -88.641935, "proficiency": 0.47, "schoolCount": 1}, {"name": "Pascagoula", "lat": 30.378369, "lon": -88.533086, "proficiency": -0.03, "schoolCount": 1}, {"name": "PASS CHRISTIAN", "lat": 30.315389, "lon": -89.254384, "proficiency": 0.42, "schoolCount": 1}, {"name": "PEARL", "lat": 32.278504, "lon": -90.107664, "proficiency": 0.51, "schoolCount": 1}, {"name": "PETAL", "lat": 31.347879, "lon": -89.25945, "proficiency": 0.62, "schoolCount": 1}, {"name": "CARRIERE", "lat": 30.626317, "lon": -89.654297, "proficiency": 0.42, "schoolCount": 1}, {"name": "NEW AUGUSTA", "lat": 31.204392, "lon": -89.026825, "proficiency": 0.32, "schoolCount": 1}, {"name": "Picayune", "lat": 30.530728, "lon": -89.687373, "proficiency": 0.37, "schoolCount": 1}, {"name": "Ecru", "lat": 34.364005, "lon": -89.02684, "proficiency": 0.27, "schoolCount": 1}, {"name": "Pontotoc", "lat": 34.236306, "lon": -89.04102850000001, "proficiency": 0.52, "schoolCount": 2}, {"name": "Poplarville", "lat": 30.829182, "lon": -89.523831, "proficiency": 0.47, "schoolCount": 1}, {"name": "BOONEVILLE", "lat": 34.63173, "lon": -88.455026, "proficiency": 0.545, "schoolCount": 1}, {"name": "Marietta", "lat": 34.498815, "lon": -88.465578, "proficiency": 0.495, "schoolCount": 1}, {"name": "Quitman", "lat": 32.054089, "lon": -88.734188, "proficiency": 0.025, "schoolCount": 1}, {"name": "MARKS", "lat": 34.254596, "lon": -90.277757, "proficiency": 0.075, "schoolCount": 1}, {"name": "Brandon", "lat": 32.41302233333334, "lon": -89.90944, "proficiency": 0.3833, "schoolCount": 3}, {"name": "Florence", "lat": 32.147109, "lon": -90.074887, "proficiency": 0.395, "schoolCount": 2}, {"name": "Pelahatchie", "lat": 32.310765, "lon": -89.796621, "proficiency": 0.37, "schoolCount": 1}, {"name": "Puckett", "lat": 32.084344, "lon": -89.780275, "proficiency": 0.445, "schoolCount": 1}, {"name": "Richland", "lat": 32.213598, "lon": -90.150992, "proficiency": 0.27, "schoolCount": 1}, {"name": "Flowood", "lat": 32.358592, "lon": -89.990202, "proficiency": 0.56, "schoolCount": 1}, {"name": "RICHTON", "lat": 31.350724, "lon": -88.942375, "proficiency": 0.245, "schoolCount": 1}, {"name": "SEBASTOPOL", "lat": 32.5704, "lon": -89.338754, "proficiency": 0.37, "schoolCount": 1}, {"name": "LAKE", "lat": 32.41217, "lon": -89.359385, "proficiency": 0.37, "schoolCount": 1}, {"name": "MORTON", "lat": 32.355169, "lon": -89.651123, "proficiency": 0.17, "schoolCount": 1}, {"name": "Senatobia", "lat": 34.621168, "lon": -89.965741, "proficiency": 0.32, "schoolCount": 1}, {"name": "ANGUILLA", "lat": 32.973203, "lon": -90.826391, "proficiency": 0.05, "schoolCount": 1}, {"name": "PINOLA", "lat": 31.880204, "lon": -90.083319, "proficiency": 0.345, "schoolCount": 1}, {"name": "Magee", "lat": 31.873748, "lon": -89.729892, "proficiency": 0.12, "schoolCount": 1}, {"name": "Mendenhall", "lat": 31.96122, "lon": -89.880608, "proficiency": 0.075, "schoolCount": 1}, {"name": "MIZE", "lat": 31.861089, "lon": -89.551424, "proficiency": 0.62, "schoolCount": 1}, {"name": "RALEIGH", "lat": 31.993111, "lon": -89.518913, "proficiency": 0.62, "schoolCount": 1}, {"name": "TAYLORSVILLE", "lat": 31.833344, "lon": -89.42455, "proficiency": 0.15, "schoolCount": 1}, {"name": "Batesville", "lat": 34.321026, "lon": -89.937716, "proficiency": 0.22, "schoolCount": 1}, {"name": "Pope", "lat": 34.215555, "lon": -89.941529, "proficiency": 0.27, "schoolCount": 1}, {"name": "Magnolia", "lat": 31.148341, "lon": -90.462984, "proficiency": 0.075, "schoolCount": 1}, {"name": "BLUE MOUNTAIN", "lat": 34.669523, "lon": -89.032755, "proficiency": 0.495, "schoolCount": 1}, {"name": "Ripley", "lat": 34.6931455, "lon": -88.870407, "proficiency": 0.3075, "schoolCount": 2}, {"name": "WIGGINS", "lat": 30.850857, "lon": -89.1312, "proficiency": 0.47, "schoolCount": 1}, {"name": "INDEPENDENCE", "lat": 34.667055, "lon": -89.809835, "proficiency": 0.22, "schoolCount": 1}, {"name": "Sarah", "lat": 34.610361, "lon": -90.14842, "proficiency": 0.22, "schoolCount": 1}, {"name": "Coldwater", "lat": 34.687753, "lon": -89.985633, "proficiency": 0.05, "schoolCount": 1}, {"name": "Belmont", "lat": 34.509567, "lon": -88.215753, "proficiency": 0.77, "schoolCount": 1}, {"name": "Burnsville", "lat": 34.837192, "lon": -88.313848, "proficiency": 0.245, "schoolCount": 1}, {"name": "Tishomingo", "lat": 34.633973, "lon": -88.225272, "proficiency": 0.1, "schoolCount": 1}, {"name": "Iuka", "lat": 34.808987, "lon": -88.194874, "proficiency": 0.52, "schoolCount": 1}, {"name": "TUNICA", "lat": 34.706066, "lon": -90.374498, "proficiency": 0.27, "schoolCount": 1}, {"name": "Tupelo", "lat": 34.250251, "lon": -88.722453, "proficiency": 0.39, "schoolCount": 1}, {"name": "BLUE SPRINGS", "lat": 34.442481, "lon": -88.840332, "proficiency": 0.57, "schoolCount": 1}, {"name": "NEW ALBANY", "lat": 34.408621, "lon": -89.042652, "proficiency": 0.52, "schoolCount": 1}, {"name": "MYRTLE", "lat": 34.511523499999996, "lon": -89.141703, "proficiency": 0.595, "schoolCount": 2}, {"name": "UNION", "lat": 32.567544, "lon": -89.116107, "proficiency": 0.62, "schoolCount": 1}, {"name": "Tylertown", "lat": 31.137197666666665, "lon": -90.087914, "proficiency": 0.2217, "schoolCount": 3}, {"name": "VICKSBURG", "lat": 32.3439585, "lon": -90.8694515, "proficiency": 0.12, "schoolCount": 2}, {"name": "Water Valley", "lat": 34.157403, "lon": -89.641332, "proficiency": 0.22, "schoolCount": 1}, {"name": "Waynesboro", "lat": 31.681109333333335, "lon": -88.6999, "proficiency": 0.1817, "schoolCount": 3}, {"name": "Clara", "lat": 31.580983, "lon": -88.69522, "proficiency": 0.245, "schoolCount": 1}, {"name": "Buckatunna", "lat": 31.54042, "lon": -88.525765, "proficiency": 0.245, "schoolCount": 1}, {"name": "Maben", "lat": 33.621463, "lon": -89.081765, "proficiency": 0.62, "schoolCount": 1}, {"name": "EUPORA", "lat": 33.543141, "lon": -89.274143, "proficiency": 0.42, "schoolCount": 1}, {"name": "STRINGER", "lat": 31.871896, "lon": -89.260995, "proficiency": 0.345, "schoolCount": 1}, {"name": "BAY SPRINGS", "lat": 31.978088, "lon": -89.278456, "proficiency": 0.345, "schoolCount": 1}, {"name": "WEBB", "lat": 33.948568, "lon": -90.35219, "proficiency": 0.05, "schoolCount": 1}, {"name": "AVON", "lat": 33.227384, "lon": -91.04585, "proficiency": 0.32, "schoolCount": 1}, {"name": "Centreville", "lat": 31.093238, "lon": -91.06363, "proficiency": 0.12, "schoolCount": 1}, {"name": "YAZOO CITY", "lat": 32.8188045, "lon": -90.3921975, "proficiency": 0.0725, "schoolCount": 2}]}