{"state": "MT", "stateName": "Montana", "year": 2020, "naep": {"text": "7 out of 10", "numerator": 7, "denominator": 10}, "schools": [{"name": "Lakeside Elementary School", "lat": 48.020315, "lon": -114.226944, "proficiency": -0.02, "district": "Somers Elem", "city": "Somers", "ncessch": "300000200705"}, {"name": "Somers Middle School", "lat": 48.087726, "lon": -114.223208, "proficiency": 0.47, "district": "Somers Elem", "city": "Somers", "ncessch": "300000200965"}, {"name": "Glacier Elementary School", "lat": 48.83189, "lon": -112.219155, "proficiency": -0.03, "district": "Cut Bank Elem", "city": "Cut Bank", "ncessch": "300000300018"}, {"name": "Anna Jeffries Elementary", "lat": 48.640888, "lon": -112.329465, "proficiency": -0.02, "district": "Cut Bank Elem", "city": "Cut Bank", "ncessch": "300000300233"}, {"name": "Cut Bank Middle School", "lat": 48.632572, "lon": -112.330059, "proficiency": 0.245, "district": "Cut Bank Elem", "city": "Cut Bank", "ncessch": "300000300234"}, {"name": "Hidden Lake Elementary", "lat": 48.600761, "lon": -112.603046, "proficiency": -0.03, "district": "Cut Bank Elem", "city": "Cut Bank", "ncessch": "300000300242"}, {"name": "Zenith Elementary", "lat": 48.870534, "lon": -112.342695, "proficiency": -0.03, "district": "Cut Bank Elem", "city": "Cut Bank", "ncessch": "300000301104"}, {"name": "H C Davis Elementary", "lat": 48.634094, "lon": -112.330616, "proficiency": -0.02, "district": "Cut Bank Elem", "city": "Cut Bank", "ncessch": "300000301106"}, {"name": "Horizon Elementary", "lat": 48.717471, "lon": -112.2236, "proficiency": -0.02, "district": "Cut Bank Elem", "city": "Cut Bank", "ncessch": "300000301107"}, {"name": "Mountain View Elementary", "lat": 48.702875, "lon": -112.591387, "proficiency": -0.03, "district": "Mountain View Elem", "city": "Cut Bank", "ncessch": "300000400899"}, {"name": "Kessler Elementary School", "lat": 46.606733, "lon": -112.07373, "proficiency": -0.02, "district": "Helena Elem", "city": "Helena", "ncessch": "300000500337"}, {"name": "Broadwater School", "lat": 46.603039, "lon": -112.046063, "proficiency": -0.02, "district": "Helena Elem", "city": "Helena", "ncessch": "300000500415"}, {"name": "Bryant School", "lat": 46.596909, "lon": -112.01353, "proficiency": -0.02, "district": "Helena Elem", "city": "Helena", "ncessch": "300000500416"}, {"name": "Central School", "lat": 46.604319, "lon": -112.017812, "proficiency": -0.02, "district": "Helena Elem", "city": "Helena", "ncessch": "300000500418"}, {"name": "Four Georgians School", "lat": 46.615828, "lon": -112.034744, "proficiency": -0.02, "district": "Helena Elem", "city": "Helena", "ncessch": "300000500419"}, {"name": "Hawthorne School", "lat": 46.591333, "lon": -112.04502, "proficiency": -0.02, "district": "Helena Elem", "city": "Helena", "ncessch": "300000500420"}, {"name": "Jefferson School", "lat": 46.583979, "lon": -112.022649, "proficiency": -0.02, "district": "Helena Elem", "city": "Helena", "ncessch": "300000500421"}, {"name": "Rossiter School", "lat": 46.659999, "lon": -112.014103, "proficiency": -0.02, "district": "Helena Elem", "city": "Helena", "ncessch": "300000500424"}, {"name": "Smith School", "lat": 46.586803, "lon": -111.998472, "proficiency": -0.02, "district": "Helena Elem", "city": "Helena", "ncessch": "300000500425"}, {"name": "Jim Darcy School", "lat": 46.70491, "lon": -112.02522, "proficiency": -0.02, "district": "Helena Elem", "city": "Helena", "ncessch": "300000500505"}, {"name": "Warren School", "lat": 46.634995, "lon": -111.953126, "proficiency": -0.02, "district": "Helena Elem", "city": "Helena", "ncessch": "300000500506"}, {"name": "Helena Middle School", "lat": 46.59528, "lon": -112.025745, "proficiency": 0.32, "district": "Helena Elem", "city": "Helena", "ncessch": "300000500885"}, {"name": "C R Anderson Middle Schl", "lat": 46.599631, "lon": -112.054207, "proficiency": 0.42, "district": "Helena Elem", "city": "Helena", "ncessch": "300000500886"}, {"name": "Broadus School", "lat": 45.4489, "lon": -105.404303, "proficiency": -0.02, "district": "Broadus Elem", "city": "Broadus", "ncessch": "300000600120"}, {"name": "Broadus 7-8", "lat": 45.447138, "lon": -105.40453, "proficiency": 0.3, "district": "Broadus Elem", "city": "Broadus", "ncessch": "300000601035"}, {"name": "Ashland School", "lat": 45.594903, "lon": -106.271119, "proficiency": -0.02, "district": "Ashland Elem", "city": "Ashland", "ncessch": "300000800023"}, {"name": "Ashland 7-8", "lat": 45.594903, "lon": -106.271119, "proficiency": 0.245, "district": "Ashland Elem", "city": "Ashland", "ncessch": "300000801051"}, {"name": "Noxon School", "lat": 47.993318, "lon": -115.776576, "proficiency": -0.02, "district": "Noxon Elem", "city": "Noxon", "ncessch": "300009000599"}, {"name": "Noxon 7-8", "lat": 47.993318, "lon": -115.776576, "proficiency": 0.3, "district": "Noxon Elem", "city": "Noxon", "ncessch": "300009001053"}, {"name": "Hillside Colony School", "lat": 48.978356, "lon": -112.069971, "proficiency": -0.02, "district": "Liberty Elem", "city": "Galata", "ncessch": "300009300081"}, {"name": "Rimrock Colony School", "lat": 48.895126, "lon": -112.096732, "proficiency": -0.02, "district": "Liberty Elem", "city": "Galata", "ncessch": "300009300089"}, {"name": "Riverview Elementary", "lat": 48.700082, "lon": -111.199843, "proficiency": -0.02, "district": "Liberty Elem", "city": "Galata", "ncessch": "300009300325"}, {"name": "Liberty Elementary School", "lat": 48.700082, "lon": -111.199843, "proficiency": -0.03, "district": "Liberty Elem", "city": "Galata", "ncessch": "300009300920"}, {"name": "North Star 7-8", "lat": 48.562567, "lon": -110.552255, "proficiency": 0.245, "district": "North Star Elem", "city": "Rudyard", "ncessch": "300009600441"}, {"name": "North Star School", "lat": 48.572104, "lon": -110.301379, "proficiency": -0.02, "district": "North Star Elem", "city": "Rudyard", "ncessch": "300009600485"}, {"name": "Chester-Joplin-Inverness Schl", "lat": 48.508806, "lon": -110.96487, "proficiency": -0.02, "district": "Chester-Joplin-Inverness El", "city": "Chester", "ncessch": "300009800178"}, {"name": "Sage Creek Elementary", "lat": 48.929442, "lon": -110.972385, "proficiency": -0.02, "district": "Chester-Joplin-Inverness El", "city": "Chester", "ncessch": "300009800329"}, {"name": "Chester-Joplin-Inverness 7-8", "lat": 48.508806, "lon": -110.96487, "proficiency": 0.245, "district": "Chester-Joplin-Inverness El", "city": "Chester", "ncessch": "300009800998"}, {"name": "Cool Spring Colony School", "lat": 48.771751, "lon": -110.582246, "proficiency": -0.03, "district": "Chester-Joplin-Inverness El", "city": "Chester", "ncessch": "300009801113"}, {"name": "Heart Butte Elementary", "lat": 48.274771, "lon": -112.83446, "proficiency": -0.02, "district": "Heart Butte K-12 Schools", "city": "Heart Butte", "ncessch": "300009900414"}, {"name": "Heart Butte High School", "lat": 48.27538, "lon": -112.83477, "proficiency": -0.02, "district": "Heart Butte K-12 Schools", "city": "Heart Butte", "ncessch": "300009900924"}, {"name": "Heart Butte 6-8", "lat": 48.275452, "lon": -112.834772, "proficiency": 0.245, "district": "Heart Butte K-12 Schools", "city": "Heart Butte", "ncessch": "300009901031"}, {"name": "Dutton/Brady Elementary", "lat": 47.851565, "lon": -111.714448, "proficiency": -0.02, "district": "Dutton/Brady K-12 Schools", "city": "Dutton", "ncessch": "300010200265"}, {"name": "Dutton/Brady High School", "lat": 47.851559, "lon": -111.714427, "proficiency": -0.02, "district": "Dutton/Brady K-12 Schools", "city": "Dutton", "ncessch": "300010200266"}, {"name": "Dutton/Brady Middle School", "lat": 47.851317, "lon": -111.713839, "proficiency": 0.245, "district": "Dutton/Brady K-12 Schools", "city": "Dutton", "ncessch": "300010201034"}, {"name": "Midway Colony", "lat": 48.068075, "lon": -111.996474, "proficiency": -0.03, "district": "Dutton/Brady K-12 Schools", "city": "Dutton", "ncessch": "300010201094"}, {"name": "Pondera Colony School", "lat": 48.237977, "lon": -112.418775, "proficiency": -0.03, "district": "Dutton/Brady K-12 Schools", "city": "Dutton", "ncessch": "300010201116"}, {"name": "Ophir 7-8", "lat": 45.229036, "lon": -111.251902, "proficiency": 0.345, "district": "Big Sky School K-12", "city": "Big Sky", "ncessch": "300065400135"}, {"name": "Ophir Elementary School", "lat": 45.231193, "lon": -111.252556, "proficiency": -0.02, "district": "Big Sky School K-12", "city": "Big Sky", "ncessch": "300065400604"}, {"name": "Lone Peak High School", "lat": 45.229036, "lon": -111.251902, "proficiency": -0.02, "district": "Big Sky School K-12", "city": "Big Sky", "ncessch": "300065401099"}, {"name": "Radley Elementary School", "lat": 46.592848, "lon": -111.917072, "proficiency": -0.02, "district": "East Helena K-12", "city": "East Helena", "ncessch": "300065500268"}, {"name": "East Valley Middle School", "lat": 46.593563, "lon": -111.906569, "proficiency": 0.32, "district": "East Helena K-12", "city": "East Helena", "ncessch": "300065500995"}, {"name": "Lockwood Intermediate", "lat": 45.797095, "lon": -108.435872, "proficiency": -0.02, "district": "Lockwood K-12", "city": "Lockwood", "ncessch": "300065600529"}, {"name": "Lockwood Middle School", "lat": 45.797095, "lon": -108.435872, "proficiency": 0.22, "district": "Lockwood K-12", "city": "Lockwood", "ncessch": "300065600912"}, {"name": "Shields Valley Elementary", "lat": 45.989616, "lon": -110.662451, "proficiency": -0.02, "district": "Shields Valley Elem", "city": "Clyde Park", "ncessch": "300093201024"}, {"name": "Shields Valley 7-8", "lat": 45.887466, "lon": -110.597836, "proficiency": 0.75, "district": "Shields Valley Elem", "city": "Clyde Park", "ncessch": "300093201025"}, {"name": "Absarokee School", "lat": 45.513868, "lon": -109.447207, "proficiency": -0.02, "district": "Absarokee Elem", "city": "Absarokee", "ncessch": "300171000001"}, {"name": "Absarokee 6-8", "lat": 45.513868, "lon": -109.447207, "proficiency": 0.245, "district": "Absarokee Elem", "city": "Absarokee", "ncessch": "300171001063"}, {"name": "Alberton School", "lat": 47.004462, "lon": -114.480836, "proficiency": -0.02, "district": "Alberton K-12 Schools", "city": "Alberton", "ncessch": "300186000003"}, {"name": "Alberton High School", "lat": 47.004462, "lon": -114.480836, "proficiency": -0.02, "district": "Alberton K-12 Schools", "city": "Alberton", "ncessch": "300186000004"}, {"name": "Alberton 7-8", "lat": 47.004462, "lon": -114.480836, "proficiency": 0.245, "district": "Alberton K-12 Schools", "city": "Alberton", "ncessch": "300186001007"}, {"name": "Alzada School", "lat": 45.020852, "lon": -104.412955, "proficiency": -0.02, "district": "Alzada Elem", "city": "Alzada", "ncessch": "300195000006"}, {"name": "Fred Moodry Intermediate", "lat": 46.127708, "lon": -112.951036, "proficiency": -0.02, "district": "Anaconda Elem", "city": "Anaconda", "ncessch": "300201000010"}, {"name": "Anaconda Jr High School", "lat": 46.125812, "lon": -112.953788, "proficiency": 0.15, "district": "Anaconda Elem", "city": "Anaconda", "ncessch": "300201000014"}, {"name": "Anderson School", "lat": 45.599925, "lon": -111.10315, "proficiency": -0.02, "district": "Anderson Elem", "city": "Bozeman", "ncessch": "300207000016"}, {"name": "Anderson 7-8", "lat": 45.599925, "lon": -111.10315, "proficiency": 0.695, "district": "Anderson Elem", "city": "Bozeman", "ncessch": "300207000976"}, {"name": "Arlee Elementary", "lat": 47.163638, "lon": -114.081806, "proficiency": -0.02, "district": "Arlee Elem", "city": "Arlee", "ncessch": "300222000019"}, {"name": "Arlee 7-8", "lat": 47.164441, "lon": -114.082497, "proficiency": 0.245, "district": "Arlee Elem", "city": "Arlee", "ncessch": "300222000900"}, {"name": "Arrowhead School", "lat": 45.395016, "lon": -110.672182, "proficiency": -0.02, "district": "Arrowhead Elem", "city": "Pray", "ncessch": "300230000022"}, {"name": "Arrowhead 7-8", "lat": 45.395016, "lon": -110.672182, "proficiency": -0.03, "district": "Arrowhead Elem", "city": "Pray", "ncessch": "300230000199"}, {"name": "Augusta Elementary School", "lat": 47.491344, "lon": -112.398058, "proficiency": -0.03, "district": "Augusta Elem", "city": "Augusta", "ncessch": "300243000024"}, {"name": "Augusta 7-8", "lat": 47.491344, "lon": -112.398058, "proficiency": -0.03, "district": "Augusta Elem", "city": "Augusta", "ncessch": "300243000997"}, {"name": "Auchard Creek School", "lat": 47.328689, "lon": -112.210685, "proficiency": -0.02, "district": "Auchard Creek Elem", "city": "Wolf Creek", "ncessch": "300249000026"}, {"name": "Avon School", "lat": 46.598286, "lon": -112.590781, "proficiency": -0.03, "district": "Avon Elem", "city": "Avon", "ncessch": "300255000027"}, {"name": "Ayers School", "lat": 47.049975, "lon": -108.949474, "proficiency": -0.03, "district": "Ayers Elem", "city": "Grass Range", "ncessch": "300257000028"}, {"name": "Bainville School", "lat": 48.139436, "lon": -104.225946, "proficiency": -0.02, "district": "Bainville K-12 Schools", "city": "Bainville", "ncessch": "300264000029"}, {"name": "Bainville High School", "lat": 48.139484, "lon": -104.225959, "proficiency": -0.02, "district": "Bainville K-12 Schools", "city": "Bainville", "ncessch": "300264000030"}, {"name": "Bainville 7-8", "lat": 48.139477, "lon": -104.226022, "proficiency": 0.75, "district": "Bainville K-12 Schools", "city": "Bainville", "ncessch": "300264001047"}, {"name": "Baker 7-8", "lat": 46.356558, "lon": -104.280383, "proficiency": 0.345, "district": "Baker K-12 Schools", "city": "Baker", "ncessch": "300273000031"}, {"name": "Longfellow School", "lat": 46.360456, "lon": -104.277847, "proficiency": -0.02, "district": "Baker K-12 Schools", "city": "Baker", "ncessch": "300273000033"}, {"name": "Baker High School", "lat": 46.356578, "lon": -104.280811, "proficiency": -0.02, "district": "Baker K-12 Schools", "city": "Baker", "ncessch": "300273000035"}, {"name": "Smith Valley Primary Schl", "lat": 48.174129, "lon": -114.423792, "proficiency": -0.02, "district": "Smith Valley Elem", "city": "Kalispell", "ncessch": "300285000037"}, {"name": "Smith Valley 7-8", "lat": 48.174296, "lon": -114.423741, "proficiency": 0.3, "district": "Smith Valley Elem", "city": "Kalispell", "ncessch": "300285000101"}, {"name": "Bear Paw School", "lat": 48.25, "lon": -109.5212, "proficiency": -0.02, "district": "Bear Paw Elem", "city": "Chinook", "ncessch": "300300000039"}, {"name": "Belfry School", "lat": 45.142984, "lon": -109.005327, "proficiency": -0.02, "district": "Belfry K-12 Schools", "city": "Belfry", "ncessch": "300327000042"}, {"name": "Belfry High School", "lat": 45.142414, "lon": -109.004832, "proficiency": -0.02, "district": "Belfry K-12 Schools", "city": "Belfry", "ncessch": "300327000043"}, {"name": "Belfry 7-8", "lat": 45.142403, "lon": -109.004858, "proficiency": -0.03, "district": "Belfry K-12 Schools", "city": "Belfry", "ncessch": "300327000939"}, {"name": "Belgrade Middle School", "lat": 45.784417, "lon": -111.181735, "proficiency": 0.32, "district": "Belgrade Elem", "city": "Belgrade", "ncessch": "300329000044"}, {"name": "Heck/Quaw Elementary", "lat": 45.779472, "lon": -111.173186, "proficiency": -0.02, "district": "Belgrade Elem", "city": "Belgrade", "ncessch": "300329000324"}, {"name": "Ridge View Elementary", "lat": 45.774267, "lon": -111.215487, "proficiency": -0.02, "district": "Belgrade Elem", "city": "Belgrade", "ncessch": "300329000342"}, {"name": "Saddle Peak Elementary", "lat": 45.786574, "lon": -111.184074, "proficiency": -0.02, "district": "Belgrade Elem", "city": "Belgrade", "ncessch": "300329001111"}, {"name": "Belt School", "lat": 47.38942, "lon": -110.927979, "proficiency": -0.02, "district": "Belt Elem", "city": "Belt", "ncessch": "300342000047"}, {"name": "Pleasant Valley School", "lat": 47.38942, "lon": -110.927979, "proficiency": -0.03, "district": "Belt Elem", "city": "Belt", "ncessch": "300342000925"}, {"name": "Belt 7-8", "lat": 47.38942, "lon": -110.927979, "proficiency": 0.695, "district": "Belt Elem", "city": "Belt", "ncessch": "300342000943"}, {"name": "Benton Lake School", "lat": 47.755108, "lon": -111.32442, "proficiency": -0.02, "district": "Benton Lake Elem", "city": "Floweree", "ncessch": "300348000084"}, {"name": "Spring Creek School", "lat": 45.107515, "lon": -106.808869, "proficiency": -0.02, "district": "Spring Creek Elem", "city": "Decker", "ncessch": "300366000053"}, {"name": "Big Sandy High School", "lat": 48.179367, "lon": -110.116549, "proficiency": -0.02, "district": "Big Sandy K-12", "city": "Big Sandy", "ncessch": "300375000054"}, {"name": "F E Miley School", "lat": 48.173426, "lon": -110.112587, "proficiency": -0.02, "district": "Big Sandy K-12", "city": "Big Sandy", "ncessch": "300375000055"}, {"name": "Big Sandy 7-8", "lat": 48.179367, "lon": -110.116549, "proficiency": 0.245, "district": "Big Sandy K-12", "city": "Big Sandy", "ncessch": "300375000868"}, {"name": "Big Timber School", "lat": 45.832463, "lon": -109.949867, "proficiency": -0.02, "district": "Big Timber Elem", "city": "Big Timber", "ncessch": "300380000056"}, {"name": "Big Timber 7-8", "lat": 45.832331, "lon": -109.949905, "proficiency": 0.445, "district": "Big Timber Elem", "city": "Big Timber", "ncessch": "300380001064"}, {"name": "Bigfork Elementary", "lat": 48.064599, "lon": -114.078263, "proficiency": -0.02, "district": "Bigfork Elem", "city": "Bigfork", "ncessch": "300382000057"}, {"name": "Bigfork 7-8", "lat": 48.064599, "lon": -114.078263, "proficiency": 0.27, "district": "Bigfork Elem", "city": "Bigfork", "ncessch": "300382000966"}, {"name": "Arrowhead School", "lat": 45.795231, "lon": -108.612412, "proficiency": -0.02, "district": "Billings Elem", "city": "Billings", "ncessch": "300387000059"}, {"name": "Bench School", "lat": 45.815412, "lon": -108.473705, "proficiency": -0.02, "district": "Billings Elem", "city": "Billings", "ncessch": "300387000061"}, {"name": "Bitterroot School", "lat": 45.831426, "lon": -108.465273, "proficiency": -0.02, "district": "Billings Elem", "city": "Billings", "ncessch": "300387000062"}, {"name": "Boulder School", "lat": 45.792002, "lon": -108.596619, "proficiency": -0.02, "district": "Billings Elem", "city": "Billings", "ncessch": "300387000063"}, {"name": "Broadwater School", "lat": 45.777532, "lon": -108.52654, "proficiency": -0.02, "district": "Billings Elem", "city": "Billings", "ncessch": "300387000064"}, {"name": "Burlington School", "lat": 45.781349, "lon": -108.571417, "proficiency": -0.02, "district": "Billings Elem", "city": "Billings", "ncessch": "300387000065"}, {"name": "Central Heights School", "lat": 45.767208, "lon": -108.573622, "proficiency": -0.02, "district": "Billings Elem", "city": "Billings", "ncessch": "300387000067"}, {"name": "Highland School", "lat": 45.790175, "lon": -108.534844, "proficiency": -0.02, "district": "Billings Elem", "city": "Billings", "ncessch": "300387000071"}, {"name": "McKinley School", "lat": 45.786545, "lon": -108.516491, "proficiency": -0.02, "district": "Billings Elem", "city": "Billings", "ncessch": "300387000072"}, {"name": "Meadowlark School", "lat": 45.77283, "lon": -108.587585, "proficiency": -0.02, "district": "Billings Elem", "city": "Billings", "ncessch": "300387000073"}, {"name": "Miles Avenue School", "lat": 45.774554, "lon": -108.557016, "proficiency": -0.02, "district": "Billings Elem", "city": "Billings", "ncessch": "300387000074"}, {"name": "Newman School", "lat": 45.758707, "lon": -108.535074, "proficiency": -0.02, "district": "Billings Elem", "city": "Billings", "ncessch": "300387000075"}, {"name": "Orchard School", "lat": 45.76787, "lon": -108.516023, "proficiency": -0.02, "district": "Billings Elem", "city": "Billings", "ncessch": "300387000077"}, {"name": "Poly Drive School", "lat": 45.794412, "lon": -108.576721, "proficiency": -0.02, "district": "Billings Elem", "city": "Billings", "ncessch": "300387000078"}, {"name": "Ponderosa School", "lat": 45.754358, "lon": -108.519398, "proficiency": -0.02, "district": "Billings Elem", "city": "Billings", "ncessch": "300387000079"}, {"name": "Rose Park School", "lat": 45.78845, "lon": -108.565022, "proficiency": -0.02, "district": "Billings Elem", "city": "Billings", "ncessch": "300387000082"}, {"name": "Sandstone School", "lat": 45.824446, "lon": -108.497098, "proficiency": -0.02, "district": "Billings Elem", "city": "Billings", "ncessch": "300387000083"}, {"name": "Washington School", "lat": 45.77167, "lon": -108.542746, "proficiency": -0.02, "district": "Billings Elem", "city": "Billings", "ncessch": "300387000085"}, {"name": "Alkali Creek School", "lat": 45.811405, "lon": -108.505718, "proficiency": -0.02, "district": "Billings Elem", "city": "Billings", "ncessch": "300387000808"}, {"name": "Castle Rock Middle School", "lat": 45.824731, "lon": -108.505177, "proficiency": 0.42, "district": "Billings Elem", "city": "Billings", "ncessch": "300387000869"}, {"name": "Lewis & Clark Middle School", "lat": 45.781475, "lon": -108.549942, "proficiency": 0.32, "district": "Billings Elem", "city": "Billings", "ncessch": "300387000870"}, {"name": "Big Sky Elementary", "lat": 45.759301, "lon": -108.598714, "proficiency": -0.02, "district": "Billings Elem", "city": "Billings", "ncessch": "300387000901"}, {"name": "Eagle Cliffs Elementary", "lat": 45.821053, "lon": -108.518786, "proficiency": -0.02, "district": "Billings Elem", "city": "Billings", "ncessch": "300387000902"}, {"name": "Riverside Middle School", "lat": 45.764991, "lon": -108.511097, "proficiency": 0.12, "district": "Billings Elem", "city": "Billings", "ncessch": "300387000903"}, {"name": "Will James Middle School", "lat": 45.78146, "lon": -108.593443, "proficiency": 0.32, "district": "Billings Elem", "city": "Billings", "ncessch": "300387000904"}, {"name": "Beartooth School", "lat": 45.831836, "lon": -108.451947, "proficiency": -0.02, "district": "Billings Elem", "city": "Billings", "ncessch": "300387001092"}, {"name": "Medicine Crow Middle School", "lat": 45.833946, "lon": -108.463732, "proficiency": 0.22, "district": "Billings Elem", "city": "Billings", "ncessch": "300387001115"}, {"name": "Ben Steele Middle School", "lat": 45.78334, "lon": -108.661431, "proficiency": 0.32, "district": "Billings Elem", "city": "Billings", "ncessch": "300387001118"}, {"name": "Birney School", "lat": 45.321967, "lon": -106.514391, "proficiency": -0.03, "district": "Birney Elem", "city": "Birney", "ncessch": "300399000093"}, {"name": "Cleveland School", "lat": 48.269892, "lon": -109.151772, "proficiency": -0.02, "district": "Cleveland Elem", "city": "Chinook", "ncessch": "300405000094"}, {"name": "Bloomfield School", "lat": 47.413382, "lon": -104.920015, "proficiency": -0.02, "district": "Bloomfield Elem", "city": "Glendive", "ncessch": "300420000098"}, {"name": "Bonner School", "lat": 46.869339, "lon": -113.872267, "proficiency": -0.02, "district": "Bonner Elem", "city": "Bonner", "ncessch": "300426000100"}, {"name": "Bonner 6-8", "lat": 46.869334, "lon": -113.872342, "proficiency": 0.05, "district": "Bonner Elem", "city": "Bonner", "ncessch": "300426001012"}, {"name": "Boulder Elementary School", "lat": 46.235122, "lon": -112.121892, "proficiency": -0.02, "district": "Boulder Elem", "city": "Boulder", "ncessch": "300438000102"}, {"name": "Boulder 7-8", "lat": 46.235438, "lon": -112.122182, "proficiency": 0.245, "district": "Boulder Elem", "city": "Boulder", "ncessch": "300438000989"}, {"name": "Box Elder School", "lat": 48.316556, "lon": -110.009714, "proficiency": -0.02, "district": "Box Elder Elem", "city": "Box Elder", "ncessch": "300444000103"}, {"name": "Box Elder 7-8", "lat": 48.316556, "lon": -110.009714, "proficiency": 0.1, "district": "Box Elder Elem", "city": "Box Elder", "ncessch": "300444000985"}, {"name": "Emily Dickinson School", "lat": 45.689819, "lon": -111.069393, "proficiency": -0.02, "district": "Bozeman Elem", "city": "Bozeman", "ncessch": "300456000017"}, {"name": "Morning Star School", "lat": 45.651755, "lon": -111.048626, "proficiency": -0.02, "district": "Bozeman Elem", "city": "Bozeman", "ncessch": "300456000106"}, {"name": "Hawthorne School", "lat": 45.680973, "lon": -111.031478, "proficiency": -0.02, "district": "Bozeman Elem", "city": "Bozeman", "ncessch": "300456000107"}, {"name": "Irving School", "lat": 45.67301, "lon": -111.048533, "proficiency": -0.02, "district": "Bozeman Elem", "city": "Bozeman", "ncessch": "300456000108"}, {"name": "Longfellow School", "lat": 45.672913, "lon": -111.036865, "proficiency": -0.02, "district": "Bozeman Elem", "city": "Bozeman", "ncessch": "300456000109"}, {"name": "Whittier School", "lat": 45.684976, "lon": -111.04439, "proficiency": -0.02, "district": "Bozeman Elem", "city": "Bozeman", "ncessch": "300456000110"}, {"name": "Chief Joseph Middle School", "lat": 45.705701, "lon": -111.094773, "proficiency": 0.47, "district": "Bozeman Elem", "city": "Bozeman", "ncessch": "300456000112"}, {"name": "Sacajawea Middle School", "lat": 45.643105, "lon": -111.048201, "proficiency": 0.47, "district": "Bozeman Elem", "city": "Bozeman", "ncessch": "300456000165"}, {"name": "Hyalite Elementary", "lat": 45.677594, "lon": -111.087167, "proficiency": -0.02, "district": "Bozeman Elem", "city": "Bozeman", "ncessch": "300456001096"}, {"name": "Meadowlark Elementary", "lat": 45.68667, "lon": -111.099821, "proficiency": -0.02, "district": "Bozeman Elem", "city": "Bozeman", "ncessch": "300456001108"}, {"name": "Bridger Elementary School", "lat": 45.296016, "lon": -108.919761, "proficiency": -0.02, "district": "Bridger K-12 Schools", "city": "Bridger", "ncessch": "300480000117"}, {"name": "Bridger High School", "lat": 45.297316, "lon": -108.919466, "proficiency": -0.02, "district": "Bridger K-12 Schools", "city": "Bridger", "ncessch": "300480000118"}, {"name": "Bridger 7-8", "lat": 45.296016, "lon": -108.919761, "proficiency": 0.245, "district": "Bridger K-12 Schools", "city": "Bridger", "ncessch": "300480000936"}, {"name": "Broadview School", "lat": 46.103016, "lon": -108.877796, "proficiency": -0.03, "district": "Broadview Elem", "city": "Broadview", "ncessch": "300489000121"}, {"name": "Broadview 7-8", "lat": 46.103016, "lon": -108.877796, "proficiency": 0.75, "district": "Broadview Elem", "city": "Broadview", "ncessch": "300489001082"}, {"name": "Broadwater High School", "lat": 46.321984, "lon": -111.5192, "proficiency": -0.02, "district": "Townsend K-12 Schools", "city": "Townsend", "ncessch": "300498000123"}, {"name": "Cecelia Hazelton School", "lat": 46.321564, "lon": -111.520185, "proficiency": -0.02, "district": "Townsend K-12 Schools", "city": "Townsend", "ncessch": "300498000743"}, {"name": "Townsend 7-8", "lat": 46.321564, "lon": -111.520185, "proficiency": 0.345, "district": "Townsend K-12 Schools", "city": "Townsend", "ncessch": "300498000935"}, {"name": "Barbara Gilligan School", "lat": 48.151585, "lon": -104.914601, "proficiency": -0.02, "district": "Brockton Elem", "city": "Brockton", "ncessch": "300501000124"}, {"name": "Barbara Gilligan 7-8", "lat": 48.151585, "lon": -104.914601, "proficiency": 0.245, "district": "Brockton Elem", "city": "Brockton", "ncessch": "300501001046"}, {"name": "Babb School", "lat": 48.867157, "lon": -113.437584, "proficiency": -0.02, "district": "Browning Elem", "city": "Browning", "ncessch": "300514000129"}, {"name": "Napi School", "lat": 48.554303, "lon": -113.012728, "proficiency": -0.02, "district": "Browning Elem", "city": "Browning", "ncessch": "300514000132"}, {"name": "Big Sky School", "lat": 48.841095, "lon": -112.76519, "proficiency": -0.03, "district": "Browning Elem", "city": "Browning", "ncessch": "300514000812"}, {"name": "Glendale School", "lat": 48.839204, "lon": -112.544084, "proficiency": -0.03, "district": "Browning Elem", "city": "Browning", "ncessch": "300514000813"}, {"name": "Browning Middle School", "lat": 48.547543, "lon": -113.014811, "proficiency": 0.025, "district": "Browning Elem", "city": "Browning", "ncessch": "300514000872"}, {"name": "Browning Elementary", "lat": 48.554431, "lon": -113.014813, "proficiency": -0.02, "district": "Browning Elem", "city": "Browning", "ncessch": "300514001100"}, {"name": "Emerson School", "lat": 45.994488, "lon": -112.515738, "proficiency": -0.02, "district": "Butte Elem", "city": "Butte", "ncessch": "300528000140"}, {"name": "Hillcrest School", "lat": 45.983171, "lon": -112.485197, "proficiency": -0.02, "district": "Butte Elem", "city": "Butte", "ncessch": "300528000143"}, {"name": "Kennedy School", "lat": 46.020397, "lon": -112.553516, "proficiency": -0.02, "district": "Butte Elem", "city": "Butte", "ncessch": "300528000144"}, {"name": "Margaret Leary School", "lat": 45.961258, "lon": -112.521368, "proficiency": -0.02, "district": "Butte Elem", "city": "Butte", "ncessch": "300528000148"}, {"name": "Whittier School", "lat": 45.988828, "lon": -112.495649, "proficiency": -0.02, "district": "Butte Elem", "city": "Butte", "ncessch": "300528000153"}, {"name": "East Middle School", "lat": 45.999423, "lon": -112.49662, "proficiency": 0.24, "district": "Butte Elem", "city": "Butte", "ncessch": "300528000905"}, {"name": "West Elementary School", "lat": 46.005496, "lon": -112.551959, "proficiency": -0.02, "district": "Butte Elem", "city": "Butte", "ncessch": "300528000906"}, {"name": "Bynum School", "lat": 47.977297, "lon": -112.315475, "proficiency": -0.03, "district": "Bynum Elem", "city": "Bynum", "ncessch": "300533000157"}, {"name": "Canyon Creek School", "lat": 45.71231, "lon": -108.637386, "proficiency": -0.02, "district": "Canyon Creek Elem", "city": "Billings", "ncessch": "300546000160"}, {"name": "Canyon Creek 7-8", "lat": 45.712271, "lon": -108.63734, "proficiency": 0.3, "district": "Canyon Creek Elem", "city": "Billings", "ncessch": "300546001079"}, {"name": "Cardwell School", "lat": 45.856874, "lon": -111.952275, "proficiency": -0.02, "district": "Cardwell Elem", "city": "Cardwell", "ncessch": "300555000161"}, {"name": "Carter School", "lat": 47.782868, "lon": -110.95827, "proficiency": -0.02, "district": "Carter Elem", "city": "Carter", "ncessch": "300576000167"}, {"name": "Vaughn School", "lat": 47.560092, "lon": -111.549589, "proficiency": -0.02, "district": "Vaughn Elem", "city": "Vaughn", "ncessch": "300585000168"}, {"name": "Vaughn 7-8", "lat": 47.560103, "lon": -111.549545, "proficiency": 0.245, "district": "Vaughn Elem", "city": "Vaughn", "ncessch": "300585000944"}, {"name": "Hillcrest Colony Elementary", "lat": 47.631213, "lon": -111.50249, "proficiency": -0.03, "district": "Vaughn Elem", "city": "Vaughn", "ncessch": "300585001109"}, {"name": "Cascade School", "lat": 47.271936, "lon": -111.705388, "proficiency": -0.02, "district": "Cascade Elem", "city": "Cascade", "ncessch": "300588000169"}, {"name": "Cascade 6-8", "lat": 47.271936, "lon": -111.705388, "proficiency": 0.495, "district": "Cascade Elem", "city": "Cascade", "ncessch": "300588000941"}, {"name": "Cayuse Prairie School", "lat": 48.22623, "lon": -114.122411, "proficiency": -0.02, "district": "Cayuse Prairie Elem", "city": "Kalispell", "ncessch": "300599000172"}, {"name": "Cayuse Prairie 7-8", "lat": 48.22623, "lon": -114.122411, "proficiency": 0.495, "district": "Cayuse Prairie Elem", "city": "Kalispell", "ncessch": "300599000963"}, {"name": "McCormick School", "lat": 48.627682, "lon": -116.025636, "proficiency": -0.03, "district": "McCormick Elem", "city": "Troy", "ncessch": "300603000173"}, {"name": "St Ignatius Elementary School", "lat": 47.319031, "lon": -114.092254, "proficiency": -0.02, "district": "St Ignatius K-12 Schools", "city": "St Ignatius", "ncessch": "300611000174"}, {"name": "St Ignatius High School", "lat": 47.319043, "lon": -114.091354, "proficiency": -0.02, "district": "St Ignatius K-12 Schools", "city": "St Ignatius", "ncessch": "300611000175"}, {"name": "St Ignatius Middle School", "lat": 47.319043, "lon": -114.091354, "proficiency": 0.1, "district": "St Ignatius K-12 Schools", "city": "St Ignatius", "ncessch": "300611000994"}, {"name": "Charlo Elementary", "lat": 47.440414, "lon": -114.174398, "proficiency": -0.02, "district": "Charlo Elem", "city": "Charlo", "ncessch": "300611200176"}, {"name": "Charlo 6-8", "lat": 47.440414, "lon": -114.174398, "proficiency": 0.3, "district": "Charlo Elem", "city": "Charlo", "ncessch": "300611200814"}, {"name": "Meadowlark School", "lat": 48.589572, "lon": -109.235325, "proficiency": -0.02, "district": "Chinook Elem", "city": "Chinook", "ncessch": "300626000181"}, {"name": "Hartland Elementary School", "lat": 48.951221, "lon": -109.447004, "proficiency": -0.02, "district": "Chinook Elem", "city": "Chinook", "ncessch": "300626000339"}, {"name": "Chinook 7-8", "lat": 48.590252, "lon": -109.229072, "proficiency": 0.3, "district": "Chinook Elem", "city": "Chinook", "ncessch": "300626000932"}, {"name": "Choteau School", "lat": 47.810548, "lon": -112.189044, "proficiency": -0.02, "district": "Choteau Elem", "city": "Choteau", "ncessch": "300632000183"}, {"name": "Choteau 7-8", "lat": 47.811335, "lon": -112.189745, "proficiency": 0.1, "district": "Choteau Elem", "city": "Choteau", "ncessch": "300632001065"}, {"name": "Bo Peep School", "lat": 47.416911, "lon": -105.591773, "proficiency": -0.02, "district": "Circle Elem", "city": "Circle", "ncessch": "300679000185"}, {"name": "Redwater School", "lat": 47.416911, "lon": -105.591773, "proficiency": -0.02, "district": "Circle Elem", "city": "Circle", "ncessch": "300679000186"}, {"name": "Redwater 7-8", "lat": 47.416911, "lon": -105.591773, "proficiency": 0.495, "district": "Circle Elem", "city": "Circle", "ncessch": "300679001005"}, {"name": "Clancy School", "lat": 46.465367, "lon": -111.989992, "proficiency": -0.02, "district": "Clancy Elem", "city": "Clancy", "ncessch": "300684000188"}, {"name": "Clancy 7-8", "lat": 46.465322, "lon": -111.990602, "proficiency": 0.545, "district": "Clancy Elem", "city": "Clancy", "ncessch": "300684000988"}, {"name": "Clinton School", "lat": 46.772939, "lon": -113.713984, "proficiency": -0.02, "district": "Clinton Elem", "city": "Clinton", "ncessch": "300687000189"}, {"name": "Clinton 7-8", "lat": 46.772939, "lon": -113.713984, "proficiency": 0.3, "district": "Clinton Elem", "city": "Clinton", "ncessch": "300687001016"}, {"name": "Cohagen School", "lat": 47.055752, "lon": -106.614475, "proficiency": -0.03, "district": "Cohagen Elem", "city": "Cohagen", "ncessch": "300703000192"}, {"name": "Pine Butte Elementary Sch", "lat": 45.909137, "lon": -106.625688, "proficiency": -0.02, "district": "Colstrip Elem", "city": "Colstrip", "ncessch": "300705000873"}, {"name": "Frank Brattin Middle Schl", "lat": 45.884128, "lon": -106.629308, "proficiency": 0.245, "district": "Colstrip Elem", "city": "Colstrip", "ncessch": "300705000874"}, {"name": "Columbia Falls Jr HS", "lat": 48.36426, "lon": -114.206488, "proficiency": 0.27, "district": "Columbia Falls Elem", "city": "Columbia Falls", "ncessch": "300711000195"}, {"name": "Glacier Gateway Elem", "lat": 48.37465, "lon": -114.187161, "proficiency": -0.02, "district": "Columbia Falls Elem", "city": "Columbia Falls", "ncessch": "300711000196"}, {"name": "Ruder Elementary", "lat": 48.364731, "lon": -114.198761, "proficiency": -0.02, "district": "Columbia Falls Elem", "city": "Columbia Falls", "ncessch": "300711000198"}, {"name": "Columbus Elem School", "lat": 45.639582, "lon": -109.256972, "proficiency": -0.02, "district": "Columbus Elem", "city": "Columbus", "ncessch": "300719000204"}, {"name": "Columbus Middle School", "lat": 45.64232, "lon": -109.255706, "proficiency": 0.15, "district": "Columbus Elem", "city": "Columbus", "ncessch": "300719001060"}, {"name": "Meadowlark School", "lat": 48.171154, "lon": -111.946902, "proficiency": -0.02, "district": "Conrad Elem", "city": "Conrad", "ncessch": "300733000207"}, {"name": "Utterback 7-8", "lat": 48.171794, "lon": -111.948192, "proficiency": 0.3, "district": "Conrad Elem", "city": "Conrad", "ncessch": "300733000209"}, {"name": "Utterback 4-6", "lat": 48.171845, "lon": -111.948059, "proficiency": -0.02, "district": "Conrad Elem", "city": "Conrad", "ncessch": "300733001032"}, {"name": "Cooke City School", "lat": 45.020664, "lon": -109.934706, "proficiency": -0.02, "district": "Cooke City Elem", "city": "Cooke City", "ncessch": "300735001023"}, {"name": "Quentin Brown Primary K-4", "lat": 46.3137, "lon": -114.113081, "proficiency": -0.02, "district": "Corvallis K-12 Schools", "city": "Corvallis", "ncessch": "300741000212"}, {"name": "Corvallis 7-8", "lat": 46.317757, "lon": -114.115419, "proficiency": 0.42, "district": "Corvallis K-12 Schools", "city": "Corvallis", "ncessch": "300741000213"}, {"name": "Edna Thomas School", "lat": 46.316959, "lon": -114.116143, "proficiency": -0.02, "district": "Corvallis K-12 Schools", "city": "Corvallis", "ncessch": "300741000214"}, {"name": "Corvallis High School", "lat": 46.316282, "lon": -114.115473, "proficiency": -0.02, "district": "Corvallis K-12 Schools", "city": "Corvallis", "ncessch": "300741000215"}, {"name": "Cottonwood School", "lat": 45.56944, "lon": -111.125791, "proficiency": -0.02, "district": "Cottonwood Elem", "city": "Bozeman", "ncessch": "300750000353"}, {"name": "Culbertson School", "lat": 48.147457, "lon": -104.520486, "proficiency": -0.02, "district": "Culbertson Elem", "city": "Culbertson", "ncessch": "300783000224"}, {"name": "Culbertson Junior High", "lat": 48.147457, "lon": -104.520486, "proficiency": 0.1, "district": "Culbertson Elem", "city": "Culbertson", "ncessch": "300783001045"}, {"name": "S Y School", "lat": 45.960531, "lon": -105.63412, "proficiency": -0.02, "district": "S Y Elem", "city": "Miles City", "ncessch": "300801000229"}, {"name": "Custer School", "lat": 46.126705, "lon": -107.556398, "proficiency": -0.02, "district": "Custer K-12 Schools", "city": "Custer", "ncessch": "300813000231"}, {"name": "Custer High School", "lat": 46.126662, "lon": -107.556413, "proficiency": -0.02, "district": "Custer K-12 Schools", "city": "Custer", "ncessch": "300813000232"}, {"name": "Custer 7-8", "lat": 46.126641, "lon": -107.556365, "proficiency": 0.245, "district": "Custer K-12 Schools", "city": "Custer", "ncessch": "300813001081"}, {"name": "Darby School", "lat": 46.027149, "lon": -114.178455, "proficiency": -0.02, "district": "Darby K-12 Schools", "city": "Darby", "ncessch": "300828000237"}, {"name": "Darby High School", "lat": 46.027125, "lon": -114.180709, "proficiency": -0.02, "district": "Darby K-12 Schools", "city": "Darby", "ncessch": "300828000238"}, {"name": "Darby 7-8", "lat": 46.026649, "lon": -114.178425, "proficiency": 0.1, "district": "Darby K-12 Schools", "city": "Darby", "ncessch": "300828001038"}, {"name": "Davey Elementary", "lat": 48.502315, "lon": -109.543068, "proficiency": -0.03, "district": "Davey Elem", "city": "Havre", "ncessch": "300831000239"}, {"name": "Deer Creek School", "lat": 47.165979, "lon": -104.6992, "proficiency": -0.02, "district": "Deer Creek Elem", "city": "Glendive", "ncessch": "300847000244"}, {"name": "E F Duvall 7-8", "lat": 46.394353, "lon": -112.729673, "proficiency": 0.245, "district": "Deer Lodge Elem", "city": "Deer Lodge", "ncessch": "300867000246"}, {"name": "O D Speer School", "lat": 46.395176, "lon": -112.73156, "proficiency": -0.02, "district": "Deer Lodge Elem", "city": "Deer Lodge", "ncessch": "300867000248"}, {"name": "Deer Park School", "lat": 48.290903, "lon": -114.174004, "proficiency": -0.02, "district": "Deer Park Elem", "city": "Columbia Falls", "ncessch": "300870000249"}, {"name": "Deer Park 6-8", "lat": 48.290903, "lon": -114.174004, "proficiency": 0.245, "district": "Deer Park Elem", "city": "Columbia Falls", "ncessch": "300870000960"}, {"name": "Deerfield School", "lat": 47.261025, "lon": -109.670427, "proficiency": -0.03, "district": "Deerfield Elem", "city": "Lewistown", "ncessch": "300873000250"}, {"name": "Denton School", "lat": 47.316794, "lon": -109.939819, "proficiency": -0.02, "district": "Denton Elem", "city": "Denton", "ncessch": "300886000253"}, {"name": "Denton 7-8", "lat": 47.316794, "lon": -109.939819, "proficiency": -0.03, "district": "Denton Elem", "city": "Denton", "ncessch": "300886000958"}, {"name": "DeSmet School", "lat": 46.932286, "lon": -114.092722, "proficiency": -0.02, "district": "DeSmet Elem", "city": "Missoula", "ncessch": "300888000254"}, {"name": "DeSmet 6-8", "lat": 46.932286, "lon": -114.092722, "proficiency": 0.245, "district": "DeSmet Elem", "city": "Missoula", "ncessch": "300888001014"}, {"name": "Dillon Middle School", "lat": 45.213909, "lon": -112.625247, "proficiency": 0.32, "district": "Dillon Elem", "city": "Dillon", "ncessch": "300891000256"}, {"name": "Parkview School", "lat": 45.215288, "lon": -112.624792, "proficiency": -0.02, "district": "Dillon Elem", "city": "Dillon", "ncessch": "300891000257"}, {"name": "Divide School", "lat": 45.750142, "lon": -112.754136, "proficiency": -0.03, "district": "Divide Elem", "city": "Divide", "ncessch": "300900000258"}, {"name": "Dixon 7-8", "lat": 47.315693, "lon": -114.31936, "proficiency": -0.03, "district": "Dixon Elem", "city": "Dixon", "ncessch": "300903000222"}, {"name": "Dixon Elementary", "lat": 47.315682, "lon": -114.319328, "proficiency": -0.02, "district": "Dixon Elem", "city": "Dixon", "ncessch": "300903000259"}, {"name": "Dodson School", "lat": 48.39647, "lon": -108.249058, "proficiency": -0.02, "district": "Dodson K-12", "city": "Dodson", "ncessch": "300912000260"}, {"name": "Dodson High School", "lat": 48.396479, "lon": -108.249648, "proficiency": -0.02, "district": "Dodson K-12", "city": "Dodson", "ncessch": "300912000261"}, {"name": "Dodson 7-8", "lat": 48.396225, "lon": -108.249384, "proficiency": 0.245, "district": "Dodson K-12", "city": "Dodson", "ncessch": "300912001028"}, {"name": "Drummond School", "lat": 46.670609, "lon": -113.148245, "proficiency": -0.02, "district": "Drummond Elem", "city": "Drummond", "ncessch": "300918000262"}, {"name": "Drummond 7-8", "lat": 46.670609, "lon": -113.148245, "proficiency": 0.1, "district": "Drummond Elem", "city": "Drummond", "ncessch": "300918000984"}, {"name": "Dupuyer School", "lat": 48.194327, "lon": -112.497526, "proficiency": -0.02, "district": "Dupuyer Elem", "city": "Dupuyer", "ncessch": "300933000264"}, {"name": "East Glacier Park School", "lat": 48.440155, "lon": -113.218014, "proficiency": -0.03, "district": "East Glacier Park Elem", "city": "E Glacier Park", "ncessch": "300951000267"}, {"name": "Ekalaka Elementary School", "lat": 45.88833, "lon": -104.550104, "proficiency": -0.02, "district": "Ekalaka Elem", "city": "Ekalaka", "ncessch": "300967000271"}, {"name": "Ekalaka 7-8", "lat": 45.890644, "lon": -104.551801, "proficiency": 0.245, "district": "Ekalaka Elem", "city": "Ekalaka", "ncessch": "300967000940"}, {"name": "Elder Grove School", "lat": 45.741029, "lon": -108.680234, "proficiency": -0.02, "district": "Elder Grove Elem", "city": "Billings", "ncessch": "300972000273"}, {"name": "Elder Grove 7-8", "lat": 45.741029, "lon": -108.680234, "proficiency": 0.22, "district": "Elder Grove Elem", "city": "Billings", "ncessch": "300972001080"}, {"name": "Elliston School", "lat": 46.562954, "lon": -112.432571, "proficiency": -0.03, "district": "Elliston Elem", "city": "Elliston", "ncessch": "300978000274"}, {"name": "Elysian School", "lat": 45.740079, "lon": -108.576605, "proficiency": -0.02, "district": "Elysian Elem", "city": "Billings", "ncessch": "300984000276"}, {"name": "Elysian Middle School", "lat": 45.740098, "lon": -108.57773, "proficiency": 0.445, "district": "Elysian Elem", "city": "Billings", "ncessch": "300984000293"}, {"name": "Ennis High School", "lat": 45.346633, "lon": -111.733056, "proficiency": -0.02, "district": "Ennis K-12 Schools", "city": "Ennis", "ncessch": "300993000277"}, {"name": "Ennis School", "lat": 45.348161, "lon": -111.733149, "proficiency": -0.02, "district": "Ennis K-12 Schools", "city": "Ennis", "ncessch": "300993000278"}, {"name": "Ennis 7-8", "lat": 45.348453, "lon": -111.732649, "proficiency": 0.3, "district": "Ennis K-12 Schools", "city": "Ennis", "ncessch": "300993001004"}, {"name": "Eureka Elementary School", "lat": 48.885401, "lon": -115.051284, "proficiency": -0.02, "district": "Eureka Elem", "city": "Eureka", "ncessch": "301008000279"}, {"name": "Eureka Middle School 5-8", "lat": 48.884822, "lon": -115.049598, "proficiency": 0.22, "district": "Eureka Elem", "city": "Eureka", "ncessch": "301008001000"}, {"name": "Fairfield Elementary School", "lat": 47.615788, "lon": -111.975763, "proficiency": -0.02, "district": "Fairfield Elem", "city": "Fairfield", "ncessch": "301014000280"}, {"name": "Fairfield 7-8", "lat": 47.615788, "lon": -111.975763, "proficiency": 0.495, "district": "Fairfield Elem", "city": "Fairfield", "ncessch": "301014001066"}, {"name": "Fairview School", "lat": 47.849735, "lon": -104.048297, "proficiency": -0.02, "district": "Fairview Elem", "city": "Fairview", "ncessch": "301021000282"}, {"name": "Fairview 7-8", "lat": 47.849735, "lon": -104.048297, "proficiency": 0.1, "district": "Fairview Elem", "city": "Fairview", "ncessch": "301021001041"}, {"name": "Fair-Mont-Egan School", "lat": 48.197153, "lon": -114.221942, "proficiency": -0.02, "district": "Fair-Mont-Egan Elem", "city": "Kalispell", "ncessch": "301023000283"}, {"name": "Fair-Mont-Egan Middle School", "lat": 48.197176, "lon": -114.221966, "proficiency": 0.245, "district": "Fair-Mont-Egan Elem", "city": "Kalispell", "ncessch": "301023000961"}, {"name": "Fishtail School", "lat": 45.451606, "lon": -109.503278, "proficiency": -0.02, "district": "Fishtail Elem", "city": "Fishtail", "ncessch": "301080000289"}, {"name": "Wise River School", "lat": 45.788461, "lon": -112.951313, "proficiency": -0.03, "district": "Wise River Elem", "city": "Wise River", "ncessch": "301082000794"}, {"name": "East Evergreen School", "lat": 48.2272, "lon": -114.256971, "proficiency": -0.02, "district": "Evergreen Elem", "city": "Kalispell", "ncessch": "301092000292"}, {"name": "Evergreen Junior High", "lat": 48.224344, "lon": -114.278787, "proficiency": 0.42, "district": "Evergreen Elem", "city": "Kalispell", "ncessch": "301092000967"}, {"name": "Bissell School", "lat": 48.36949, "lon": -114.457972, "proficiency": -0.02, "district": "Olney-Bissell Elem", "city": "Whitefish", "ncessch": "301095000296"}, {"name": "Bissell 7-8", "lat": 48.369476, "lon": -114.457949, "proficiency": 0.245, "district": "Olney-Bissell Elem", "city": "Whitefish", "ncessch": "301095000969"}, {"name": "Florence-Carlton El Schl", "lat": 46.640754, "lon": -114.076686, "proficiency": -0.02, "district": "Florence-Carlton K-12 Schls", "city": "Florence", "ncessch": "301110000300"}, {"name": "Florence-Carlton HS", "lat": 46.640754, "lon": -114.076686, "proficiency": -0.02, "district": "Florence-Carlton K-12 Schls", "city": "Florence", "ncessch": "301110000301"}, {"name": "Florence-Carlton 6-8", "lat": 46.640754, "lon": -114.076686, "proficiency": 0.245, "district": "Florence-Carlton K-12 Schls", "city": "Florence", "ncessch": "301110001039"}, {"name": "Forsyth 7-8", "lat": 46.269047, "lon": -106.681011, "proficiency": 0.3, "district": "Forsyth Elem", "city": "Forsyth", "ncessch": "301116000302"}, {"name": "Forsyth Elementary School", "lat": 46.271005, "lon": -106.667591, "proficiency": -0.02, "district": "Forsyth Elem", "city": "Forsyth", "ncessch": "301116000303"}, {"name": "Fort Benton 7-8", "lat": 47.823062, "lon": -110.667379, "proficiency": 0.495, "district": "Fort Benton Elem", "city": "Fort Benton", "ncessch": "301124000305"}, {"name": "Fort Benton School", "lat": 47.818567, "lon": -110.670599, "proficiency": -0.02, "district": "Fort Benton Elem", "city": "Fort Benton", "ncessch": "301124000306"}, {"name": "Fortine School", "lat": 48.764823, "lon": -114.904912, "proficiency": -0.02, "district": "Fortine Elem", "city": "Fortine", "ncessch": "301134000309"}, {"name": "Fortine 7-8", "lat": 48.764417, "lon": -114.90491, "proficiency": -0.03, "district": "Fortine Elem", "city": "Fortine", "ncessch": "301134001103"}, {"name": "Frazer Elementary", "lat": 48.058335, "lon": -106.046958, "proficiency": -0.02, "district": "Frazer Elem", "city": "Frazer", "ncessch": "301142000310"}, {"name": "Frazer 7-8", "lat": 48.058335, "lon": -106.046958, "proficiency": 0.245, "district": "Frazer Elem", "city": "Frazer", "ncessch": "301142001072"}, {"name": "Frenchtown Elementary School", "lat": 47.011367, "lon": -114.226655, "proficiency": -0.02, "district": "Frenchtown K-12 Schools", "city": "Frenchtown", "ncessch": "301152000312"}, {"name": "Frenchtown High School", "lat": 47.021655, "lon": -114.242095, "proficiency": -0.02, "district": "Frenchtown K-12 Schools", "city": "Frenchtown", "ncessch": "301152000313"}, {"name": "Frenchtown 6-8", "lat": 47.021655, "lon": -114.242095, "proficiency": 0.27, "district": "Frenchtown K-12 Schools", "city": "Frenchtown", "ncessch": "301152001019"}, {"name": "Frenchtown Intermediate School", "lat": 47.011791, "lon": -114.22629, "proficiency": -0.02, "district": "Frenchtown K-12 Schools", "city": "Frenchtown", "ncessch": "301152001105"}, {"name": "Froid Elementary School", "lat": 48.335928, "lon": -104.488164, "proficiency": -0.02, "district": "Froid Elem", "city": "Froid", "ncessch": "301155000314"}, {"name": "Froid 7-8", "lat": 48.33597, "lon": -104.488217, "proficiency": 0.75, "district": "Froid Elem", "city": "Froid", "ncessch": "301155001048"}, {"name": "Fromberg School", "lat": 45.39319, "lon": -108.912264, "proficiency": -0.02, "district": "Fromberg K-12", "city": "Fromberg", "ncessch": "301165000316"}, {"name": "Fromberg High School", "lat": 45.39319, "lon": -108.912264, "proficiency": -0.02, "district": "Fromberg K-12", "city": "Fromberg", "ncessch": "301165000317"}, {"name": "Fromberg Middle School", "lat": 45.39319, "lon": -108.912264, "proficiency": 0.245, "district": "Fromberg K-12", "city": "Fromberg", "ncessch": "301165000938"}, {"name": "Frontier School", "lat": 48.093408, "lon": -105.559871, "proficiency": -0.02, "district": "Frontier Elem", "city": "Wolf Point", "ncessch": "301167000318"}, {"name": "Frontier 7-8", "lat": 48.093385, "lon": -105.559806, "proficiency": 0.245, "district": "Frontier Elem", "city": "Wolf Point", "ncessch": "301167001043"}, {"name": "Galata School", "lat": 48.478069, "lon": -111.352126, "proficiency": -0.02, "district": "Galata Elem", "city": "Galata", "ncessch": "301173000319"}, {"name": "Gallatin Gateway School", "lat": 45.59082, "lon": -111.199938, "proficiency": -0.02, "district": "Gallatin Gateway Elem", "city": "Gallatin Gateway", "ncessch": "301179000320"}, {"name": "Gallatin Gateway 7-8", "lat": 45.590772, "lon": -111.199904, "proficiency": 0.695, "district": "Gallatin Gateway Elem", "city": "Gallatin Gateway", "ncessch": "301179000975"}, {"name": "Gardiner School", "lat": 45.03178, "lon": -110.7112, "proficiency": -0.02, "district": "Gardiner Elem", "city": "Gardiner", "ncessch": "301182000321"}, {"name": "Gardiner 7-8", "lat": 45.03178, "lon": -110.7112, "proficiency": 0.245, "district": "Gardiner Elem", "city": "Gardiner", "ncessch": "301182001022"}, {"name": "Ross School", "lat": 47.1819, "lon": -107.923348, "proficiency": -0.03, "district": "Ross Elem", "city": "Mosby", "ncessch": "301199000328"}, {"name": "Sand Springs School", "lat": 47.100834, "lon": -107.487471, "proficiency": -0.02, "district": "Sand Springs Elem", "city": "Sand Springs", "ncessch": "301206000330"}, {"name": "Geraldine Elementary", "lat": 47.603175, "lon": -110.269623, "proficiency": -0.02, "district": "Geraldine K-12", "city": "Geraldine", "ncessch": "301221000332"}, {"name": "Geraldine High School", "lat": 47.603175, "lon": -110.269623, "proficiency": -0.02, "district": "Geraldine K-12", "city": "Geraldine", "ncessch": "301221000333"}, {"name": "Geraldine Middle School", "lat": 47.603175, "lon": -110.269623, "proficiency": -0.03, "district": "Geraldine K-12", "city": "Geraldine", "ncessch": "301221000948"}, {"name": "Geyser School", "lat": 47.25753, "lon": -110.492905, "proficiency": -0.02, "district": "Geyser K-12 Schools", "city": "Geyser", "ncessch": "301230000334"}, {"name": "Geyser High School", "lat": 47.25753, "lon": -110.492905, "proficiency": -0.02, "district": "Geyser K-12 Schools", "city": "Geyser", "ncessch": "301230000335"}, {"name": "Geyser 7-8", "lat": 47.25753, "lon": -110.492905, "proficiency": -0.03, "district": "Geyser K-12 Schools", "city": "Geyser", "ncessch": "301230000993"}, {"name": "Gildford Colony School", "lat": 48.801, "lon": -110.286, "proficiency": -0.02, "district": "Gildford Colony Elem", "city": "Gildford", "ncessch": "301235000336"}, {"name": "Irle Elementary School", "lat": 48.20463, "lon": -106.636675, "proficiency": -0.02, "district": "Glasgow K-12 Schools", "city": "Glasgow", "ncessch": "301242000340"}, {"name": "Glasgow High School", "lat": 48.203641, "lon": -106.613115, "proficiency": -0.02, "district": "Glasgow K-12 Schools", "city": "Glasgow", "ncessch": "301242000343"}, {"name": "Glasgow Middle School", "lat": 48.195835, "lon": -106.618862, "proficiency": 0.37, "district": "Glasgow K-12 Schools", "city": "Glasgow", "ncessch": "301242000880"}, {"name": "Lincoln School", "lat": 47.100248, "lon": -104.708853, "proficiency": -0.02, "district": "Glendive Elem", "city": "Glendive", "ncessch": "301251000345"}, {"name": "Washington Middle School", "lat": 47.109668, "lon": -104.71284, "proficiency": 0.12, "district": "Glendive Elem", "city": "Glendive", "ncessch": "301251000952"}, {"name": "Gold Creek School", "lat": 46.580424, "lon": -112.928325, "proficiency": -0.02, "district": "Gold Creek Elem", "city": "Gold Creek", "ncessch": "301257000347"}, {"name": "Golden Ridge School", "lat": 47.567382, "lon": -112.227534, "proficiency": -0.03, "district": "Golden Ridge Elem", "city": "Fairfield", "ncessch": "301260000348"}, {"name": "Granite High School", "lat": 46.32893, "lon": -113.296482, "proficiency": -0.02, "district": "Philipsburg K-12 Schools", "city": "Philipsburg", "ncessch": "301284000349"}, {"name": "Philipsburg School", "lat": 46.329475, "lon": -113.296396, "proficiency": -0.02, "district": "Philipsburg K-12 Schools", "city": "Philipsburg", "ncessch": "301284000616"}, {"name": "Philipsburg 7-8", "lat": 46.328922, "lon": -113.296449, "proficiency": 0.495, "district": "Philipsburg K-12 Schools", "city": "Philipsburg", "ncessch": "301284000983"}, {"name": "Grant School", "lat": 45.007739, "lon": -113.064428, "proficiency": -0.02, "district": "Grant Elem", "city": "Dillon", "ncessch": "301290000350"}, {"name": "Grass Range School", "lat": 47.024035, "lon": -108.800521, "proficiency": -0.02, "district": "Grass Range Elem", "city": "Grass Range", "ncessch": "301296000351"}, {"name": "Grass Range 7-8", "lat": 47.024035, "lon": -108.800521, "proficiency": -0.03, "district": "Grass Range Elem", "city": "Grass Range", "ncessch": "301296000955"}, {"name": "Chief Joseph School", "lat": 47.502404, "lon": -111.219458, "proficiency": -0.02, "district": "Great Falls Elem", "city": "Great Falls", "ncessch": "301304000357"}, {"name": "Lewis & Clark School", "lat": 47.504022, "lon": -111.240678, "proficiency": -0.02, "district": "Great Falls Elem", "city": "Great Falls", "ncessch": "301304000361"}, {"name": "Lincoln School", "lat": 47.497455, "lon": -111.261481, "proficiency": -0.02, "district": "Great Falls Elem", "city": "Great Falls", "ncessch": "301304000362"}, {"name": "Longfellow School", "lat": 47.498209, "lon": -111.288606, "proficiency": -0.02, "district": "Great Falls Elem", "city": "Great Falls", "ncessch": "301304000363"}, {"name": "Loy School", "lat": 47.510951, "lon": -111.214286, "proficiency": -0.02, "district": "Great Falls Elem", "city": "Great Falls", "ncessch": "301304000365"}, {"name": "Meadow Lark School", "lat": 47.482623, "lon": -111.328456, "proficiency": -0.02, "district": "Great Falls Elem", "city": "Great Falls", "ncessch": "301304000367"}, {"name": "Morningside School", "lat": 47.513132, "lon": -111.235316, "proficiency": -0.02, "district": "Great Falls Elem", "city": "Great Falls", "ncessch": "301304000368"}, {"name": "Mountain View School", "lat": 47.487273, "lon": -111.245037, "proficiency": -0.02, "district": "Great Falls Elem", "city": "Great Falls", "ncessch": "301304000369"}, {"name": "Riverview School", "lat": 47.523939, "lon": -111.314737, "proficiency": -0.02, "district": "Great Falls Elem", "city": "Great Falls", "ncessch": "301304000370"}, {"name": "Sacajawea School", "lat": 47.532475, "lon": -111.298548, "proficiency": -0.02, "district": "Great Falls Elem", "city": "Great Falls", "ncessch": "301304000373"}, {"name": "Sunnyside School", "lat": 47.485728, "lon": -111.275867, "proficiency": -0.02, "district": "Great Falls Elem", "city": "Great Falls", "ncessch": "301304000376"}, {"name": "Valley View School", "lat": 47.518326, "lon": -111.327352, "proficiency": -0.02, "district": "Great Falls Elem", "city": "Great Falls", "ncessch": "301304000377"}, {"name": "Whittier School", "lat": 47.508867, "lon": -111.293394, "proficiency": -0.02, "district": "Great Falls Elem", "city": "Great Falls", "ncessch": "301304000378"}, {"name": "West Elementary", "lat": 47.509236, "lon": -111.3328, "proficiency": -0.02, "district": "Great Falls Elem", "city": "Great Falls", "ncessch": "301304000881"}, {"name": "East Middle School", "lat": 47.503635, "lon": -111.236669, "proficiency": 0.33, "district": "Great Falls Elem", "city": "Great Falls", "ncessch": "301304000882"}, {"name": "North Middle School", "lat": 47.529734, "lon": -111.29291, "proficiency": 0.35, "district": "Great Falls Elem", "city": "Great Falls", "ncessch": "301304000883"}, {"name": "Giant Springs Elementary", "lat": 47.510581, "lon": -111.253032, "proficiency": -0.02, "district": "Great Falls Elem", "city": "Great Falls", "ncessch": "301304001121"}, {"name": "Greenfield 7-8", "lat": 47.638851, "lon": -111.86137, "proficiency": -0.02, "district": "Greenfield Elem", "city": "Fairfield", "ncessch": "301311000068"}, {"name": "Greenfield School", "lat": 47.638869, "lon": -111.861328, "proficiency": -0.02, "district": "Greenfield Elem", "city": "Fairfield", "ncessch": "301311000381"}, {"name": "Greycliff School", "lat": 45.762077, "lon": -109.785473, "proficiency": -0.02, "district": "Greycliff Elem", "city": "Greycliff", "ncessch": "301314000382"}, {"name": "Hall School", "lat": 46.585801, "lon": -113.197922, "proficiency": -0.03, "district": "Hall Elem", "city": "Hall", "ncessch": "301320000383"}, {"name": "Daly School", "lat": 46.239923, "lon": -114.148622, "proficiency": -0.02, "district": "Hamilton K-12 Schools", "city": "Hamilton", "ncessch": "301326000384"}, {"name": "Hamilton Middle School", "lat": 46.245022, "lon": -114.162448, "proficiency": 0.22, "district": "Hamilton K-12 Schools", "city": "Hamilton", "ncessch": "301326000388"}, {"name": "Hamilton High School", "lat": 46.25429, "lon": -114.141661, "proficiency": -0.02, "district": "Hamilton K-12 Schools", "city": "Hamilton", "ncessch": "301326000389"}, {"name": "Hammond School", "lat": 45.22625, "lon": -104.916378, "proficiency": -0.02, "district": "Hawks Home Elem", "city": "Hammond", "ncessch": "301328000338"}, {"name": "Crow Agency School", "lat": 45.605624, "lon": -107.458672, "proficiency": -0.02, "district": "Hardin Elem", "city": "Hardin", "ncessch": "301331000392"}, {"name": "Fort Smith School", "lat": 45.308113, "lon": -107.932308, "proficiency": -0.02, "district": "Hardin Elem", "city": "Hardin", "ncessch": "301331000393"}, {"name": "Hardin Middle School", "lat": 45.734275, "lon": -107.615667, "proficiency": 0.025, "district": "Hardin Elem", "city": "Hardin", "ncessch": "301331000394"}, {"name": "Hardin Intermediate", "lat": 45.73376, "lon": -107.616338, "proficiency": -0.02, "district": "Hardin Elem", "city": "Hardin", "ncessch": "301331000395"}, {"name": "Harlem Elementary School", "lat": 48.530424, "lon": -108.78854, "proficiency": -0.02, "district": "Harlem Elem", "city": "Harlem", "ncessch": "301339500399"}, {"name": "Harlem 7-8", "lat": 48.529761, "lon": -108.776692, "proficiency": 0.05, "district": "Harlem Elem", "city": "Harlem", "ncessch": "301339500909"}, {"name": "Hillcrest School", "lat": 46.440364, "lon": -109.830575, "proficiency": 0.245, "district": "Harlowton K-12", "city": "Harlowton", "ncessch": "301347000401"}, {"name": "Harlowton High School", "lat": 46.435982, "lon": -109.828376, "proficiency": -0.02, "district": "Harlowton K-12", "city": "Harlowton", "ncessch": "301347000402"}, {"name": "Hillcrest 7-8", "lat": 46.435982, "lon": -109.828376, "proficiency": 0.245, "district": "Harlowton K-12", "city": "Harlowton", "ncessch": "301347001076"}, {"name": "Harrison School", "lat": 45.699379, "lon": -111.784913, "proficiency": -0.02, "district": "Harrison K-12 Schools", "city": "Harrison", "ncessch": "301353000403"}, {"name": "Harrison High School", "lat": 45.699398, "lon": -111.784893, "proficiency": -0.02, "district": "Harrison K-12 Schools", "city": "Harrison", "ncessch": "301353000404"}, {"name": "Harrison 6-8", "lat": 45.699388, "lon": -111.784894, "proficiency": 0.75, "district": "Harrison K-12 Schools", "city": "Harrison", "ncessch": "301353001003"}, {"name": "Havre Middle School", "lat": 48.544448, "lon": -109.707881, "proficiency": 0.37, "district": "Havre Elem", "city": "Havre", "ncessch": "301356000406"}, {"name": "Lincoln-McKinley School", "lat": 48.550215, "lon": -109.6703, "proficiency": -0.02, "district": "Havre Elem", "city": "Havre", "ncessch": "301356000409"}, {"name": "Sunnyside School", "lat": 48.540075, "lon": -109.676221, "proficiency": -0.02, "district": "Havre Elem", "city": "Havre", "ncessch": "301356000410"}, {"name": "Lodge Pole School", "lat": 47.997681, "lon": -108.688427, "proficiency": -0.02, "district": "Hays-Lodge Pole K-12 Schls", "city": "Hays", "ncessch": "301366000097"}, {"name": "Hays-Lodge Pole High Sch", "lat": 47.997681, "lon": -108.688427, "proficiency": -0.02, "district": "Hays-Lodge Pole K-12 Schls", "city": "Hays", "ncessch": "301366000413"}, {"name": "Hays-Lodge Pole 7-8", "lat": 47.997681, "lon": -108.688427, "proficiency": 0.1, "district": "Hays-Lodge Pole K-12 Schls", "city": "Hays", "ncessch": "301366000934"}, {"name": "Helena Flats School", "lat": 48.255403, "lon": -114.25601, "proficiency": -0.02, "district": "Helena Flats Elem", "city": "Kalispell", "ncessch": "301380000426"}, {"name": "Helena Flats 7-8", "lat": 48.255244, "lon": -114.255744, "proficiency": 0.245, "district": "Helena Flats Elem", "city": "Kalispell", "ncessch": "301380000964"}, {"name": "Hellgate Elem Lower Grades", "lat": 46.892952, "lon": -114.05876, "proficiency": -0.02, "district": "Hellgate Elem", "city": "Missoula", "ncessch": "301386000432"}, {"name": "Hellgate Middle School", "lat": 46.89408, "lon": -114.059375, "proficiency": 0.42, "district": "Hellgate Elem", "city": "Missoula", "ncessch": "301386001010"}, {"name": "Hellgate El Intermediate", "lat": 46.894237, "lon": -114.057577, "proficiency": -0.02, "district": "Hellgate Elem", "city": "Missoula", "ncessch": "301386001119"}, {"name": "Helmville School", "lat": 46.865727, "lon": -112.959855, "proficiency": -0.03, "district": "Helmville Elem", "city": "Helmville", "ncessch": "301389000433"}, {"name": "Highwood School", "lat": 47.5842, "lon": -110.7973, "proficiency": -0.02, "district": "Highwood K-12", "city": "Highwood", "ncessch": "301407000436"}, {"name": "Highwood High School", "lat": 47.5842, "lon": -110.7973, "proficiency": -0.02, "district": "Highwood K-12", "city": "Highwood", "ncessch": "301407000437"}, {"name": "Highwood Middle School", "lat": 47.5842, "lon": -110.7973, "proficiency": 0.75, "district": "Highwood K-12", "city": "Highwood", "ncessch": "301407000947"}, {"name": "Cottonwood School", "lat": 48.779758, "lon": -109.988368, "proficiency": -0.03, "district": "Cottonwood Elem", "city": "Havre", "ncessch": "301415000439"}, {"name": "Hinsdale School", "lat": 48.394822, "lon": -107.084446, "proficiency": -0.02, "district": "Hinsdale Elem", "city": "Hinsdale", "ncessch": "301434000443"}, {"name": "Hinsdale 7-8", "lat": 48.394822, "lon": -107.084446, "proficiency": 0.245, "district": "Hinsdale Elem", "city": "Hinsdale", "ncessch": "301434001073"}, {"name": "Hobson School", "lat": 46.998158, "lon": -109.87399, "proficiency": -0.02, "district": "Hobson K-12 Schools", "city": "Hobson", "ncessch": "301443000445"}, {"name": "Hobson High School", "lat": 46.998158, "lon": -109.87399, "proficiency": -0.02, "district": "Hobson K-12 Schools", "city": "Hobson", "ncessch": "301443000446"}, {"name": "Hobson 6-8", "lat": 46.998158, "lon": -109.87399, "proficiency": 0.75, "district": "Hobson K-12 Schools", "city": "Hobson", "ncessch": "301443000992"}, {"name": "Hot Springs School", "lat": 47.608584, "lon": -114.664771, "proficiency": -0.02, "district": "Hot Springs K-12", "city": "Hot Springs", "ncessch": "301464000448"}, {"name": "Hot Springs High School", "lat": 47.608584, "lon": -114.664771, "proficiency": -0.02, "district": "Hot Springs K-12", "city": "Hot Springs", "ncessch": "301464000449"}, {"name": "Hot Springs 7-8", "lat": 47.608584, "lon": -114.664771, "proficiency": 0.245, "district": "Hot Springs K-12", "city": "Hot Springs", "ncessch": "301464001054"}, {"name": "Huntley Project Elem K-6", "lat": 45.959961, "lon": -108.166374, "proficiency": -0.02, "district": "Huntley Project K-12 Schools", "city": "Worden", "ncessch": "301470000450"}, {"name": "Huntley Project High Schl", "lat": 45.960751, "lon": -108.165783, "proficiency": -0.02, "district": "Huntley Project K-12 Schools", "city": "Worden", "ncessch": "301470000452"}, {"name": "Huntley Project 7-8", "lat": 45.960751, "lon": -108.165783, "proficiency": 0.245, "district": "Huntley Project K-12 Schools", "city": "Worden", "ncessch": "301470000887"}, {"name": "Hysham School", "lat": 46.292749, "lon": -107.231355, "proficiency": -0.02, "district": "Hysham K-12 Schools", "city": "Hysham", "ncessch": "301476000453"}, {"name": "Hysham High School", "lat": 46.292668, "lon": -107.231398, "proficiency": -0.02, "district": "Hysham K-12 Schools", "city": "Hysham", "ncessch": "301476000454"}, {"name": "Hysham 7-8", "lat": 46.292709, "lon": -107.231372, "proficiency": -0.03, "district": "Hysham K-12 Schools", "city": "Hysham", "ncessch": "301476001070"}, {"name": "Jackson School", "lat": 45.370542, "lon": -113.410082, "proficiency": -0.02, "district": "Jackson Elem", "city": "Jackson", "ncessch": "301506000459"}, {"name": "Joliet School", "lat": 45.487427, "lon": -108.973982, "proficiency": -0.02, "district": "Joliet Elem", "city": "Joliet", "ncessch": "301520000463"}, {"name": "Joliet Middle School", "lat": 45.487427, "lon": -108.973982, "proficiency": 0.245, "district": "Joliet Elem", "city": "Joliet", "ncessch": "301520000910"}, {"name": "Jordan Elementary School", "lat": 47.318563, "lon": -106.907222, "proficiency": -0.02, "district": "Jordan Elem", "city": "Jordan", "ncessch": "301534000467"}, {"name": "Jordan 7-8", "lat": 47.318563, "lon": -106.907222, "proficiency": 0.75, "district": "Jordan Elem", "city": "Jordan", "ncessch": "301534000979"}, {"name": "Judith Gap School", "lat": 46.679495, "lon": -109.753104, "proficiency": -0.02, "district": "Judith Gap Elem", "city": "Judith Gap", "ncessch": "301536000468"}, {"name": "Judith Gap 7-8", "lat": 46.679495, "lon": -109.753104, "proficiency": -0.03, "district": "Judith Gap Elem", "city": "Judith Gap", "ncessch": "301536001077"}, {"name": "Kalispell Middle School", "lat": 48.216209, "lon": -114.332932, "proficiency": 0.52, "district": "Kalispell Elem", "city": "Kalispell", "ncessch": "301545000086"}, {"name": "Cornelius Hedges School", "lat": 48.191607, "lon": -114.30399, "proficiency": -0.02, "district": "Kalispell Elem", "city": "Kalispell", "ncessch": "301545000471"}, {"name": "Edgerton School", "lat": 48.229334, "lon": -114.310132, "proficiency": -0.02, "district": "Kalispell Elem", "city": "Kalispell", "ncessch": "301545000472"}, {"name": "Elrod School", "lat": 48.193683, "lon": -114.3171, "proficiency": -0.02, "district": "Kalispell Elem", "city": "Kalispell", "ncessch": "301545000473"}, {"name": "Lillian Peterson School", "lat": 48.19361, "lon": -114.329707, "proficiency": -0.02, "district": "Kalispell Elem", "city": "Kalispell", "ncessch": "301545000474"}, {"name": "Russell School", "lat": 48.205737, "lon": -114.320405, "proficiency": -0.02, "district": "Kalispell Elem", "city": "Kalispell", "ncessch": "301545000475"}, {"name": "Jeannette Rankin Elementary Sc", "lat": 48.170797, "lon": -114.30826, "proficiency": -0.02, "district": "Kalispell Elem", "city": "Kalispell", "ncessch": "301545001120"}, {"name": "Kester School", "lat": 47.573228, "lon": -106.666715, "proficiency": -0.02, "district": "Kester Elem", "city": "Jordan", "ncessch": "301551000478"}, {"name": "Kila 7-8", "lat": 48.121569, "lon": -114.457395, "proficiency": 0.3, "district": "Kila Elem", "city": "Kila", "ncessch": "301557000130"}, {"name": "Kila School", "lat": 48.121524, "lon": -114.457391, "proficiency": -0.02, "district": "Kila Elem", "city": "Kila", "ncessch": "301557000480"}, {"name": "King Colony School", "lat": 47.054492, "lon": -109.63863, "proficiency": -0.03, "district": "King Colony Elem", "city": "Lewistown", "ncessch": "301561000481"}, {"name": "Knees School", "lat": 48.031249, "lon": -111.323018, "proficiency": -0.03, "district": "Knees Elem", "city": "Carter", "ncessch": "301569000483"}, {"name": "Salmon Prairie School", "lat": 47.630843, "lon": -113.785274, "proficiency": -0.03, "district": "Swan Lake-Salmon Elem", "city": "Swan Lake", "ncessch": "301593000489"}, {"name": "Lambert School", "lat": 47.68527, "lon": -104.621835, "proficiency": -0.02, "district": "Lambert Elem", "city": "Lambert", "ncessch": "301599000492"}, {"name": "Lambert 7-8", "lat": 47.68527, "lon": -104.621835, "proficiency": 0.245, "district": "Lambert Elem", "city": "Lambert", "ncessch": "301599001042"}, {"name": "Lame Deer School", "lat": 45.61991, "lon": -106.669661, "proficiency": -0.02, "district": "Lame Deer Elem", "city": "Lame Deer", "ncessch": "301605000494"}, {"name": "Lame Deer 7-8", "lat": 45.590116, "lon": -106.656212, "proficiency": 0.05, "district": "Lame Deer Elem", "city": "Lame Deer", "ncessch": "301605001049"}, {"name": "LaMotte 6-8", "lat": 45.644069, "lon": -110.944657, "proficiency": 0.75, "district": "LaMotte Elem", "city": "Bozeman", "ncessch": "301611000241"}, {"name": "LaMotte School", "lat": 45.644069, "lon": -110.944657, "proficiency": -0.02, "district": "LaMotte Elem", "city": "Bozeman", "ncessch": "301611000495"}, {"name": "Fred W Graff School", "lat": 45.67488, "lon": -108.766028, "proficiency": -0.02, "district": "Laurel Elem", "city": "Laurel", "ncessch": "301620000497"}, {"name": "Laurel Middle School", "lat": 45.676575, "lon": -108.762705, "proficiency": 0.17, "district": "Laurel Elem", "city": "Laurel", "ncessch": "301620000890"}, {"name": "Lavina Elementary", "lat": 46.292852, "lon": -108.93595, "proficiency": -0.02, "district": "Lavina K-12 Schools", "city": "Lavina", "ncessch": "301629000502"}, {"name": "Lavina High School", "lat": 46.292852, "lon": -108.93595, "proficiency": -0.02, "district": "Lavina K-12 Schools", "city": "Lavina", "ncessch": "301629000503"}, {"name": "Lavina Middle School", "lat": 46.292852, "lon": -108.93595, "proficiency": 0.245, "district": "Lavina K-12 Schools", "city": "Lavina", "ncessch": "301629000982"}, {"name": "Highland Park School", "lat": 47.069646, "lon": -109.440757, "proficiency": -0.02, "district": "Lewistown Elem", "city": "Lewistown", "ncessch": "301649000508"}, {"name": "Lewis & Clark School", "lat": 47.054551, "lon": -109.426591, "proficiency": -0.02, "district": "Lewistown Elem", "city": "Lewistown", "ncessch": "301649000509"}, {"name": "Lewistown 7-8", "lat": 47.061056, "lon": -109.433372, "proficiency": 0.32, "district": "Lewistown Elem", "city": "Lewistown", "ncessch": "301649000510"}, {"name": "Libby Elementary School", "lat": 48.384108, "lon": -115.571123, "proficiency": -0.02, "district": "Libby K-12 Schools", "city": "Libby", "ncessch": "301653000512"}, {"name": "Libby Middle School", "lat": 48.394397, "lon": -115.57133, "proficiency": 0.42, "district": "Libby K-12 Schools", "city": "Libby", "ncessch": "301653000517"}, {"name": "Libby High School", "lat": 48.394397, "lon": -115.57133, "proficiency": -0.02, "district": "Libby K-12 Schools", "city": "Libby", "ncessch": "301653000518"}, {"name": "Lima School", "lat": 44.634879, "lon": -112.592748, "proficiency": -0.02, "district": "Lima K-12 Schools", "city": "Lima", "ncessch": "301671000519"}, {"name": "Lima High School", "lat": 44.634878, "lon": -112.592725, "proficiency": -0.02, "district": "Lima K-12 Schools", "city": "Lima", "ncessch": "301671000520"}, {"name": "Lima 7-8", "lat": 44.634878, "lon": -112.592684, "proficiency": -0.02, "district": "Lima K-12 Schools", "city": "Lima", "ncessch": "301671000929"}, {"name": "Lincoln Elementary School", "lat": 46.95609, "lon": -112.674092, "proficiency": -0.02, "district": "Lincoln K-12 Schools", "city": "Lincoln", "ncessch": "301681000522"}, {"name": "Lincoln High School", "lat": 46.956113, "lon": -112.674093, "proficiency": -0.02, "district": "Lincoln K-12 Schools", "city": "Lincoln", "ncessch": "301681000892"}, {"name": "Lincoln 7-8", "lat": 46.95609, "lon": -112.674092, "proficiency": 0.245, "district": "Lincoln K-12 Schools", "city": "Lincoln", "ncessch": "301681000996"}, {"name": "East Side School", "lat": 45.658649, "lon": -110.550563, "proficiency": -0.02, "district": "Livingston Elem", "city": "Livingston", "ncessch": "301688000524"}, {"name": "Sleeping Giant Middle Sch", "lat": 45.658221, "lon": -110.552044, "proficiency": 0.27, "district": "Livingston Elem", "city": "Livingston", "ncessch": "301688001021"}, {"name": "Lodge Grass School", "lat": 45.317115, "lon": -107.370948, "proficiency": -0.02, "district": "Lodge Grass Elem", "city": "Lodge Grass", "ncessch": "301701000533"}, {"name": "Lodge Grass 7-8", "lat": 45.317115, "lon": -107.370948, "proficiency": 0.1, "district": "Lodge Grass Elem", "city": "Lodge Grass", "ncessch": "301701000931"}, {"name": "Lolo Elementary", "lat": 46.762074, "lon": -114.082118, "proficiency": -0.02, "district": "Lolo Elem", "city": "Lolo", "ncessch": "301713000536"}, {"name": "Lolo Middle School", "lat": 46.761712, "lon": -114.083429, "proficiency": 0.345, "district": "Lolo Elem", "city": "Lolo", "ncessch": "301713000821"}, {"name": "Lone Rock Middle School", "lat": 46.566917, "lon": -113.983666, "proficiency": 0.1, "district": "Lone Rock Elem", "city": "Stevensville", "ncessch": "301719000251"}, {"name": "Lone Rock School", "lat": 46.56706, "lon": -113.98351, "proficiency": -0.02, "district": "Lone Rock Elem", "city": "Stevensville", "ncessch": "301719000538"}, {"name": "Lustre School", "lat": 48.407934, "lon": -105.93951, "proficiency": -0.03, "district": "Lustre Elem", "city": "Frazer", "ncessch": "301734000539"}, {"name": "Luther School", "lat": 45.284687, "lon": -109.425012, "proficiency": -0.02, "district": "Luther Elem", "city": "Luther", "ncessch": "301737000540"}, {"name": "Alder School", "lat": 45.319492, "lon": -112.10963, "proficiency": -0.02, "district": "Alder Elem", "city": "Alder", "ncessch": "301746000541"}, {"name": "Malmborg School", "lat": 45.671212, "lon": -110.83734, "proficiency": -0.02, "district": "Malmborg Elem", "city": "Bozeman", "ncessch": "301752000354"}, {"name": "Malta 6-7-8", "lat": 48.352929, "lon": -107.879317, "proficiency": 0.345, "district": "Malta K-12 Schools", "city": "Malta", "ncessch": "301758000544"}, {"name": "Malta K-5", "lat": 48.352924, "lon": -107.869747, "proficiency": -0.02, "district": "Malta K-12 Schools", "city": "Malta", "ncessch": "301758000545"}, {"name": "Malta High School", "lat": 48.352929, "lon": -107.879317, "proficiency": -0.02, "district": "Malta K-12 Schools", "city": "Malta", "ncessch": "301758000546"}, {"name": "Loring Colony School", "lat": 48.786341, "lon": -107.973326, "proficiency": -0.02, "district": "Malta K-12 Schools", "city": "Malta", "ncessch": "301758000895"}, {"name": "Manhattan Elem", "lat": 45.86197, "lon": -111.33, "proficiency": -0.02, "district": "Manhattan School", "city": "Manhattan", "ncessch": "301761000547"}, {"name": "Manhattan 5-8", "lat": 45.86197, "lon": -111.33, "proficiency": 0.62, "district": "Manhattan School", "city": "Manhattan", "ncessch": "301761000971"}, {"name": "Marion School", "lat": 48.103392, "lon": -114.662519, "proficiency": -0.02, "district": "Marion Elem", "city": "Marion", "ncessch": "301770000549"}, {"name": "Marion 7-8", "lat": 48.103442, "lon": -114.662559, "proficiency": 0.245, "district": "Marion Elem", "city": "Marion", "ncessch": "301770000968"}, {"name": "McLeod School", "lat": 45.662285, "lon": -110.115989, "proficiency": -0.03, "district": "McLeod Elem", "city": "Big Timber", "ncessch": "301806000550"}, {"name": "Medicine Lake School", "lat": 48.503544, "lon": -104.502379, "proficiency": -0.02, "district": "Medicine Lake K-12 Schools", "city": "Medicine Lake", "ncessch": "301817000551"}, {"name": "Medicine Lake High School", "lat": 48.503573, "lon": -104.502441, "proficiency": -0.02, "district": "Medicine Lake K-12 Schools", "city": "Medicine Lake", "ncessch": "301817000552"}, {"name": "Medicine Lake 7-8", "lat": 48.503607, "lon": -104.502426, "proficiency": 0.245, "district": "Medicine Lake K-12 Schools", "city": "Medicine Lake", "ncessch": "301817001055"}, {"name": "Melrose School", "lat": 45.631488, "lon": -112.687475, "proficiency": -0.03, "district": "Melrose Elem", "city": "Melrose", "ncessch": "301821000553"}, {"name": "Melstone School", "lat": 46.600955, "lon": -107.86752, "proficiency": -0.02, "district": "Melstone Elem", "city": "Melstone", "ncessch": "301824000554"}, {"name": "Melstone Middle School", "lat": 46.600955, "lon": -107.86752, "proficiency": 0.75, "district": "Melstone Elem", "city": "Melstone", "ncessch": "301824001020"}, {"name": "Melville School", "lat": 46.097057, "lon": -109.948079, "proficiency": -0.03, "district": "Melville Elem", "city": "Melville", "ncessch": "301829000556"}, {"name": "Lincoln School", "lat": 46.405759, "lon": -105.837657, "proficiency": -0.02, "district": "Miles City Elem", "city": "Miles City", "ncessch": "301841000559"}, {"name": "Washington Middle School 6-8", "lat": 46.41024, "lon": -105.848218, "proficiency": 0.32, "district": "Miles City Elem", "city": "Miles City", "ncessch": "301841000561"}, {"name": "Garfield School", "lat": 46.416745, "lon": -105.847221, "proficiency": -0.02, "district": "Miles City Elem", "city": "Miles City", "ncessch": "301841000823"}, {"name": "Chief Charlo School", "lat": 46.818772, "lon": -114.031204, "proficiency": -0.02, "district": "Missoula Elem", "city": "Missoula", "ncessch": "301857000164"}, {"name": "Porter Middle School", "lat": 46.851122, "lon": -114.041047, "proficiency": 0.32, "district": "Missoula Elem", "city": "Missoula", "ncessch": "301857000565"}, {"name": "Jeannette Rankin El", "lat": 46.81692, "lon": -114.070064, "proficiency": -0.02, "district": "Missoula Elem", "city": "Missoula", "ncessch": "301857000567"}, {"name": "Franklin School", "lat": 46.860158, "lon": -114.026669, "proficiency": -0.02, "district": "Missoula Elem", "city": "Missoula", "ncessch": "301857000569"}, {"name": "Hawthorne School", "lat": 46.866452, "lon": -114.052107, "proficiency": -0.02, "district": "Missoula Elem", "city": "Missoula", "ncessch": "301857000570"}, {"name": "Lewis & Clark School", "lat": 46.844474, "lon": -114.003341, "proficiency": -0.02, "district": "Missoula Elem", "city": "Missoula", "ncessch": "301857000572"}, {"name": "Lowell School", "lat": 46.880705, "lon": -114.008808, "proficiency": -0.02, "district": "Missoula Elem", "city": "Missoula", "ncessch": "301857000574"}, {"name": "Meadow Hill Middle School", "lat": 46.832112, "lon": -114.039605, "proficiency": 0.32, "district": "Missoula Elem", "city": "Missoula", "ncessch": "301857000575"}, {"name": "Paxson School", "lat": 46.855612, "lon": -113.996875, "proficiency": -0.02, "district": "Missoula Elem", "city": "Missoula", "ncessch": "301857000576"}, {"name": "Rattlesnake Elementary School", "lat": 46.891786, "lon": -113.967086, "proficiency": -0.02, "district": "Missoula Elem", "city": "Missoula", "ncessch": "301857000578"}, {"name": "Russell School", "lat": 46.840971, "lon": -114.017378, "proficiency": -0.02, "district": "Missoula Elem", "city": "Missoula", "ncessch": "301857000580"}, {"name": "Washington Middle School", "lat": 46.850032, "lon": -114.00696, "proficiency": 0.42, "district": "Missoula Elem", "city": "Missoula", "ncessch": "301857000581"}, {"name": "Molt School", "lat": 45.861541, "lon": -108.929691, "proficiency": -0.03, "district": "Molt Elem", "city": "Molt", "ncessch": "301866000584"}, {"name": "Monforton School", "lat": 45.675823, "lon": -111.170489, "proficiency": -0.02, "district": "Monforton Elem", "city": "Bozeman", "ncessch": "301875000585"}, {"name": "Monforton 6-8", "lat": 45.675823, "lon": -111.170489, "proficiency": 0.745, "district": "Monforton Elem", "city": "Bozeman", "ncessch": "301875000974"}, {"name": "Montana City School", "lat": 46.538768, "lon": -111.934613, "proficiency": -0.02, "district": "Montana City Elem", "city": "Clancy", "ncessch": "301878000586"}, {"name": "Montana City Middle Schl", "lat": 46.538263, "lon": -111.934761, "proficiency": 0.62, "district": "Montana City Elem", "city": "Clancy", "ncessch": "301878000990"}, {"name": "Moore School", "lat": 46.971735, "lon": -109.692903, "proficiency": -0.02, "district": "Moore Elem", "city": "Moore", "ncessch": "301887000588"}, {"name": "Moore 6-8", "lat": 46.971735, "lon": -109.692903, "proficiency": 0.245, "district": "Moore Elem", "city": "Moore", "ncessch": "301887000956"}, {"name": "Nashua School", "lat": 48.135643, "lon": -106.354139, "proficiency": -0.02, "district": "Nashua K-12 Schools", "city": "Nashua", "ncessch": "301917000593"}, {"name": "Nashua High School", "lat": 48.135631, "lon": -106.35411, "proficiency": -0.02, "district": "Nashua K-12 Schools", "city": "Nashua", "ncessch": "301917000594"}, {"name": "Nashua 6-8", "lat": 48.135604, "lon": -106.354163, "proficiency": -0.03, "district": "Nashua K-12 Schools", "city": "Nashua", "ncessch": "301917001075"}, {"name": "North Harlem Elementary", "lat": 48.585405, "lon": -108.754392, "proficiency": -0.03, "district": "North Harlem Colony Elem", "city": "Harlem", "ncessch": "301931000597"}, {"name": "Opheim School", "lat": 48.858271, "lon": -106.411409, "proficiency": -0.02, "district": "Opheim K-12 Schools", "city": "Opheim", "ncessch": "301974000602"}, {"name": "Opheim High School", "lat": 48.858303, "lon": -106.411388, "proficiency": -0.02, "district": "Opheim K-12 Schools", "city": "Opheim", "ncessch": "301974000603"}, {"name": "Opheim 7-8", "lat": 48.858303, "lon": -106.411388, "proficiency": -0.03, "district": "Opheim K-12 Schools", "city": "Opheim", "ncessch": "301974001074"}, {"name": "Ovando School", "lat": 47.019644, "lon": -113.128148, "proficiency": -0.02, "district": "Ovando Elem", "city": "Ovando", "ncessch": "301995000607"}, {"name": "Park City School", "lat": 45.63009, "lon": -108.91575, "proficiency": -0.02, "district": "Park City Elem", "city": "Park City", "ncessch": "302004000609"}, {"name": "Park City 7-8", "lat": 45.63009, "lon": -108.91575, "proficiency": 0.3, "district": "Park City Elem", "city": "Park City", "ncessch": "302004001059"}, {"name": "Pass Creek School", "lat": 45.977249, "lon": -111.098345, "proficiency": -0.02, "district": "Pass Creek Elem", "city": "Belgrade", "ncessch": "302017000612"}, {"name": "Pendroy School", "lat": 48.067692, "lon": -112.475095, "proficiency": -0.03, "district": "Pendroy Elem", "city": "Pendroy", "ncessch": "302024000615"}, {"name": "Pine Creek 6-8", "lat": 45.518988, "lon": -110.563836, "proficiency": -0.03, "district": "Pine Creek Elem", "city": "Livingston", "ncessch": "302067000166"}, {"name": "Pine Creek School", "lat": 45.518988, "lon": -110.563836, "proficiency": -0.02, "district": "Pine Creek Elem", "city": "Livingston", "ncessch": "302067000619"}, {"name": "Pine Grove School", "lat": 47.531076, "lon": -107.535645, "proficiency": -0.02, "district": "Pine Grove Elem", "city": "Brusett", "ncessch": "302069000620"}, {"name": "Pioneer School", "lat": 45.856444, "lon": -108.41517, "proficiency": -0.02, "district": "Pioneer Elem", "city": "Billings", "ncessch": "302079000621"}, {"name": "Plains Elementary School", "lat": 47.465175, "lon": -114.885237, "proficiency": -0.02, "district": "Plains K-12", "city": "Plains", "ncessch": "302085000622"}, {"name": "Plains High School", "lat": 47.465175, "lon": -114.885237, "proficiency": -0.02, "district": "Plains K-12", "city": "Plains", "ncessch": "302085000623"}, {"name": "Plains 7-8", "lat": 47.465175, "lon": -114.885237, "proficiency": 0.345, "district": "Plains K-12", "city": "Plains", "ncessch": "302085000896"}, {"name": "Pleasant Valley School", "lat": 48.149648, "lon": -114.956742, "proficiency": -0.02, "district": "Pleasant Valley Elem", "city": "Marion", "ncessch": "302088000624"}, {"name": "Plentywood School", "lat": 48.778228, "lon": -104.55497, "proficiency": -0.02, "district": "Plentywood K-12 Schools", "city": "Plentywood", "ncessch": "302096000625"}, {"name": "Plentywood High School", "lat": 48.778231, "lon": -104.554912, "proficiency": -0.02, "district": "Plentywood K-12 Schools", "city": "Plentywood", "ncessch": "302096000626"}, {"name": "Plentywood 7-8", "lat": 48.778267, "lon": -104.554995, "proficiency": 0.05, "district": "Plentywood K-12 Schools", "city": "Plentywood", "ncessch": "302096001056"}, {"name": "Plevna School", "lat": 46.419203, "lon": -104.517984, "proficiency": -0.02, "district": "Plevna K-12 Schools", "city": "Plevna", "ncessch": "302100000627"}, {"name": "Plevna High School", "lat": 46.419217, "lon": -104.518002, "proficiency": -0.02, "district": "Plevna K-12 Schools", "city": "Plevna", "ncessch": "302100000628"}, {"name": "Plevna 7-8", "lat": 46.419245, "lon": -104.517973, "proficiency": 0.245, "district": "Plevna K-12 Schools", "city": "Plevna", "ncessch": "302100000954"}, {"name": "Polaris School", "lat": 45.338588, "lon": -113.12008, "proficiency": -0.03, "district": "Polaris Elem", "city": "Dillon", "ncessch": "302103000629"}, {"name": "Linderman School", "lat": 47.692026, "lon": -114.158214, "proficiency": -0.02, "district": "Polson Elem", "city": "Polson", "ncessch": "302106000631"}, {"name": "Polson Middle School", "lat": 47.680107, "lon": -114.168427, "proficiency": 0.22, "district": "Polson Elem", "city": "Polson", "ncessch": "302106000632"}, {"name": "Miami School", "lat": 48.190967, "lon": -112.282057, "proficiency": -0.03, "district": "Miami Elem", "city": "Conrad", "ncessch": "302115000634"}, {"name": "Poplar 7-8", "lat": 48.111445, "lon": -105.203227, "proficiency": 0.05, "district": "Poplar Elem", "city": "Poplar", "ncessch": "302124000636"}, {"name": "Poplar School", "lat": 48.111445, "lon": -105.203227, "proficiency": -0.02, "district": "Poplar Elem", "city": "Poplar", "ncessch": "302124000637"}, {"name": "Poplar 5-6 School", "lat": 48.111445, "lon": -105.203227, "proficiency": -0.02, "district": "Poplar Elem", "city": "Poplar", "ncessch": "302124001044"}, {"name": "Potomac School", "lat": 46.881565, "lon": -113.579598, "proficiency": -0.02, "district": "Potomac Elem", "city": "Bonner", "ncessch": "302133000639"}, {"name": "Potomac 7-8", "lat": 46.881565, "lon": -113.579598, "proficiency": 0.495, "district": "Potomac Elem", "city": "Bonner", "ncessch": "302133001011"}, {"name": "Power School", "lat": 47.716526, "lon": -111.68835, "proficiency": -0.02, "district": "Power Elem", "city": "Power", "ncessch": "302151000643"}, {"name": "Power 7-8", "lat": 47.716526, "lon": -111.68835, "proficiency": 0.75, "district": "Power Elem", "city": "Power", "ncessch": "302151001068"}, {"name": "Arrow Creek Elem School", "lat": 45.429212, "lon": -108.532595, "proficiency": -0.02, "district": "Pryor Elem", "city": "Pryor", "ncessch": "302172000647"}, {"name": "Pryor 7-8", "lat": 45.426072, "lon": -108.536404, "proficiency": -0.03, "district": "Pryor Elem", "city": "Pryor", "ncessch": "302172000930"}, {"name": "Ramsay School", "lat": 46.004934, "lon": -112.6872, "proficiency": -0.02, "district": "Ramsay Elem", "city": "Ramsay", "ncessch": "302185000648"}, {"name": "Ramsay Middle School", "lat": 46.004942, "lon": -112.687212, "proficiency": 0.245, "district": "Ramsay Elem", "city": "Ramsay", "ncessch": "302185001058"}, {"name": "Rapelje School", "lat": 45.972794, "lon": -109.260947, "proficiency": -0.02, "district": "Rapelje Elem", "city": "Rapelje", "ncessch": "302187000649"}, {"name": "Rapelje 7-8", "lat": 45.972794, "lon": -109.260947, "proficiency": -0.03, "district": "Rapelje Elem", "city": "Rapelje", "ncessch": "302187001062"}, {"name": "Mountain View School", "lat": 45.183664, "lon": -109.24955, "proficiency": -0.02, "district": "Red Lodge Elem", "city": "Red Lodge", "ncessch": "302208000653"}, {"name": "Roosevelt Junior High", "lat": 45.182636, "lon": -109.24973, "proficiency": 0.345, "district": "Red Lodge Elem", "city": "Red Lodge", "ncessch": "302208000913"}, {"name": "Reed Point Elementary", "lat": 45.706845, "lon": -109.543774, "proficiency": -0.02, "district": "Reed Point Elem", "city": "Reed Point", "ncessch": "302223000656"}, {"name": "Reed Point 7-8", "lat": 45.705667, "lon": -109.548368, "proficiency": -0.03, "district": "Reed Point Elem", "city": "Reed Point", "ncessch": "302223001061"}, {"name": "Reichle School", "lat": 45.461703, "lon": -112.706595, "proficiency": -0.02, "district": "Reichle Elem", "city": "Glen", "ncessch": "302229000658"}, {"name": "Richey School", "lat": 47.642556, "lon": -105.067179, "proficiency": -0.02, "district": "Richey Elem", "city": "Richey", "ncessch": "302237000659"}, {"name": "Richey 7-8", "lat": 47.642556, "lon": -105.067179, "proficiency": 0.245, "district": "Richey Elem", "city": "Richey", "ncessch": "302237000953"}, {"name": "Roberts School", "lat": 45.361235, "lon": -109.165291, "proficiency": -0.02, "district": "Roberts K-12 Schools", "city": "Roberts", "ncessch": "302271000664"}, {"name": "Roberts High School", "lat": 45.361269, "lon": -109.16522, "proficiency": -0.02, "district": "Roberts K-12 Schools", "city": "Roberts", "ncessch": "302271000665"}, {"name": "Roberts 7-8", "lat": 45.361295, "lon": -109.165298, "proficiency": 0.245, "district": "Roberts K-12 Schools", "city": "Roberts", "ncessch": "302271000937"}, {"name": "Rocky Boy School", "lat": 48.257452, "lon": -109.784278, "proficiency": -0.02, "district": "Rocky Boy Elem", "city": "Box Elder", "ncessch": "302275000666"}, {"name": "Rocky Boy 7-8", "lat": 48.257452, "lon": -109.784278, "proficiency": 0.1, "district": "Rocky Boy Elem", "city": "Box Elder", "ncessch": "302275000986"}, {"name": "Pablo Elementary", "lat": 47.601474, "lon": -114.116724, "proficiency": -0.02, "district": "Ronan Elem", "city": "Ronan", "ncessch": "302279000667"}, {"name": "Ronan Middle School", "lat": 47.530293, "lon": -114.100932, "proficiency": 0.22, "district": "Ronan Elem", "city": "Ronan", "ncessch": "302279000668"}, {"name": "K William Harvey Elem", "lat": 47.532097, "lon": -114.104462, "proficiency": -0.02, "district": "Ronan Elem", "city": "Ronan", "ncessch": "302279000669"}, {"name": "Rosebud School", "lat": 46.275399, "lon": -106.442381, "proficiency": -0.03, "district": "Rosebud K-12", "city": "Rosebud", "ncessch": "302292000671"}, {"name": "Rosebud High School", "lat": 46.275528, "lon": -106.442122, "proficiency": -0.02, "district": "Rosebud K-12", "city": "Rosebud", "ncessch": "302292000672"}, {"name": "Rosebud 7-8", "lat": 46.275432, "lon": -106.442394, "proficiency": -0.03, "district": "Rosebud K-12", "city": "Rosebud", "ncessch": "302292001050"}, {"name": "Roundup Elementary", "lat": 46.45297, "lon": -108.534905, "proficiency": -0.02, "district": "Roundup Elem", "city": "Roundup", "ncessch": "302304000673"}, {"name": "Roundup 7-8", "lat": 46.447367, "lon": -108.550023, "proficiency": 0.245, "district": "Roundup Elem", "city": "Roundup", "ncessch": "302304000914"}, {"name": "Roy School", "lat": 47.33086, "lon": -108.955197, "proficiency": -0.02, "district": "Roy K-12 Schools", "city": "Roy", "ncessch": "302316000676"}, {"name": "Roy High School", "lat": 47.33086, "lon": -108.955197, "proficiency": -0.02, "district": "Roy K-12 Schools", "city": "Roy", "ncessch": "302316000677"}, {"name": "Roy 6-8", "lat": 47.33086, "lon": -108.955197, "proficiency": -0.03, "district": "Roy K-12 Schools", "city": "Roy", "ncessch": "302316000957"}, {"name": "Ryegate High School", "lat": 46.298857, "lon": -109.258232, "proficiency": -0.02, "district": "Ryegate K-12 Schools", "city": "Ryegate", "ncessch": "302334000681"}, {"name": "Ryegate 7-8", "lat": 46.298857, "lon": -109.258274, "proficiency": -0.03, "district": "Ryegate K-12 Schools", "city": "Ryegate", "ncessch": "302334000981"}, {"name": "Saco School", "lat": 48.460524, "lon": -107.344656, "proficiency": -0.02, "district": "Saco Elem", "city": "Saco", "ncessch": "302337000682"}, {"name": "Saco 7-8", "lat": 48.460524, "lon": -107.344656, "proficiency": -0.03, "district": "Saco Elem", "city": "Saco", "ncessch": "302337001030"}, {"name": "Savage School", "lat": 47.450605, "lon": -104.342245, "proficiency": -0.02, "district": "Savage Elem", "city": "Savage", "ncessch": "302352000685"}, {"name": "Savage 7-8", "lat": 47.450605, "lon": -104.342245, "proficiency": 0.245, "district": "Savage Elem", "city": "Savage", "ncessch": "302352001040"}, {"name": "Scobey School", "lat": 48.791748, "lon": -105.416464, "proficiency": -0.02, "district": "Scobey K-12 Schools", "city": "Scobey", "ncessch": "302367000687"}, {"name": "Scobey High School", "lat": 48.791486, "lon": -105.417273, "proficiency": -0.02, "district": "Scobey K-12 Schools", "city": "Scobey", "ncessch": "302367000688"}, {"name": "Scobey 7-8", "lat": 48.791518, "lon": -105.416603, "proficiency": 0.3, "district": "Scobey K-12 Schools", "city": "Scobey", "ncessch": "302367000949"}, {"name": "Seeley Lake Elementary", "lat": 47.176165, "lon": -113.477669, "proficiency": -0.02, "district": "Seeley Lake Elem", "city": "Seeley Lake", "ncessch": "302373000689"}, {"name": "Seeley Lake 7-8", "lat": 47.175951, "lon": -113.478383, "proficiency": 0.495, "district": "Seeley Lake Elem", "city": "Seeley Lake", "ncessch": "302373001018"}, {"name": "Cam Rose School", "lat": 48.310856, "lon": -111.613726, "proficiency": -0.03, "district": "Shelby Elem", "city": "Shelby", "ncessch": "302390000288"}, {"name": "Shelby Elementary School", "lat": 48.515156, "lon": -111.862249, "proficiency": -0.02, "district": "Shelby Elem", "city": "Shelby", "ncessch": "302390000692"}, {"name": "Shelby 7-8", "lat": 48.515344, "lon": -111.862994, "proficiency": 0.245, "district": "Shelby Elem", "city": "Shelby", "ncessch": "302390000693"}, {"name": "Big Rose Colony School", "lat": 48.605291, "lon": -111.920185, "proficiency": -0.03, "district": "Shelby Elem", "city": "Shelby", "ncessch": "302390001129"}, {"name": "Shepherd Elementary", "lat": 45.942057, "lon": -108.344567, "proficiency": -0.02, "district": "Shepherd Elem", "city": "Shepherd", "ncessch": "302394000695"}, {"name": "Shepherd Middle School", "lat": 45.942057, "lon": -108.344567, "proficiency": 0.245, "district": "Shepherd Elem", "city": "Shepherd", "ncessch": "302394001083"}, {"name": "Sheridan Elementary Schl", "lat": 45.45393, "lon": -112.19118, "proficiency": -0.02, "district": "Sheridan Elem", "city": "Sheridan", "ncessch": "302415000697"}, {"name": "Sheridan 7-8", "lat": 45.455436, "lon": -112.192401, "proficiency": 0.245, "district": "Sheridan Elem", "city": "Sheridan", "ncessch": "302415001001"}, {"name": "Central Elementary", "lat": 47.7131, "lon": -104.154811, "proficiency": -0.02, "district": "Sidney Elem", "city": "Sidney", "ncessch": "302420000699"}, {"name": "Sidney Middle School", "lat": 47.712049, "lon": -104.15979, "proficiency": -0.02, "district": "Sidney Elem", "city": "Sidney", "ncessch": "302420000897"}, {"name": "Fort Shaw Elem School", "lat": 47.509564, "lon": -111.822046, "proficiency": -0.02, "district": "Sun River Valley Elem", "city": "Simms", "ncessch": "302430000703"}, {"name": "Sun River Middle School", "lat": 47.491464, "lon": -111.928133, "proficiency": 0.495, "district": "Sun River Valley Elem", "city": "Simms", "ncessch": "302430000724"}, {"name": "Cascade Colony School", "lat": 47.439226, "lon": -111.820234, "proficiency": -0.03, "district": "Sun River Valley Elem", "city": "Simms", "ncessch": "302430000928"}, {"name": "Spring Creek Colony Schl", "lat": 47.153386, "lon": -109.62093, "proficiency": -0.02, "district": "Spring Creek Colony Elem", "city": "Lewistown", "ncessch": "302469000710"}, {"name": "Springhill School", "lat": 45.839105, "lon": -111.035214, "proficiency": -0.03, "district": "Springhill Elem", "city": "Belgrade", "ncessch": "302481000713"}, {"name": "St Regis School", "lat": 47.300239, "lon": -115.101573, "proficiency": -0.02, "district": "St Regis K-12 Schools", "city": "St Regis", "ncessch": "302493000714"}, {"name": "St Regis High School", "lat": 47.300072, "lon": -115.101301, "proficiency": -0.02, "district": "St Regis K-12 Schools", "city": "St Regis", "ncessch": "302493000715"}, {"name": "St Regis 7-8", "lat": 47.300113, "lon": -115.101345, "proficiency": 0.1, "district": "St Regis K-12 Schools", "city": "St Regis", "ncessch": "302493001009"}, {"name": "Stanford School", "lat": 47.148716, "lon": -110.218441, "proficiency": -0.02, "district": "Stanford K-12 Schools", "city": "Stanford", "ncessch": "302499000021"}, {"name": "Stanford 7-8", "lat": 47.148672, "lon": -110.218475, "proficiency": 0.245, "district": "Stanford K-12 Schools", "city": "Stanford", "ncessch": "302499000716"}, {"name": "Stanford High School", "lat": 47.148719, "lon": -110.218432, "proficiency": -0.02, "district": "Stanford K-12 Schools", "city": "Stanford", "ncessch": "302499000717"}, {"name": "Stevensville 7-8", "lat": 46.506336, "lon": -114.084273, "proficiency": 0.37, "district": "Stevensville Elem", "city": "Stevensville", "ncessch": "302502000718"}, {"name": "Stevensville K-6", "lat": 46.506336, "lon": -114.084273, "proficiency": -0.02, "district": "Stevensville Elem", "city": "Stevensville", "ncessch": "302502000719"}, {"name": "Centerville School", "lat": 47.388781, "lon": -111.141685, "proficiency": -0.02, "district": "Centerville Elem", "city": "Sand Coulee", "ncessch": "302513000721"}, {"name": "Big Stone School", "lat": 47.400636, "lon": -111.206524, "proficiency": -0.03, "district": "Centerville Elem", "city": "Sand Coulee", "ncessch": "302513000922"}, {"name": "Centerville 6-8", "lat": 47.388781, "lon": -111.141685, "proficiency": 0.495, "district": "Centerville Elem", "city": "Sand Coulee", "ncessch": "302513000942"}, {"name": "Hill Top Colony School", "lat": 47.38887, "lon": -111.096437, "proficiency": -0.03, "district": "Centerville Elem", "city": "Sand Coulee", "ncessch": "302513001117"}, {"name": "Grass Land Colony School", "lat": 47.341537, "lon": -111.287963, "proficiency": -0.03, "district": "Centerville Elem", "city": "Sand Coulee", "ncessch": "302513001123"}, {"name": "Sunburst Elementary", "lat": 48.88253, "lon": -111.911879, "proficiency": -0.02, "district": "Sunburst K-12 Schools", "city": "Sunburst", "ncessch": "302532000725"}, {"name": "Sunburst High School", "lat": 48.880079, "lon": -111.915113, "proficiency": -0.02, "district": "Sunburst K-12 Schools", "city": "Sunburst", "ncessch": "302532000726"}, {"name": "Sunburst  7 - 8", "lat": 48.880103, "lon": -111.915098, "proficiency": 0.245, "district": "Sunburst K-12 Schools", "city": "Sunburst", "ncessch": "302532001069"}, {"name": "Sunset School", "lat": 46.916353, "lon": -113.42842, "proficiency": -0.03, "district": "Sunset Elem", "city": "Greenough", "ncessch": "302538000727"}, {"name": "Superior Elementary", "lat": 47.186978, "lon": -114.878442, "proficiency": -0.02, "district": "Superior K-12 Schools", "city": "Superior", "ncessch": "302547000728"}, {"name": "Superior High School", "lat": 47.188661, "lon": -114.879908, "proficiency": -0.02, "district": "Superior K-12 Schools", "city": "Superior", "ncessch": "302547000729"}, {"name": "Superior 7-8", "lat": 47.189524, "lon": -114.880848, "proficiency": 0.1, "district": "Superior K-12 Schools", "city": "Superior", "ncessch": "302547001008"}, {"name": "Swan River School", "lat": 48.095963, "lon": -114.028048, "proficiency": -0.02, "district": "Swan River Elem", "city": "Bigfork", "ncessch": "302550000730"}, {"name": "Swan River 6-8", "lat": 48.095893, "lon": -114.027563, "proficiency": 0.1, "district": "Swan River Elem", "city": "Bigfork", "ncessch": "302550000962"}, {"name": "Swan Valley School", "lat": 47.490289, "lon": -113.679065, "proficiency": -0.02, "district": "Swan Valley Elem", "city": "Condon", "ncessch": "302553000731"}, {"name": "Swan Valley 7-8", "lat": 47.490289, "lon": -113.679065, "proficiency": -0.03, "district": "Swan Valley Elem", "city": "Condon", "ncessch": "302553001017"}, {"name": "Target Range School", "lat": 46.848243, "lon": -114.081362, "proficiency": -0.02, "district": "Target Range Elem", "city": "Missoula", "ncessch": "302589000734"}, {"name": "Target Range 7-8", "lat": 46.848234, "lon": -114.079928, "proficiency": 0.445, "district": "Target Range Elem", "city": "Missoula", "ncessch": "302589001015"}, {"name": "Terry School", "lat": 46.792101, "lon": -105.309435, "proficiency": -0.02, "district": "Terry K-12 Schools", "city": "Terry", "ncessch": "302595000735"}, {"name": "Terry High School", "lat": 46.791357, "lon": -105.307498, "proficiency": -0.02, "district": "Terry K-12 Schools", "city": "Terry", "ncessch": "302595000736"}, {"name": "Terry Middle School", "lat": 46.791304, "lon": -105.309197, "proficiency": 0.245, "district": "Terry K-12 Schools", "city": "Terry", "ncessch": "302595001036"}, {"name": "Thompson Falls Elem Schl", "lat": 47.597835, "lon": -115.344451, "proficiency": -0.02, "district": "Thompson Falls Elem", "city": "Thompson Falls", "ncessch": "302607000737"}, {"name": "Thompson Falls 7-8", "lat": 47.596919, "lon": -115.342437, "proficiency": 0.245, "district": "Thompson Falls Elem", "city": "Thompson Falls", "ncessch": "302607001052"}, {"name": "Three Forks Elem School", "lat": 45.896371, "lon": -111.547692, "proficiency": -0.02, "district": "Three Forks Elem", "city": "Three Forks", "ncessch": "302616000740"}, {"name": "Three Forks 7-8", "lat": 45.896371, "lon": -111.547692, "proficiency": 0.15, "district": "Three Forks Elem", "city": "Three Forks", "ncessch": "302616000973"}, {"name": "Riverview School", "lat": 46.243875, "lon": -105.272673, "proficiency": -0.03, "district": "Trail Creek Elem", "city": "Miles City", "ncessch": "302640000744"}, {"name": "Trego School", "lat": 48.702981, "lon": -114.876819, "proficiency": -0.03, "district": "Trego Elem", "city": "Trego", "ncessch": "302646000745"}, {"name": "Trinity School", "lat": 46.805306, "lon": -112.245279, "proficiency": -0.02, "district": "Trinity Elem", "city": "Canyon Creek", "ncessch": "302649000746"}, {"name": "Trout Creek 7-8", "lat": 47.83775, "lon": -115.598806, "proficiency": 0.245, "district": "Trout Creek Elem", "city": "Trout Creek", "ncessch": "302652000211"}, {"name": "Trout Creek School", "lat": 47.837751, "lon": -115.598715, "proficiency": -0.02, "district": "Trout Creek Elem", "city": "Trout Creek", "ncessch": "302652000747"}, {"name": "W F Morrison School", "lat": 48.460172, "lon": -115.890926, "proficiency": -0.02, "district": "Troy Elem", "city": "Troy", "ncessch": "302655000748"}, {"name": "Troy 7-8", "lat": 48.463568, "lon": -115.897857, "proficiency": 0.345, "district": "Troy Elem", "city": "Troy", "ncessch": "302655000999"}, {"name": "Turner School", "lat": 48.846995, "lon": -108.403426, "proficiency": -0.02, "district": "Turner Elem", "city": "Turner", "ncessch": "302664000750"}, {"name": "Turner 7-8", "lat": 48.846995, "lon": -108.403426, "proficiency": 0.245, "district": "Turner Elem", "city": "Turner", "ncessch": "302664000933"}, {"name": "Twin Bridges School", "lat": 45.546224, "lon": -112.333272, "proficiency": -0.02, "district": "Twin Bridges K-12 Schools", "city": "Twin Bridges", "ncessch": "302673000752"}, {"name": "Twin Bridges High School", "lat": 45.546218, "lon": -112.333235, "proficiency": -0.02, "district": "Twin Bridges K-12 Schools", "city": "Twin Bridges", "ncessch": "302673000753"}, {"name": "Twin Bridges Middle School", "lat": 45.546269, "lon": -112.333311, "proficiency": 0.75, "district": "Twin Bridges K-12 Schools", "city": "Twin Bridges", "ncessch": "302673001002"}, {"name": "Ulm School", "lat": 47.436145, "lon": -111.507381, "proficiency": -0.02, "district": "Ulm Elem", "city": "Ulm", "ncessch": "302688000756"}, {"name": "Fairhaven Colony", "lat": 47.403749, "lon": -111.627874, "proficiency": -0.03, "district": "Ulm Elem", "city": "Ulm", "ncessch": "302688000923"}, {"name": "Ulm Junior High", "lat": 47.436148, "lon": -111.507353, "proficiency": 0.245, "district": "Ulm Elem", "city": "Ulm", "ncessch": "302688000945"}, {"name": "Valier School", "lat": 48.305362, "lon": -112.253759, "proficiency": -0.02, "district": "Valier Elem", "city": "Valier", "ncessch": "302706000758"}, {"name": "Valier 7-8", "lat": 48.305332, "lon": -112.253773, "proficiency": 0.245, "district": "Valier Elem", "city": "Valier", "ncessch": "302706001033"}, {"name": "Kingsbury Colony Attn Ctr", "lat": 48.302431, "lon": -112.48716, "proficiency": -0.03, "district": "Valier Elem", "city": "Valier", "ncessch": "302706001088"}, {"name": "Victor School", "lat": 46.41494, "lon": -114.150733, "proficiency": -0.02, "district": "Victor K-12 Schools", "city": "Victor", "ncessch": "302727000762"}, {"name": "Victor High School", "lat": 46.41495, "lon": -114.150667, "proficiency": -0.02, "district": "Victor K-12 Schools", "city": "Victor", "ncessch": "302727000763"}, {"name": "Victor Middle School", "lat": 46.414982, "lon": -114.150656, "proficiency": 0.245, "district": "Victor K-12 Schools", "city": "Victor", "ncessch": "302727001037"}, {"name": "Vida School", "lat": 47.83495, "lon": -105.49348, "proficiency": -0.02, "district": "Vida Elem", "city": "Circle", "ncessch": "302734000764"}, {"name": "West Valley School", "lat": 48.239628, "lon": -114.418187, "proficiency": -0.02, "district": "West Valley Elem", "city": "Kalispell", "ncessch": "302757000767"}, {"name": "West Valley Middle School", "lat": 48.239672, "lon": -114.418098, "proficiency": 0.47, "district": "West Valley Elem", "city": "Kalispell", "ncessch": "302757000970"}, {"name": "West Yellowstone School", "lat": 44.666195, "lon": -111.108201, "proficiency": -0.02, "district": "West Yellowstone K-12", "city": "West Yellowstone", "ncessch": "302763000768"}, {"name": "West Yellowstone HS", "lat": 44.666195, "lon": -111.108145, "proficiency": -0.02, "district": "West Yellowstone K-12", "city": "West Yellowstone", "ncessch": "302763000769"}, {"name": "West Yellowstone 6-8", "lat": 44.666195, "lon": -111.108145, "proficiency": 0.3, "district": "West Yellowstone K-12", "city": "West Yellowstone", "ncessch": "302763000977"}, {"name": "Westby School", "lat": 48.866921, "lon": -104.050164, "proficiency": -0.02, "district": "Westby K-12 Schools", "city": "Westby", "ncessch": "302773000770"}, {"name": "Westby High School", "lat": 48.866923, "lon": -104.050228, "proficiency": -0.02, "district": "Westby K-12 Schools", "city": "Westby", "ncessch": "302773000771"}, {"name": "Westby 7-8", "lat": 48.866926, "lon": -104.050225, "proficiency": 0.245, "district": "Westby K-12 Schools", "city": "Westby", "ncessch": "302773001089"}, {"name": "L A Muldown School", "lat": 48.406018, "lon": -114.323485, "proficiency": -0.02, "district": "Whitefish Elem", "city": "Whitefish", "ncessch": "302774000773"}, {"name": "Whitefish Middle 5-8", "lat": 48.411968, "lon": -114.334796, "proficiency": 0.27, "district": "Whitefish Elem", "city": "Whitefish", "ncessch": "302774000830"}, {"name": "Whitehall 6-8", "lat": 45.874399, "lon": -112.09778, "proficiency": 0.245, "district": "Whitehall Elem", "city": "Whitehall", "ncessch": "302781000776"}, {"name": "Whitehall Elementary", "lat": 45.874399, "lon": -112.09778, "proficiency": -0.02, "district": "Whitehall Elem", "city": "Whitehall", "ncessch": "302781000777"}, {"name": "Whitewater School", "lat": 48.761697, "lon": -107.630096, "proficiency": -0.02, "district": "Whitewater K-12 Schools", "city": "Whitewater", "ncessch": "302793000779"}, {"name": "Whitewater High School", "lat": 48.761697, "lon": -107.630096, "proficiency": -0.02, "district": "Whitewater K-12 Schools", "city": "Whitewater", "ncessch": "302793000780"}, {"name": "Whitewater 6-8", "lat": 48.761697, "lon": -107.630096, "proficiency": -0.03, "district": "Whitewater K-12 Schools", "city": "Whitewater", "ncessch": "302793001029"}, {"name": "Wibaux High School", "lat": 46.990405, "lon": -104.196048, "proficiency": -0.02, "district": "Wibaux K-12 Schools", "city": "Wibaux", "ncessch": "302802000783"}, {"name": "Wibaux Elementary School", "lat": 46.989599, "lon": -104.192397, "proficiency": -0.02, "district": "Wibaux K-12 Schools", "city": "Wibaux", "ncessch": "302802000784"}, {"name": "Wibaux 7-8", "lat": 46.990401, "lon": -104.196032, "proficiency": 0.245, "district": "Wibaux K-12 Schools", "city": "Wibaux", "ncessch": "302802001078"}, {"name": "Willow Creek School", "lat": 45.824504, "lon": -111.645477, "proficiency": -0.02, "district": "Willow Creek Elem", "city": "Willow Creek", "ncessch": "302814000785"}, {"name": "Willow Creek 7-8", "lat": 45.824504, "lon": -111.645477, "proficiency": -0.03, "district": "Willow Creek Elem", "city": "Willow Creek", "ncessch": "302814000972"}, {"name": "Winifred School", "lat": 47.558652, "lon": -109.381637, "proficiency": -0.02, "district": "Winifred K-12 Schools", "city": "Winifred", "ncessch": "302838000789"}, {"name": "Winifred High School", "lat": 47.558597, "lon": -109.381661, "proficiency": -0.02, "district": "Winifred K-12 Schools", "city": "Winifred", "ncessch": "302838000790"}, {"name": "Winifred 6-8", "lat": 47.558629, "lon": -109.381694, "proficiency": 0.245, "district": "Winifred K-12 Schools", "city": "Winifred", "ncessch": "302838000959"}, {"name": "Winnett School", "lat": 47.001812, "lon": -108.352708, "proficiency": -0.02, "district": "Winnett K-12 Schools", "city": "Winnett", "ncessch": "302847000791"}, {"name": "Winnett High School", "lat": 47.001782, "lon": -108.352733, "proficiency": -0.02, "district": "Winnett K-12 Schools", "city": "Winnett", "ncessch": "302847000792"}, {"name": "Winnett 7-8", "lat": 47.00176, "lon": -108.352689, "proficiency": -0.03, "district": "Winnett K-12 Schools", "city": "Winnett", "ncessch": "302847001027"}, {"name": "Wisdom School", "lat": 45.614619, "lon": -113.448532, "proficiency": -0.02, "district": "Wisdom Elem", "city": "Wisdom", "ncessch": "302850000793"}, {"name": "Northside School", "lat": 48.096789, "lon": -105.642356, "proficiency": -0.02, "district": "Wolf Point Elem", "city": "Wolf Point", "ncessch": "302859000796"}, {"name": "Southside School", "lat": 48.087595, "lon": -105.644211, "proficiency": -0.02, "district": "Wolf Point Elem", "city": "Wolf Point", "ncessch": "302859000797"}, {"name": "Wolf Point 7-8", "lat": 48.089494, "lon": -105.648324, "proficiency": 0.1, "district": "Wolf Point Elem", "city": "Wolf Point", "ncessch": "302859000798"}, {"name": "Woodman School", "lat": 46.759561, "lon": -114.252241, "proficiency": -0.02, "district": "Woodman Elem", "city": "Lolo", "ncessch": "302865000800"}, {"name": "Woodman 7-8", "lat": 46.759561, "lon": -114.252241, "proficiency": -0.03, "district": "Woodman Elem", "city": "Lolo", "ncessch": "302865001013"}, {"name": "White Sulphur Springs El", "lat": 46.544442, "lon": -110.90382, "proficiency": -0.03, "district": "White Sulphur Spgs K-12", "city": "White Sulphur Springs", "ncessch": "302877000802"}, {"name": "White Sulphur Springs HS", "lat": 46.544442, "lon": -110.90382, "proficiency": -0.02, "district": "White Sulphur Spgs K-12", "city": "White Sulphur Springs", "ncessch": "302877000803"}, {"name": "White Sulphur Springs 7-8", "lat": 46.544442, "lon": -110.90382, "proficiency": 0.245, "district": "White Sulphur Spgs K-12", "city": "White Sulphur Springs", "ncessch": "302877001006"}, {"name": "Wyola 6-8", "lat": 45.131216, "lon": -107.396659, "proficiency": 0.245, "district": "Wyola Elem", "city": "Wyola", "ncessch": "302880000355"}, {"name": "Wyola Elementary", "lat": 45.131186, "lon": -107.396505, "proficiency": -0.02, "district": "Wyola Elem", "city": "Wyola", "ncessch": "302880000804"}, {"name": "Yaak School", "lat": 48.838351, "lon": -115.696977, "proficiency": -0.02, "district": "Yaak Elem", "city": "Troy", "ncessch": "302883000805"}, {"name": "Yellowstone Academy Elem", "lat": 45.737927, "lon": -108.701068, "proficiency": -0.02, "district": "Yellowstone Academy Elem", "city": "Billings", "ncessch": "302886000806"}, {"name": "Yellowstone Academy 7-8", "lat": 45.737927, "lon": -108.701068, "proficiency": 0.1, "district": "Yellowstone Academy Elem", "city": "Billings", "ncessch": "302886001114"}, {"name": "Zurich School", "lat": 48.586023, "lon": -109.030466, "proficiency": -0.02, "district": "Zurich Elem", "city": "Zurich", "ncessch": "302891000807"}], "districts": [{"name": "Somers Elem", "lat": 48.0540205, "lon": -114.225076, "proficiency": 0.225, "schoolCount": 2}, {"name": "Cut Bank Elem", "lat": 48.704029999999996, "lon": -112.33980514285714, "proficiency": 0.0136, "schoolCount": 7}, {"name": "Mountain View Elem", "lat": 48.702875, "lon": -112.591387, "proficiency": -0.03, "schoolCount": 1}, {"name": "Helena Elem", "lat": 46.61413523076923, "lon": -112.02495546153847, "proficiency": 0.04, "schoolCount": 13}, {"name": "Broadus Elem", "lat": 45.448019, "lon": -105.4044165, "proficiency": 0.14, "schoolCount": 2}, {"name": "Ashland Elem", "lat": 45.594903, "lon": -106.271119, "proficiency": 0.1125, "schoolCount": 2}, {"name": "Noxon Elem", "lat": 47.993318, "lon": -115.776576, "proficiency": 0.14, "schoolCount": 2}, {"name": "Liberty Elem", "lat": 48.818411499999996, "lon": -111.64159725, "proficiency": -0.0225, "schoolCount": 4}, {"name": "North Star Elem", "lat": 48.5673355, "lon": -110.426817, "proficiency": 0.1125, "schoolCount": 2}, {"name": "Chester-Joplin-Inverness El", "lat": 48.67970125, "lon": -110.87109275, "proficiency": 0.0437, "schoolCount": 4}, {"name": "Heart Butte K-12 Schools", "lat": 48.275201, "lon": -112.83466733333334, "proficiency": 0.0683, "schoolCount": 3}, {"name": "Dutton/Brady K-12 Schools", "lat": 47.9720986, "lon": -111.91159259999999, "proficiency": 0.029, "schoolCount": 5}, {"name": "Big Sky School K-12", "lat": 45.229755000000004, "lon": -111.25211999999999, "proficiency": 0.1017, "schoolCount": 3}, {"name": "East Helena K-12", "lat": 46.593205499999996, "lon": -111.9118205, "proficiency": 0.15, "schoolCount": 2}, {"name": "Lockwood K-12", "lat": 45.797095, "lon": -108.435872, "proficiency": 0.1, "schoolCount": 2}, {"name": "Shields Valley Elem", "lat": 45.938541, "lon": -110.6301435, "proficiency": 0.365, "schoolCount": 2}, {"name": "Absarokee Elem", "lat": 45.513868, "lon": -109.447207, "proficiency": 0.1125, "schoolCount": 2}, {"name": "Alberton K-12 Schools", "lat": 47.004462, "lon": -114.480836, "proficiency": 0.0683, "schoolCount": 3}, {"name": "Alzada Elem", "lat": 45.020852, "lon": -104.412955, "proficiency": -0.02, "schoolCount": 1}, {"name": "Anaconda Elem", "lat": 46.126760000000004, "lon": -112.95241200000001, "proficiency": 0.065, "schoolCount": 2}, {"name": "Anderson Elem", "lat": 45.599925, "lon": -111.10315, "proficiency": 0.3375, "schoolCount": 2}, {"name": "Arlee Elem", "lat": 47.1640395, "lon": -114.08215150000001, "proficiency": 0.1125, "schoolCount": 2}, {"name": "Arrowhead Elem", "lat": 45.395016, "lon": -110.672182, "proficiency": -0.025, "schoolCount": 2}, {"name": "Augusta Elem", "lat": 47.491344, "lon": -112.398058, "proficiency": -0.03, "schoolCount": 2}, {"name": "Auchard Creek Elem", "lat": 47.328689, "lon": -112.210685, "proficiency": -0.02, "schoolCount": 1}, {"name": "Avon Elem", "lat": 46.598286, "lon": -112.590781, "proficiency": -0.03, "schoolCount": 1}, {"name": "Ayers Elem", "lat": 47.049975, "lon": -108.949474, "proficiency": -0.03, "schoolCount": 1}, {"name": "Bainville K-12 Schools", "lat": 48.139465666666666, "lon": -104.22597566666667, "proficiency": 0.2367, "schoolCount": 3}, {"name": "Baker K-12 Schools", "lat": 46.357864, "lon": -104.27968033333333, "proficiency": 0.1017, "schoolCount": 3}, {"name": "Smith Valley Elem", "lat": 48.174212499999996, "lon": -114.4237665, "proficiency": 0.14, "schoolCount": 2}, {"name": "Bear Paw Elem", "lat": 48.25, "lon": -109.5212, "proficiency": -0.02, "schoolCount": 1}, {"name": "Belfry K-12 Schools", "lat": 45.14260033333333, "lon": -109.00500566666666, "proficiency": -0.0233, "schoolCount": 3}, {"name": "Belgrade Elem", "lat": 45.7811825, "lon": -111.1886205, "proficiency": 0.065, "schoolCount": 4}, {"name": "Belt Elem", "lat": 47.38942, "lon": -110.927979, "proficiency": 0.215, "schoolCount": 3}, {"name": "Benton Lake Elem", "lat": 47.755108, "lon": -111.32442, "proficiency": -0.02, "schoolCount": 1}, {"name": "Spring Creek Elem", "lat": 45.107515, "lon": -106.808869, "proficiency": -0.02, "schoolCount": 1}, {"name": "Big Sandy K-12", "lat": 48.17738666666667, "lon": -110.11522833333333, "proficiency": 0.0683, "schoolCount": 3}, {"name": "Big Timber Elem", "lat": 45.832397, "lon": -109.94988599999999, "proficiency": 0.2125, "schoolCount": 2}, {"name": "Bigfork Elem", "lat": 48.064599, "lon": -114.078263, "proficiency": 0.125, "schoolCount": 2}, {"name": "Billings Elem", "lat": 45.790632678571434, "lon": -108.54027117857143, "proficiency": 0.0457, "schoolCount": 28}, {"name": "Birney Elem", "lat": 45.321967, "lon": -106.514391, "proficiency": -0.03, "schoolCount": 1}, {"name": "Cleveland Elem", "lat": 48.269892, "lon": -109.151772, "proficiency": -0.02, "schoolCount": 1}, {"name": "Bloomfield Elem", "lat": 47.413382, "lon": -104.920015, "proficiency": -0.02, "schoolCount": 1}, {"name": "Bonner Elem", "lat": 46.8693365, "lon": -113.8723045, "proficiency": 0.015, "schoolCount": 2}, {"name": "Boulder Elem", "lat": 46.23528, "lon": -112.122037, "proficiency": 0.1125, "schoolCount": 2}, {"name": "Box Elder Elem", "lat": 48.316556, "lon": -110.009714, "proficiency": 0.04, "schoolCount": 2}, {"name": "Bozeman Elem", "lat": 45.6766516, "lon": -111.06092470000002, "proficiency": 0.078, "schoolCount": 10}, {"name": "Bridger K-12 Schools", "lat": 45.296449333333335, "lon": -108.91966266666667, "proficiency": 0.0683, "schoolCount": 3}, {"name": "Broadview Elem", "lat": 46.103016, "lon": -108.877796, "proficiency": 0.36, "schoolCount": 2}, {"name": "Townsend K-12 Schools", "lat": 46.321704000000004, "lon": -111.51985666666667, "proficiency": 0.1017, "schoolCount": 3}, {"name": "Brockton Elem", "lat": 48.151585, "lon": -104.914601, "proficiency": 0.1125, "schoolCount": 2}, {"name": "Browning Elem", "lat": 48.70062216666667, "lon": -112.96486833333334, "proficiency": -0.0158, "schoolCount": 6}, {"name": "Butte Elem", "lat": 45.993294428571424, "lon": -112.51714957142858, "proficiency": 0.0171, "schoolCount": 7}, {"name": "Bynum Elem", "lat": 47.977297, "lon": -112.315475, "proficiency": -0.03, "schoolCount": 1}, {"name": "Canyon Creek Elem", "lat": 45.7122905, "lon": -108.637363, "proficiency": 0.14, "schoolCount": 2}, {"name": "Cardwell Elem", "lat": 45.856874, "lon": -111.952275, "proficiency": -0.02, "schoolCount": 1}, {"name": "Carter Elem", "lat": 47.782868, "lon": -110.95827, "proficiency": -0.02, "schoolCount": 1}, {"name": "Vaughn Elem", "lat": 47.583802666666664, "lon": -111.53387466666668, "proficiency": 0.065, "schoolCount": 3}, {"name": "Cascade Elem", "lat": 47.271936, "lon": -111.705388, "proficiency": 0.2375, "schoolCount": 2}, {"name": "Cayuse Prairie Elem", "lat": 48.22623, "lon": -114.122411, "proficiency": 0.2375, "schoolCount": 2}, {"name": "McCormick Elem", "lat": 48.627682, "lon": -116.025636, "proficiency": -0.03, "schoolCount": 1}, {"name": "St Ignatius K-12 Schools", "lat": 47.319039000000004, "lon": -114.09165399999999, "proficiency": 0.02, "schoolCount": 3}, {"name": "Charlo Elem", "lat": 47.440414, "lon": -114.174398, "proficiency": 0.14, "schoolCount": 2}, {"name": "Chinook Elem", "lat": 48.710348333333336, "lon": -109.30380033333334, "proficiency": 0.0867, "schoolCount": 3}, {"name": "Choteau Elem", "lat": 47.8109415, "lon": -112.18939449999999, "proficiency": 0.04, "schoolCount": 2}, {"name": "Circle Elem", "lat": 47.416911, "lon": -105.591773, "proficiency": 0.1517, "schoolCount": 3}, {"name": "Clancy Elem", "lat": 46.4653445, "lon": -111.990297, "proficiency": 0.2625, "schoolCount": 2}, {"name": "Clinton Elem", "lat": 46.772939, "lon": -113.713984, "proficiency": 0.14, "schoolCount": 2}, {"name": "Cohagen Elem", "lat": 47.055752, "lon": -106.614475, "proficiency": -0.03, "schoolCount": 1}, {"name": "Colstrip Elem", "lat": 45.896632499999996, "lon": -106.627498, "proficiency": 0.1125, "schoolCount": 2}, {"name": "Columbia Falls Elem", "lat": 48.36788033333334, "lon": -114.19747, "proficiency": 0.0767, "schoolCount": 3}, {"name": "Columbus Elem", "lat": 45.640951, "lon": -109.256339, "proficiency": 0.065, "schoolCount": 2}, {"name": "Conrad Elem", "lat": 48.17159766666666, "lon": -111.94771766666668, "proficiency": 0.0867, "schoolCount": 3}, {"name": "Cooke City Elem", "lat": 45.020664, "lon": -109.934706, "proficiency": -0.02, "schoolCount": 1}, {"name": "Corvallis K-12 Schools", "lat": 46.3161745, "lon": -114.11502899999999, "proficiency": 0.09, "schoolCount": 4}, {"name": "Cottonwood Elem", "lat": 47.174599, "lon": -110.5570795, "proficiency": -0.025, "schoolCount": 2}, {"name": "Culbertson Elem", "lat": 48.147457, "lon": -104.520486, "proficiency": 0.04, "schoolCount": 2}, {"name": "S Y Elem", "lat": 45.960531, "lon": -105.63412, "proficiency": -0.02, "schoolCount": 1}, {"name": "Custer K-12 Schools", "lat": 46.12666933333333, "lon": -107.556392, "proficiency": 0.0683, "schoolCount": 3}, {"name": "Darby K-12 Schools", "lat": 46.02697433333333, "lon": -114.17919633333334, "proficiency": 0.02, "schoolCount": 3}, {"name": "Davey Elem", "lat": 48.502315, "lon": -109.543068, "proficiency": -0.03, "schoolCount": 1}, {"name": "Deer Creek Elem", "lat": 47.165979, "lon": -104.6992, "proficiency": -0.02, "schoolCount": 1}, {"name": "Deer Lodge Elem", "lat": 46.3947645, "lon": -112.7306165, "proficiency": 0.1125, "schoolCount": 2}, {"name": "Deer Park Elem", "lat": 48.290903, "lon": -114.174004, "proficiency": 0.1125, "schoolCount": 2}, {"name": "Deerfield Elem", "lat": 47.261025, "lon": -109.670427, "proficiency": -0.03, "schoolCount": 1}, {"name": "Denton Elem", "lat": 47.316794, "lon": -109.939819, "proficiency": -0.025, "schoolCount": 2}, {"name": "DeSmet Elem", "lat": 46.932286, "lon": -114.092722, "proficiency": 0.1125, "schoolCount": 2}, {"name": "Dillon Elem", "lat": 45.2145985, "lon": -112.62501950000001, "proficiency": 0.15, "schoolCount": 2}, {"name": "Divide Elem", "lat": 45.750142, "lon": -112.754136, "proficiency": -0.03, "schoolCount": 1}, {"name": "Dixon Elem", "lat": 47.3156875, "lon": -114.319344, "proficiency": -0.025, "schoolCount": 2}, {"name": "Dodson K-12", "lat": 48.396391333333334, "lon": -108.24936333333333, "proficiency": 0.0683, "schoolCount": 3}, {"name": "Drummond Elem", "lat": 46.670609, "lon": -113.148245, "proficiency": 0.04, "schoolCount": 2}, {"name": "Dupuyer Elem", "lat": 48.194327, "lon": -112.497526, "proficiency": -0.02, "schoolCount": 1}, {"name": "East Glacier Park Elem", "lat": 48.440155, "lon": -113.218014, "proficiency": -0.03, "schoolCount": 1}, {"name": "Ekalaka Elem", "lat": 45.889487, "lon": -104.5509525, "proficiency": 0.1125, "schoolCount": 2}, {"name": "Elder Grove Elem", "lat": 45.741029, "lon": -108.680234, "proficiency": 0.1, "schoolCount": 2}, {"name": "Elliston Elem", "lat": 46.562954, "lon": -112.432571, "proficiency": -0.03, "schoolCount": 1}, {"name": "Elysian Elem", "lat": 45.7400885, "lon": -108.5771675, "proficiency": 0.2125, "schoolCount": 2}, {"name": "Ennis K-12 Schools", "lat": 45.347749, "lon": -111.73295133333333, "proficiency": 0.0867, "schoolCount": 3}, {"name": "Eureka Elem", "lat": 48.8851115, "lon": -115.050441, "proficiency": 0.1, "schoolCount": 2}, {"name": "Fairfield Elem", "lat": 47.615788, "lon": -111.975763, "proficiency": 0.2375, "schoolCount": 2}, {"name": "Fairview Elem", "lat": 47.849735, "lon": -104.048297, "proficiency": 0.04, "schoolCount": 2}, {"name": "Fair-Mont-Egan Elem", "lat": 48.1971645, "lon": -114.221954, "proficiency": 0.1125, "schoolCount": 2}, {"name": "Fishtail Elem", "lat": 45.451606, "lon": -109.503278, "proficiency": -0.02, "schoolCount": 1}, {"name": "Wise River Elem", "lat": 45.788461, "lon": -112.951313, "proficiency": -0.03, "schoolCount": 1}, {"name": "Evergreen Elem", "lat": 48.225772000000006, "lon": -114.267879, "proficiency": 0.2, "schoolCount": 2}, {"name": "Olney-Bissell Elem", "lat": 48.369483, "lon": -114.4579605, "proficiency": 0.1125, "schoolCount": 2}, {"name": "Florence-Carlton K-12 Schls", "lat": 46.640753999999994, "lon": -114.076686, "proficiency": 0.0683, "schoolCount": 3}, {"name": "Forsyth Elem", "lat": 46.270026, "lon": -106.674301, "proficiency": 0.14, "schoolCount": 2}, {"name": "Fort Benton Elem", "lat": 47.8208145, "lon": -110.668989, "proficiency": 0.2375, "schoolCount": 2}, {"name": "Fortine Elem", "lat": 48.76462, "lon": -114.904911, "proficiency": -0.025, "schoolCount": 2}, {"name": "Frazer Elem", "lat": 48.058335, "lon": -106.046958, "proficiency": 0.1125, "schoolCount": 2}, {"name": "Frenchtown K-12 Schools", "lat": 47.016617000000004, "lon": -114.23428375, "proficiency": 0.0525, "schoolCount": 4}, {"name": "Froid Elem", "lat": 48.335949, "lon": -104.4881905, "proficiency": 0.365, "schoolCount": 2}, {"name": "Fromberg K-12", "lat": 45.39319, "lon": -108.912264, "proficiency": 0.0683, "schoolCount": 3}, {"name": "Frontier Elem", "lat": 48.0933965, "lon": -105.5598385, "proficiency": 0.1125, "schoolCount": 2}, {"name": "Galata Elem", "lat": 48.478069, "lon": -111.352126, "proficiency": -0.02, "schoolCount": 1}, {"name": "Gallatin Gateway Elem", "lat": 45.590796, "lon": -111.199921, "proficiency": 0.3375, "schoolCount": 2}, {"name": "Gardiner Elem", "lat": 45.03178, "lon": -110.7112, "proficiency": 0.1125, "schoolCount": 2}, {"name": "Ross Elem", "lat": 47.1819, "lon": -107.923348, "proficiency": -0.03, "schoolCount": 1}, {"name": "Sand Springs Elem", "lat": 47.100834, "lon": -107.487471, "proficiency": -0.02, "schoolCount": 1}, {"name": "Geraldine K-12", "lat": 47.603175, "lon": -110.26962299999998, "proficiency": -0.0233, "schoolCount": 3}, {"name": "Geyser K-12 Schools", "lat": 47.25753, "lon": -110.492905, "proficiency": -0.0233, "schoolCount": 3}, {"name": "Gildford Colony Elem", "lat": 48.801, "lon": -110.286, "proficiency": -0.02, "schoolCount": 1}, {"name": "Glasgow K-12 Schools", "lat": 48.20136866666667, "lon": -106.622884, "proficiency": 0.11, "schoolCount": 3}, {"name": "Glendive Elem", "lat": 47.104957999999996, "lon": -104.7108465, "proficiency": 0.05, "schoolCount": 2}, {"name": "Gold Creek Elem", "lat": 46.580424, "lon": -112.928325, "proficiency": -0.02, "schoolCount": 1}, {"name": "Golden Ridge Elem", "lat": 47.567382, "lon": -112.227534, "proficiency": -0.03, "schoolCount": 1}, {"name": "Philipsburg K-12 Schools", "lat": 46.329108999999995, "lon": -113.29644233333333, "proficiency": 0.1517, "schoolCount": 3}, {"name": "Grant Elem", "lat": 45.007739, "lon": -113.064428, "proficiency": -0.02, "schoolCount": 1}, {"name": "Grass Range Elem", "lat": 47.024035, "lon": -108.800521, "proficiency": -0.025, "schoolCount": 2}, {"name": "Great Falls Elem", "lat": 47.50697588235295, "lon": -111.27403688235295, "proficiency": 0.0224, "schoolCount": 17}, {"name": "Greenfield Elem", "lat": 47.63886, "lon": -111.86134899999999, "proficiency": -0.02, "schoolCount": 2}, {"name": "Greycliff Elem", "lat": 45.762077, "lon": -109.785473, "proficiency": -0.02, "schoolCount": 1}, {"name": "Hall Elem", "lat": 46.585801, "lon": -113.197922, "proficiency": -0.03, "schoolCount": 1}, {"name": "Hamilton K-12 Schools", "lat": 46.24641166666667, "lon": -114.15091033333333, "proficiency": 0.06, "schoolCount": 3}, {"name": "Hawks Home Elem", "lat": 45.22625, "lon": -104.916378, "proficiency": -0.02, "schoolCount": 1}, {"name": "Hardin Elem", "lat": 45.595442999999996, "lon": -107.65574625, "proficiency": -0.0088, "schoolCount": 4}, {"name": "Harlem Elem", "lat": 48.530092499999995, "lon": -108.78261599999999, "proficiency": 0.015, "schoolCount": 2}, {"name": "Harlowton K-12", "lat": 46.43744266666667, "lon": -109.829109, "proficiency": 0.1567, "schoolCount": 3}, {"name": "Harrison K-12 Schools", "lat": 45.69938833333333, "lon": -111.7849, "proficiency": 0.2367, "schoolCount": 3}, {"name": "Havre Elem", "lat": 48.54491266666667, "lon": -109.68480066666666, "proficiency": 0.11, "schoolCount": 3}, {"name": "Hays-Lodge Pole K-12 Schls", "lat": 47.997681, "lon": -108.688427, "proficiency": 0.02, "schoolCount": 3}, {"name": "Helena Flats Elem", "lat": 48.2553235, "lon": -114.255877, "proficiency": 0.1125, "schoolCount": 2}, {"name": "Hellgate Elem", "lat": 46.89375633333333, "lon": -114.05857066666665, "proficiency": 0.1267, "schoolCount": 3}, {"name": "Helmville Elem", "lat": 46.865727, "lon": -112.959855, "proficiency": -0.03, "schoolCount": 1}, {"name": "Highwood K-12", "lat": 47.5842, "lon": -110.7973, "proficiency": 0.2367, "schoolCount": 3}, {"name": "Hinsdale Elem", "lat": 48.394822, "lon": -107.084446, "proficiency": 0.1125, "schoolCount": 2}, {"name": "Hobson K-12 Schools", "lat": 46.998158, "lon": -109.87399, "proficiency": 0.2367, "schoolCount": 3}, {"name": "Hot Springs K-12", "lat": 47.608584, "lon": -114.66477100000002, "proficiency": 0.0683, "schoolCount": 3}, {"name": "Huntley Project K-12 Schools", "lat": 45.960487666666666, "lon": -108.16598, "proficiency": 0.0683, "schoolCount": 3}, {"name": "Hysham K-12 Schools", "lat": 46.29270866666667, "lon": -107.231375, "proficiency": -0.0233, "schoolCount": 3}, {"name": "Jackson Elem", "lat": 45.370542, "lon": -113.410082, "proficiency": -0.02, "schoolCount": 1}, {"name": "Joliet Elem", "lat": 45.487427, "lon": -108.973982, "proficiency": 0.1125, "schoolCount": 2}, {"name": "Jordan Elem", "lat": 47.318563, "lon": -106.907222, "proficiency": 0.365, "schoolCount": 2}, {"name": "Judith Gap Elem", "lat": 46.679495, "lon": -109.753104, "proficiency": -0.025, "schoolCount": 2}, {"name": "Kalispell Elem", "lat": 48.20013957142857, "lon": -114.31750371428572, "proficiency": 0.0571, "schoolCount": 7}, {"name": "Kester Elem", "lat": 47.573228, "lon": -106.666715, "proficiency": -0.02, "schoolCount": 1}, {"name": "Kila Elem", "lat": 48.1215465, "lon": -114.457393, "proficiency": 0.14, "schoolCount": 2}, {"name": "King Colony Elem", "lat": 47.054492, "lon": -109.63863, "proficiency": -0.03, "schoolCount": 1}, {"name": "Knees Elem", "lat": 48.031249, "lon": -111.323018, "proficiency": -0.03, "schoolCount": 1}, {"name": "Swan Lake-Salmon Elem", "lat": 47.630843, "lon": -113.785274, "proficiency": -0.03, "schoolCount": 1}, {"name": "Lambert Elem", "lat": 47.68527, "lon": -104.621835, "proficiency": 0.1125, "schoolCount": 2}, {"name": "Lame Deer Elem", "lat": 45.605013, "lon": -106.6629365, "proficiency": 0.015, "schoolCount": 2}, {"name": "LaMotte Elem", "lat": 45.644069, "lon": -110.944657, "proficiency": 0.365, "schoolCount": 2}, {"name": "Laurel Elem", "lat": 45.6757275, "lon": -108.7643665, "proficiency": 0.075, "schoolCount": 2}, {"name": "Lavina K-12 Schools", "lat": 46.292852, "lon": -108.93595, "proficiency": 0.0683, "schoolCount": 3}, {"name": "Lewistown Elem", "lat": 47.061750999999994, "lon": -109.43357333333334, "proficiency": 0.0933, "schoolCount": 3}, {"name": "Libby K-12 Schools", "lat": 48.39096733333333, "lon": -115.571261, "proficiency": 0.1267, "schoolCount": 3}, {"name": "Lima K-12 Schools", "lat": 44.634878333333326, "lon": -112.592719, "proficiency": -0.02, "schoolCount": 3}, {"name": "Lincoln K-12 Schools", "lat": 46.956097666666665, "lon": -112.67409233333335, "proficiency": 0.0683, "schoolCount": 3}, {"name": "Livingston Elem", "lat": 45.658435, "lon": -110.55130349999999, "proficiency": 0.125, "schoolCount": 2}, {"name": "Lodge Grass Elem", "lat": 45.317115, "lon": -107.370948, "proficiency": 0.04, "schoolCount": 2}, {"name": "Lolo Elem", "lat": 46.761893, "lon": -114.0827735, "proficiency": 0.1625, "schoolCount": 2}, {"name": "Lone Rock Elem", "lat": 46.566988499999994, "lon": -113.983588, "proficiency": 0.04, "schoolCount": 2}, {"name": "Lustre Elem", "lat": 48.407934, "lon": -105.93951, "proficiency": -0.03, "schoolCount": 1}, {"name": "Luther Elem", "lat": 45.284687, "lon": -109.425012, "proficiency": -0.02, "schoolCount": 1}, {"name": "Alder Elem", "lat": 45.319492, "lon": -112.10963, "proficiency": -0.02, "schoolCount": 1}, {"name": "Malmborg Elem", "lat": 45.671212, "lon": -110.83734, "proficiency": -0.02, "schoolCount": 1}, {"name": "Malta K-12 Schools", "lat": 48.46128075, "lon": -107.90042675000001, "proficiency": 0.0712, "schoolCount": 4}, {"name": "Manhattan School", "lat": 45.86197, "lon": -111.33, "proficiency": 0.3, "schoolCount": 2}, {"name": "Marion Elem", "lat": 48.103417, "lon": -114.66253900000001, "proficiency": 0.1125, "schoolCount": 2}, {"name": "McLeod Elem", "lat": 45.662285, "lon": -110.115989, "proficiency": -0.03, "schoolCount": 1}, {"name": "Medicine Lake K-12 Schools", "lat": 48.50357466666667, "lon": -104.50241533333333, "proficiency": 0.0683, "schoolCount": 3}, {"name": "Melrose Elem", "lat": 45.631488, "lon": -112.687475, "proficiency": -0.03, "schoolCount": 1}, {"name": "Melstone Elem", "lat": 46.600955, "lon": -107.86752, "proficiency": 0.365, "schoolCount": 2}, {"name": "Melville Elem", "lat": 46.097057, "lon": -109.948079, "proficiency": -0.03, "schoolCount": 1}, {"name": "Miles City Elem", "lat": 46.41091466666666, "lon": -105.84436533333333, "proficiency": 0.0933, "schoolCount": 3}, {"name": "Missoula Elem", "lat": 46.85075966666667, "lon": -114.02176200000001, "proficiency": 0.0733, "schoolCount": 12}, {"name": "Molt Elem", "lat": 45.861541, "lon": -108.929691, "proficiency": -0.03, "schoolCount": 1}, {"name": "Monforton Elem", "lat": 45.675823, "lon": -111.170489, "proficiency": 0.3625, "schoolCount": 2}, {"name": "Montana City Elem", "lat": 46.5385155, "lon": -111.934687, "proficiency": 0.3, "schoolCount": 2}, {"name": "Moore Elem", "lat": 46.971735, "lon": -109.692903, "proficiency": 0.1125, "schoolCount": 2}, {"name": "Nashua K-12 Schools", "lat": 48.135626, "lon": -106.35413733333333, "proficiency": -0.0233, "schoolCount": 3}, {"name": "North Harlem Colony Elem", "lat": 48.585405, "lon": -108.754392, "proficiency": -0.03, "schoolCount": 1}, {"name": "Opheim K-12 Schools", "lat": 48.85829233333334, "lon": -106.41139500000001, "proficiency": -0.0233, "schoolCount": 3}, {"name": "Ovando Elem", "lat": 47.019644, "lon": -113.128148, "proficiency": -0.02, "schoolCount": 1}, {"name": "Park City Elem", "lat": 45.63009, "lon": -108.91575, "proficiency": 0.14, "schoolCount": 2}, {"name": "Pass Creek Elem", "lat": 45.977249, "lon": -111.098345, "proficiency": -0.02, "schoolCount": 1}, {"name": "Pendroy Elem", "lat": 48.067692, "lon": -112.475095, "proficiency": -0.03, "schoolCount": 1}, {"name": "Pine Creek Elem", "lat": 45.518988, "lon": -110.563836, "proficiency": -0.025, "schoolCount": 2}, {"name": "Pine Grove Elem", "lat": 47.531076, "lon": -107.535645, "proficiency": -0.02, "schoolCount": 1}, {"name": "Pioneer Elem", "lat": 45.856444, "lon": -108.41517, "proficiency": -0.02, "schoolCount": 1}, {"name": "Plains K-12", "lat": 47.46517500000001, "lon": -114.885237, "proficiency": 0.1017, "schoolCount": 3}, {"name": "Pleasant Valley Elem", "lat": 48.149648, "lon": -114.956742, "proficiency": -0.02, "schoolCount": 1}, {"name": "Plentywood K-12 Schools", "lat": 48.778242, "lon": -104.554959, "proficiency": 0.0033, "schoolCount": 3}, {"name": "Plevna K-12 Schools", "lat": 46.419221666666665, "lon": -104.51798633333333, "proficiency": 0.0683, "schoolCount": 3}, {"name": "Polaris Elem", "lat": 45.338588, "lon": -113.12008, "proficiency": -0.03, "schoolCount": 1}, {"name": "Polson Elem", "lat": 47.686066499999995, "lon": -114.1633205, "proficiency": 0.1, "schoolCount": 2}, {"name": "Miami Elem", "lat": 48.190967, "lon": -112.282057, "proficiency": -0.03, "schoolCount": 1}, {"name": "Poplar Elem", "lat": 48.111445, "lon": -105.20322700000001, "proficiency": 0.0033, "schoolCount": 3}, {"name": "Potomac Elem", "lat": 46.881565, "lon": -113.579598, "proficiency": 0.2375, "schoolCount": 2}, {"name": "Power Elem", "lat": 47.716526, "lon": -111.68835, "proficiency": 0.365, "schoolCount": 2}, {"name": "Pryor Elem", "lat": 45.427642, "lon": -108.53449950000001, "proficiency": -0.025, "schoolCount": 2}, {"name": "Ramsay Elem", "lat": 46.004937999999996, "lon": -112.687206, "proficiency": 0.1125, "schoolCount": 2}, {"name": "Rapelje Elem", "lat": 45.972794, "lon": -109.260947, "proficiency": -0.025, "schoolCount": 2}, {"name": "Red Lodge Elem", "lat": 45.18315, "lon": -109.24964, "proficiency": 0.1625, "schoolCount": 2}, {"name": "Reed Point Elem", "lat": 45.706255999999996, "lon": -109.546071, "proficiency": -0.025, "schoolCount": 2}, {"name": "Reichle Elem", "lat": 45.461703, "lon": -112.706595, "proficiency": -0.02, "schoolCount": 1}, {"name": "Richey Elem", "lat": 47.642556, "lon": -105.067179, "proficiency": 0.1125, "schoolCount": 2}, {"name": "Roberts K-12 Schools", "lat": 45.36126633333333, "lon": -109.16526966666667, "proficiency": 0.0683, "schoolCount": 3}, {"name": "Rocky Boy Elem", "lat": 48.257452, "lon": -109.784278, "proficiency": 0.04, "schoolCount": 2}, {"name": "Ronan Elem", "lat": 47.55462133333333, "lon": -114.10737266666666, "proficiency": 0.06, "schoolCount": 3}, {"name": "Rosebud K-12", "lat": 46.275453, "lon": -106.44229899999999, "proficiency": -0.0267, "schoolCount": 3}, {"name": "Roundup Elem", "lat": 46.450168500000004, "lon": -108.542464, "proficiency": 0.1125, "schoolCount": 2}, {"name": "Roy K-12 Schools", "lat": 47.33086, "lon": -108.955197, "proficiency": -0.0233, "schoolCount": 3}, {"name": "Ryegate K-12 Schools", "lat": 46.298857, "lon": -109.258253, "proficiency": -0.025, "schoolCount": 2}, {"name": "Saco Elem", "lat": 48.460524, "lon": -107.344656, "proficiency": -0.025, "schoolCount": 2}, {"name": "Savage Elem", "lat": 47.450605, "lon": -104.342245, "proficiency": 0.1125, "schoolCount": 2}, {"name": "Scobey K-12 Schools", "lat": 48.791584, "lon": -105.41678, "proficiency": 0.0867, "schoolCount": 3}, {"name": "Seeley Lake Elem", "lat": 47.176058, "lon": -113.478026, "proficiency": 0.2375, "schoolCount": 2}, {"name": "Shelby Elem", "lat": 48.486661749999996, "lon": -111.8147885, "proficiency": 0.0413, "schoolCount": 4}, {"name": "Shepherd Elem", "lat": 45.942057, "lon": -108.344567, "proficiency": 0.1125, "schoolCount": 2}, {"name": "Sheridan Elem", "lat": 45.454683, "lon": -112.1917905, "proficiency": 0.1125, "schoolCount": 2}, {"name": "Sidney Elem", "lat": 47.7125745, "lon": -104.15730049999999, "proficiency": -0.02, "schoolCount": 2}, {"name": "Sun River Valley Elem", "lat": 47.48008466666666, "lon": -111.85680433333334, "proficiency": 0.1483, "schoolCount": 3}, {"name": "Spring Creek Colony Elem", "lat": 47.153386, "lon": -109.62093, "proficiency": -0.02, "schoolCount": 1}, {"name": "Springhill Elem", "lat": 45.839105, "lon": -111.035214, "proficiency": -0.03, "schoolCount": 1}, {"name": "St Regis K-12 Schools", "lat": 47.30014133333333, "lon": -115.10140633333333, "proficiency": 0.02, "schoolCount": 3}, {"name": "Stanford K-12 Schools", "lat": 47.148702333333325, "lon": -110.21844933333334, "proficiency": 0.0683, "schoolCount": 3}, {"name": "Stevensville Elem", "lat": 46.506336, "lon": -114.084273, "proficiency": 0.175, "schoolCount": 2}, {"name": "Centerville Elem", "lat": 47.381721, "lon": -111.1748588, "proficiency": 0.077, "schoolCount": 5}, {"name": "Sunburst K-12 Schools", "lat": 48.88090400000001, "lon": -111.91403000000001, "proficiency": 0.0683, "schoolCount": 3}, {"name": "Sunset Elem", "lat": 46.916353, "lon": -113.42842, "proficiency": -0.03, "schoolCount": 1}, {"name": "Superior K-12 Schools", "lat": 47.18838766666667, "lon": -114.87973266666667, "proficiency": 0.02, "schoolCount": 3}, {"name": "Swan River Elem", "lat": 48.095928, "lon": -114.0278055, "proficiency": 0.04, "schoolCount": 2}, {"name": "Swan Valley Elem", "lat": 47.490289, "lon": -113.679065, "proficiency": -0.025, "schoolCount": 2}, {"name": "Target Range Elem", "lat": 46.848238499999994, "lon": -114.080645, "proficiency": 0.2125, "schoolCount": 2}, {"name": "Terry K-12 Schools", "lat": 46.79158733333333, "lon": -105.30871, "proficiency": 0.0683, "schoolCount": 3}, {"name": "Thompson Falls Elem", "lat": 47.597377, "lon": -115.343444, "proficiency": 0.1125, "schoolCount": 2}, {"name": "Three Forks Elem", "lat": 45.896371, "lon": -111.547692, "proficiency": 0.065, "schoolCount": 2}, {"name": "Trail Creek Elem", "lat": 46.243875, "lon": -105.272673, "proficiency": -0.03, "schoolCount": 1}, {"name": "Trego Elem", "lat": 48.702981, "lon": -114.876819, "proficiency": -0.03, "schoolCount": 1}, {"name": "Trinity Elem", "lat": 46.805306, "lon": -112.245279, "proficiency": -0.02, "schoolCount": 1}, {"name": "Trout Creek Elem", "lat": 47.8377505, "lon": -115.5987605, "proficiency": 0.1125, "schoolCount": 2}, {"name": "Troy Elem", "lat": 48.461870000000005, "lon": -115.8943915, "proficiency": 0.1625, "schoolCount": 2}, {"name": "Turner Elem", "lat": 48.846995, "lon": -108.403426, "proficiency": 0.1125, "schoolCount": 2}, {"name": "Twin Bridges K-12 Schools", "lat": 45.546237, "lon": -112.33327266666667, "proficiency": 0.2367, "schoolCount": 3}, {"name": "Ulm Elem", "lat": 47.42534733333334, "lon": -111.547536, "proficiency": 0.065, "schoolCount": 3}, {"name": "Valier Elem", "lat": 48.304375, "lon": -112.331564, "proficiency": 0.065, "schoolCount": 3}, {"name": "Victor K-12 Schools", "lat": 46.41495733333333, "lon": -114.15068533333333, "proficiency": 0.0683, "schoolCount": 3}, {"name": "Vida Elem", "lat": 47.83495, "lon": -105.49348, "proficiency": -0.02, "schoolCount": 1}, {"name": "West Valley Elem", "lat": 48.23965, "lon": -114.4181425, "proficiency": 0.225, "schoolCount": 2}, {"name": "West Yellowstone K-12", "lat": 44.666194999999995, "lon": -111.10816366666666, "proficiency": 0.0867, "schoolCount": 3}, {"name": "Westby K-12 Schools", "lat": 48.86692333333334, "lon": -104.05020566666667, "proficiency": 0.0683, "schoolCount": 3}, {"name": "Whitefish Elem", "lat": 48.408993, "lon": -114.3291405, "proficiency": 0.125, "schoolCount": 2}, {"name": "Whitehall Elem", "lat": 45.874399, "lon": -112.09778, "proficiency": 0.1125, "schoolCount": 2}, {"name": "Whitewater K-12 Schools", "lat": 48.761697, "lon": -107.630096, "proficiency": -0.0233, "schoolCount": 3}, {"name": "Wibaux K-12 Schools", "lat": 46.990135, "lon": -104.19482566666666, "proficiency": 0.0683, "schoolCount": 3}, {"name": "Willow Creek Elem", "lat": 45.824504, "lon": -111.645477, "proficiency": -0.025, "schoolCount": 2}, {"name": "Winifred K-12 Schools", "lat": 47.558626000000004, "lon": -109.381664, "proficiency": 0.0683, "schoolCount": 3}, {"name": "Winnett K-12 Schools", "lat": 47.00178466666667, "lon": -108.35271, "proficiency": -0.0233, "schoolCount": 3}, {"name": "Wisdom Elem", "lat": 45.614619, "lon": -113.448532, "proficiency": -0.02, "schoolCount": 1}, {"name": "Wolf Point Elem", "lat": 48.09129266666667, "lon": -105.64496366666667, "proficiency": 0.02, "schoolCount": 3}, {"name": "Woodman Elem", "lat": 46.759561, "lon": -114.252241, "proficiency": -0.025, "schoolCount": 2}, {"name": "White Sulphur Spgs K-12", "lat": 46.544442, "lon": -110.90382, "proficiency": 0.065, "schoolCount": 3}, {"name": "Wyola Elem", "lat": 45.131201000000004, "lon": -107.396582, "proficiency": 0.1125, "schoolCount": 2}, {"name": "Yaak Elem", "lat": 48.838351, "lon": -115.696977, "proficiency": -0.02, "schoolCount": 1}, {"name": "Yellowstone Academy Elem", "lat": 45.737927, "lon": -108.701068, "proficiency": 0.04, "schoolCount": 2}, {"name": "Zurich Elem", "lat": 48.586023, "lon": -109.030466, "proficiency": -0.02, "schoolCount": 1}], "cities": [{"name": "Somers", "lat": 48.0540205, "lon": -114.225076, "proficiency": 0.225, "schoolCount": 2}, {"name": "Cut Bank", "lat": 48.703885625, "lon": -112.37125287500001, "proficiency": 0.0081, "schoolCount": 8}, {"name": "Helena", "lat": 46.61413523076923, "lon": -112.02495546153847, "proficiency": 0.04, "schoolCount": 13}, {"name": "Broadus", "lat": 45.448019, "lon": -105.4044165, "proficiency": 0.14, "schoolCount": 2}, {"name": "Ashland", "lat": 45.594903, "lon": -106.271119, "proficiency": 0.1125, "schoolCount": 2}, {"name": "Noxon", "lat": 47.993318, "lon": -115.776576, "proficiency": 0.14, "schoolCount": 2}, {"name": "Galata", "lat": 48.750343, "lon": -111.58370299999999, "proficiency": -0.022, "schoolCount": 5}, {"name": "Rudyard", "lat": 48.5673355, "lon": -110.426817, "proficiency": 0.1125, "schoolCount": 2}, {"name": "Chester", "lat": 48.67970125, "lon": -110.87109275, "proficiency": 0.0437, "schoolCount": 4}, {"name": "Heart Butte", "lat": 48.275201, "lon": -112.83466733333334, "proficiency": 0.0683, "schoolCount": 3}, {"name": "Dutton", "lat": 47.9720986, "lon": -111.91159259999999, "proficiency": 0.029, "schoolCount": 5}, {"name": "Big Sky", "lat": 45.229755000000004, "lon": -111.25211999999999, "proficiency": 0.1017, "schoolCount": 3}, {"name": "East Helena", "lat": 46.593205499999996, "lon": -111.9118205, "proficiency": 0.15, "schoolCount": 2}, {"name": "Lockwood", "lat": 45.797095, "lon": -108.435872, "proficiency": 0.1, "schoolCount": 2}, {"name": "Clyde Park", "lat": 45.938541, "lon": -110.6301435, "proficiency": 0.365, "schoolCount": 2}, {"name": "Absarokee", "lat": 45.513868, "lon": -109.447207, "proficiency": 0.1125, "schoolCount": 2}, {"name": "Alberton", "lat": 47.004462, "lon": -114.480836, "proficiency": 0.0683, "schoolCount": 3}, {"name": "Alzada", "lat": 45.020852, "lon": -104.412955, "proficiency": -0.02, "schoolCount": 1}, {"name": "Anaconda", "lat": 46.126760000000004, "lon": -112.95241200000001, "proficiency": 0.065, "schoolCount": 2}, {"name": "Bozeman", "lat": 45.658155666666666, "lon": -111.0560538888889, "proficiency": 0.1594, "schoolCount": 18}, {"name": "Arlee", "lat": 47.1640395, "lon": -114.08215150000001, "proficiency": 0.1125, "schoolCount": 2}, {"name": "Pray", "lat": 45.395016, "lon": -110.672182, "proficiency": -0.025, "schoolCount": 2}, {"name": "Augusta", "lat": 47.491344, "lon": -112.398058, "proficiency": -0.03, "schoolCount": 2}, {"name": "Wolf Creek", "lat": 47.328689, "lon": -112.210685, "proficiency": -0.02, "schoolCount": 1}, {"name": "Avon", "lat": 46.598286, "lon": -112.590781, "proficiency": -0.03, "schoolCount": 1}, {"name": "Grass Range", "lat": 47.03268166666667, "lon": -108.850172, "proficiency": -0.0267, "schoolCount": 3}, {"name": "Bainville", "lat": 48.139465666666666, "lon": -104.22597566666667, "proficiency": 0.2367, "schoolCount": 3}, {"name": "Baker", "lat": 46.357864, "lon": -104.27968033333333, "proficiency": 0.1017, "schoolCount": 3}, {"name": "Kalispell", "lat": 48.21250957894737, "lon": -114.29697821052632, "proficiency": 0.1292, "schoolCount": 19}, {"name": "Chinook", "lat": 48.5301874, "lon": -109.3168746, "proficiency": 0.044, "schoolCount": 5}, {"name": "Belfry", "lat": 45.14260033333333, "lon": -109.00500566666666, "proficiency": -0.0233, "schoolCount": 3}, {"name": "Belgrade", "lat": 45.823513999999996, "lon": -111.14800683333333, "proficiency": 0.035, "schoolCount": 6}, {"name": "Belt", "lat": 47.38942, "lon": -110.927979, "proficiency": 0.215, "schoolCount": 3}, {"name": "Floweree", "lat": 47.755108, "lon": -111.32442, "proficiency": -0.02, "schoolCount": 1}, {"name": "Decker", "lat": 45.107515, "lon": -106.808869, "proficiency": -0.02, "schoolCount": 1}, {"name": "Big Sandy", "lat": 48.17738666666667, "lon": -110.11522833333333, "proficiency": 0.0683, "schoolCount": 3}, {"name": "Big Timber", "lat": 45.775693, "lon": -110.00525366666666, "proficiency": 0.1317, "schoolCount": 3}, {"name": "Bigfork", "lat": 48.0802635, "lon": -114.05303425, "proficiency": 0.0825, "schoolCount": 4}, {"name": "Billings", "lat": 45.779914297297296, "lon": -108.56038994594596, "proficiency": 0.0607, "schoolCount": 37}, {"name": "Birney", "lat": 45.321967, "lon": -106.514391, "proficiency": -0.03, "schoolCount": 1}, {"name": "Glendive", "lat": 47.19731925, "lon": -104.760227, "proficiency": 0.015, "schoolCount": 4}, {"name": "Bonner", "lat": 46.87545075, "lon": -113.72595125000001, "proficiency": 0.1263, "schoolCount": 4}, {"name": "Boulder", "lat": 46.23528, "lon": -112.122037, "proficiency": 0.1125, "schoolCount": 2}, {"name": "Box Elder", "lat": 48.287003999999996, "lon": -109.896996, "proficiency": 0.04, "schoolCount": 4}, {"name": "Bridger", "lat": 45.296449333333335, "lon": -108.91966266666667, "proficiency": 0.0683, "schoolCount": 3}, {"name": "Broadview", "lat": 46.103016, "lon": -108.877796, "proficiency": 0.36, "schoolCount": 2}, {"name": "Townsend", "lat": 46.321704000000004, "lon": -111.51985666666667, "proficiency": 0.1017, "schoolCount": 3}, {"name": "Brockton", "lat": 48.151585, "lon": -104.914601, "proficiency": 0.1125, "schoolCount": 2}, {"name": "Browning", "lat": 48.70062216666667, "lon": -112.96486833333334, "proficiency": -0.0158, "schoolCount": 6}, {"name": "Butte", "lat": 45.993294428571424, "lon": -112.51714957142858, "proficiency": 0.0171, "schoolCount": 7}, {"name": "Bynum", "lat": 47.977297, "lon": -112.315475, "proficiency": -0.03, "schoolCount": 1}, {"name": "Cardwell", "lat": 45.856874, "lon": -111.952275, "proficiency": -0.02, "schoolCount": 1}, {"name": "Carter", "lat": 47.907058500000005, "lon": -111.14064400000001, "proficiency": -0.025, "schoolCount": 2}, {"name": "Vaughn", "lat": 47.583802666666664, "lon": -111.53387466666668, "proficiency": 0.065, "schoolCount": 3}, {"name": "Cascade", "lat": 47.271936, "lon": -111.705388, "proficiency": 0.2375, "schoolCount": 2}, {"name": "Troy", "lat": 48.59744325, "lon": -115.877849, "proficiency": 0.0687, "schoolCount": 4}, {"name": "St Ignatius", "lat": 47.319039000000004, "lon": -114.09165399999999, "proficiency": 0.02, "schoolCount": 3}, {"name": "Charlo", "lat": 47.440414, "lon": -114.174398, "proficiency": 0.14, "schoolCount": 2}, {"name": "Choteau", "lat": 47.8109415, "lon": -112.18939449999999, "proficiency": 0.04, "schoolCount": 2}, {"name": "Circle", "lat": 47.52142075, "lon": -105.56719975, "proficiency": 0.1087, "schoolCount": 4}, {"name": "Clancy", "lat": 46.50193, "lon": -111.962492, "proficiency": 0.2812, "schoolCount": 4}, {"name": "Clinton", "lat": 46.772939, "lon": -113.713984, "proficiency": 0.14, "schoolCount": 2}, {"name": "Cohagen", "lat": 47.055752, "lon": -106.614475, "proficiency": -0.03, "schoolCount": 1}, {"name": "Colstrip", "lat": 45.896632499999996, "lon": -106.627498, "proficiency": 0.1125, "schoolCount": 2}, {"name": "Columbia Falls", "lat": 48.3370894, "lon": -114.1880836, "proficiency": 0.091, "schoolCount": 5}, {"name": "Columbus", "lat": 45.640951, "lon": -109.256339, "proficiency": 0.065, "schoolCount": 2}, {"name": "Conrad", "lat": 48.17644, "lon": -112.0313025, "proficiency": 0.0575, "schoolCount": 4}, {"name": "Cooke City", "lat": 45.020664, "lon": -109.934706, "proficiency": -0.02, "schoolCount": 1}, {"name": "Corvallis", "lat": 46.3161745, "lon": -114.11502899999999, "proficiency": 0.09, "schoolCount": 4}, {"name": "Culbertson", "lat": 48.147457, "lon": -104.520486, "proficiency": 0.04, "schoolCount": 2}, {"name": "Miles City", "lat": 46.28743, "lon": -105.6879778, "proficiency": 0.046, "schoolCount": 5}, {"name": "Custer", "lat": 46.12666933333333, "lon": -107.556392, "proficiency": 0.0683, "schoolCount": 3}, {"name": "Darby", "lat": 46.02697433333333, "lon": -114.17919633333334, "proficiency": 0.02, "schoolCount": 3}, {"name": "Havre", "lat": 48.583362199999996, "lon": -109.7171676, "proficiency": 0.054, "schoolCount": 5}, {"name": "Deer Lodge", "lat": 46.3947645, "lon": -112.7306165, "proficiency": 0.1125, "schoolCount": 2}, {"name": "Lewistown", "lat": 47.109026, "lon": -109.53845116666668, "proficiency": 0.0333, "schoolCount": 6}, {"name": "Denton", "lat": 47.316794, "lon": -109.939819, "proficiency": -0.025, "schoolCount": 2}, {"name": "Missoula", "lat": 46.865864947368415, "lon": -114.04124157894736, "proficiency": 0.1005, "schoolCount": 19}, {"name": "Dillon", "lat": 45.193881000000005, "lon": -112.85863675, "proficiency": 0.0625, "schoolCount": 4}, {"name": "Divide", "lat": 45.750142, "lon": -112.754136, "proficiency": -0.03, "schoolCount": 1}, {"name": "Dixon", "lat": 47.3156875, "lon": -114.319344, "proficiency": -0.025, "schoolCount": 2}, {"name": "Dodson", "lat": 48.396391333333334, "lon": -108.24936333333333, "proficiency": 0.0683, "schoolCount": 3}, {"name": "Drummond", "lat": 46.670609, "lon": -113.148245, "proficiency": 0.04, "schoolCount": 2}, {"name": "Dupuyer", "lat": 48.194327, "lon": -112.497526, "proficiency": -0.02, "schoolCount": 1}, {"name": "E Glacier Park", "lat": 48.440155, "lon": -113.218014, "proficiency": -0.03, "schoolCount": 1}, {"name": "Ekalaka", "lat": 45.889487, "lon": -104.5509525, "proficiency": 0.1125, "schoolCount": 2}, {"name": "Elliston", "lat": 46.562954, "lon": -112.432571, "proficiency": -0.03, "schoolCount": 1}, {"name": "Ennis", "lat": 45.347749, "lon": -111.73295133333333, "proficiency": 0.0867, "schoolCount": 3}, {"name": "Eureka", "lat": 48.8851115, "lon": -115.050441, "proficiency": 0.1, "schoolCount": 2}, {"name": "Fairfield", "lat": 47.6153356, "lon": -111.98035159999999, "proficiency": 0.081, "schoolCount": 5}, {"name": "Fairview", "lat": 47.849735, "lon": -104.048297, "proficiency": 0.04, "schoolCount": 2}, {"name": "Fishtail", "lat": 45.451606, "lon": -109.503278, "proficiency": -0.02, "schoolCount": 1}, {"name": "Wise River", "lat": 45.788461, "lon": -112.951313, "proficiency": -0.03, "schoolCount": 1}, {"name": "Whitefish", "lat": 48.389238, "lon": -114.3935505, "proficiency": 0.1188, "schoolCount": 4}, {"name": "Florence", "lat": 46.640753999999994, "lon": -114.076686, "proficiency": 0.0683, "schoolCount": 3}, {"name": "Forsyth", "lat": 46.270026, "lon": -106.674301, "proficiency": 0.14, "schoolCount": 2}, {"name": "Fort Benton", "lat": 47.8208145, "lon": -110.668989, "proficiency": 0.2375, "schoolCount": 2}, {"name": "Fortine", "lat": 48.76462, "lon": -114.904911, "proficiency": -0.025, "schoolCount": 2}, {"name": "Frazer", "lat": 48.174868000000004, "lon": -106.011142, "proficiency": 0.065, "schoolCount": 3}, {"name": "Frenchtown", "lat": 47.016617000000004, "lon": -114.23428375, "proficiency": 0.0525, "schoolCount": 4}, {"name": "Froid", "lat": 48.335949, "lon": -104.4881905, "proficiency": 0.365, "schoolCount": 2}, {"name": "Fromberg", "lat": 45.39319, "lon": -108.912264, "proficiency": 0.0683, "schoolCount": 3}, {"name": "Wolf Point", "lat": 48.0921342, "lon": -105.6109136, "proficiency": 0.057, "schoolCount": 5}, {"name": "Gallatin Gateway", "lat": 45.590796, "lon": -111.199921, "proficiency": 0.3375, "schoolCount": 2}, {"name": "Gardiner", "lat": 45.03178, "lon": -110.7112, "proficiency": 0.1125, "schoolCount": 2}, {"name": "Mosby", "lat": 47.1819, "lon": -107.923348, "proficiency": -0.03, "schoolCount": 1}, {"name": "Sand Springs", "lat": 47.100834, "lon": -107.487471, "proficiency": -0.02, "schoolCount": 1}, {"name": "Geraldine", "lat": 47.603175, "lon": -110.26962299999998, "proficiency": -0.0233, "schoolCount": 3}, {"name": "Geyser", "lat": 47.25753, "lon": -110.492905, "proficiency": -0.0233, "schoolCount": 3}, {"name": "Gildford", "lat": 48.801, "lon": -110.286, "proficiency": -0.02, "schoolCount": 1}, {"name": "Glasgow", "lat": 48.20136866666667, "lon": -106.622884, "proficiency": 0.11, "schoolCount": 3}, {"name": "Gold Creek", "lat": 46.580424, "lon": -112.928325, "proficiency": -0.02, "schoolCount": 1}, {"name": "Philipsburg", "lat": 46.329108999999995, "lon": -113.29644233333333, "proficiency": 0.1517, "schoolCount": 3}, {"name": "Great Falls", "lat": 47.50697588235295, "lon": -111.27403688235295, "proficiency": 0.0224, "schoolCount": 17}, {"name": "Greycliff", "lat": 45.762077, "lon": -109.785473, "proficiency": -0.02, "schoolCount": 1}, {"name": "Hall", "lat": 46.585801, "lon": -113.197922, "proficiency": -0.03, "schoolCount": 1}, {"name": "Hamilton", "lat": 46.24641166666667, "lon": -114.15091033333333, "proficiency": 0.06, "schoolCount": 3}, {"name": "Hammond", "lat": 45.22625, "lon": -104.916378, "proficiency": -0.02, "schoolCount": 1}, {"name": "Hardin", "lat": 45.595442999999996, "lon": -107.65574625, "proficiency": -0.0088, "schoolCount": 4}, {"name": "Harlem", "lat": 48.54853, "lon": -108.773208, "proficiency": 0.0, "schoolCount": 3}, {"name": "Harlowton", "lat": 46.43744266666667, "lon": -109.829109, "proficiency": 0.1567, "schoolCount": 3}, {"name": "Harrison", "lat": 45.69938833333333, "lon": -111.7849, "proficiency": 0.2367, "schoolCount": 3}, {"name": "Hays", "lat": 47.997681, "lon": -108.688427, "proficiency": 0.02, "schoolCount": 3}, {"name": "Helmville", "lat": 46.865727, "lon": -112.959855, "proficiency": -0.03, "schoolCount": 1}, {"name": "Highwood", "lat": 47.5842, "lon": -110.7973, "proficiency": 0.2367, "schoolCount": 3}, {"name": "Hinsdale", "lat": 48.394822, "lon": -107.084446, "proficiency": 0.1125, "schoolCount": 2}, {"name": "Hobson", "lat": 46.998158, "lon": -109.87399, "proficiency": 0.2367, "schoolCount": 3}, {"name": "Hot Springs", "lat": 47.608584, "lon": -114.66477100000002, "proficiency": 0.0683, "schoolCount": 3}, {"name": "Worden", "lat": 45.960487666666666, "lon": -108.16598, "proficiency": 0.0683, "schoolCount": 3}, {"name": "Hysham", "lat": 46.29270866666667, "lon": -107.231375, "proficiency": -0.0233, "schoolCount": 3}, {"name": "Jackson", "lat": 45.370542, "lon": -113.410082, "proficiency": -0.02, "schoolCount": 1}, {"name": "Joliet", "lat": 45.487427, "lon": -108.973982, "proficiency": 0.1125, "schoolCount": 2}, {"name": "Jordan", "lat": 47.40345133333333, "lon": -106.82705299999999, "proficiency": 0.2367, "schoolCount": 3}, {"name": "Judith Gap", "lat": 46.679495, "lon": -109.753104, "proficiency": -0.025, "schoolCount": 2}, {"name": "Kila", "lat": 48.1215465, "lon": -114.457393, "proficiency": 0.14, "schoolCount": 2}, {"name": "Swan Lake", "lat": 47.630843, "lon": -113.785274, "proficiency": -0.03, "schoolCount": 1}, {"name": "Lambert", "lat": 47.68527, "lon": -104.621835, "proficiency": 0.1125, "schoolCount": 2}, {"name": "Lame Deer", "lat": 45.605013, "lon": -106.6629365, "proficiency": 0.015, "schoolCount": 2}, {"name": "Laurel", "lat": 45.6757275, "lon": -108.7643665, "proficiency": 0.075, "schoolCount": 2}, {"name": "Lavina", "lat": 46.292852, "lon": -108.93595, "proficiency": 0.0683, "schoolCount": 3}, {"name": "Libby", "lat": 48.39096733333333, "lon": -115.571261, "proficiency": 0.1267, "schoolCount": 3}, {"name": "Lima", "lat": 44.634878333333326, "lon": -112.592719, "proficiency": -0.02, "schoolCount": 3}, {"name": "Lincoln", "lat": 46.956097666666665, "lon": -112.67409233333335, "proficiency": 0.0683, "schoolCount": 3}, {"name": "Livingston", "lat": 45.5887115, "lon": -110.55756975, "proficiency": 0.05, "schoolCount": 4}, {"name": "Lodge Grass", "lat": 45.317115, "lon": -107.370948, "proficiency": 0.04, "schoolCount": 2}, {"name": "Lolo", "lat": 46.760727, "lon": -114.16750725, "proficiency": 0.0687, "schoolCount": 4}, {"name": "Stevensville", "lat": 46.53666225, "lon": -114.0339305, "proficiency": 0.1075, "schoolCount": 4}, {"name": "Luther", "lat": 45.284687, "lon": -109.425012, "proficiency": -0.02, "schoolCount": 1}, {"name": "Alder", "lat": 45.319492, "lon": -112.10963, "proficiency": -0.02, "schoolCount": 1}, {"name": "Malta", "lat": 48.46128075, "lon": -107.90042675000001, "proficiency": 0.0712, "schoolCount": 4}, {"name": "Manhattan", "lat": 45.86197, "lon": -111.33, "proficiency": 0.3, "schoolCount": 2}, {"name": "Marion", "lat": 48.118827333333336, "lon": -114.76060666666667, "proficiency": 0.0683, "schoolCount": 3}, {"name": "Medicine Lake", "lat": 48.50357466666667, "lon": -104.50241533333333, "proficiency": 0.0683, "schoolCount": 3}, {"name": "Melrose", "lat": 45.631488, "lon": -112.687475, "proficiency": -0.03, "schoolCount": 1}, {"name": "Melstone", "lat": 46.600955, "lon": -107.86752, "proficiency": 0.365, "schoolCount": 2}, {"name": "Melville", "lat": 46.097057, "lon": -109.948079, "proficiency": -0.03, "schoolCount": 1}, {"name": "Molt", "lat": 45.861541, "lon": -108.929691, "proficiency": -0.03, "schoolCount": 1}, {"name": "Moore", "lat": 46.971735, "lon": -109.692903, "proficiency": 0.1125, "schoolCount": 2}, {"name": "Nashua", "lat": 48.135626, "lon": -106.35413733333333, "proficiency": -0.0233, "schoolCount": 3}, {"name": "Opheim", "lat": 48.85829233333334, "lon": -106.41139500000001, "proficiency": -0.0233, "schoolCount": 3}, {"name": "Ovando", "lat": 47.019644, "lon": -113.128148, "proficiency": -0.02, "schoolCount": 1}, {"name": "Park City", "lat": 45.63009, "lon": -108.91575, "proficiency": 0.14, "schoolCount": 2}, {"name": "Pendroy", "lat": 48.067692, "lon": -112.475095, "proficiency": -0.03, "schoolCount": 1}, {"name": "Brusett", "lat": 47.531076, "lon": -107.535645, "proficiency": -0.02, "schoolCount": 1}, {"name": "Plains", "lat": 47.46517500000001, "lon": -114.885237, "proficiency": 0.1017, "schoolCount": 3}, {"name": "Plentywood", "lat": 48.778242, "lon": -104.554959, "proficiency": 0.0033, "schoolCount": 3}, {"name": "Plevna", "lat": 46.419221666666665, "lon": -104.51798633333333, "proficiency": 0.0683, "schoolCount": 3}, {"name": "Polson", "lat": 47.686066499999995, "lon": -114.1633205, "proficiency": 0.1, "schoolCount": 2}, {"name": "Poplar", "lat": 48.111445, "lon": -105.20322700000001, "proficiency": 0.0033, "schoolCount": 3}, {"name": "Power", "lat": 47.716526, "lon": -111.68835, "proficiency": 0.365, "schoolCount": 2}, {"name": "Pryor", "lat": 45.427642, "lon": -108.53449950000001, "proficiency": -0.025, "schoolCount": 2}, {"name": "Ramsay", "lat": 46.004937999999996, "lon": -112.687206, "proficiency": 0.1125, "schoolCount": 2}, {"name": "Rapelje", "lat": 45.972794, "lon": -109.260947, "proficiency": -0.025, "schoolCount": 2}, {"name": "Red Lodge", "lat": 45.18315, "lon": -109.24964, "proficiency": 0.1625, "schoolCount": 2}, {"name": "Reed Point", "lat": 45.706255999999996, "lon": -109.546071, "proficiency": -0.025, "schoolCount": 2}, {"name": "Glen", "lat": 45.461703, "lon": -112.706595, "proficiency": -0.02, "schoolCount": 1}, {"name": "Richey", "lat": 47.642556, "lon": -105.067179, "proficiency": 0.1125, "schoolCount": 2}, {"name": "Roberts", "lat": 45.36126633333333, "lon": -109.16526966666667, "proficiency": 0.0683, "schoolCount": 3}, {"name": "Ronan", "lat": 47.55462133333333, "lon": -114.10737266666666, "proficiency": 0.06, "schoolCount": 3}, {"name": "Rosebud", "lat": 46.275453, "lon": -106.44229899999999, "proficiency": -0.0267, "schoolCount": 3}, {"name": "Roundup", "lat": 46.450168500000004, "lon": -108.542464, "proficiency": 0.1125, "schoolCount": 2}, {"name": "Roy", "lat": 47.33086, "lon": -108.955197, "proficiency": -0.0233, "schoolCount": 3}, {"name": "Ryegate", "lat": 46.298857, "lon": -109.258253, "proficiency": -0.025, "schoolCount": 2}, {"name": "Saco", "lat": 48.460524, "lon": -107.344656, "proficiency": -0.025, "schoolCount": 2}, {"name": "Savage", "lat": 47.450605, "lon": -104.342245, "proficiency": 0.1125, "schoolCount": 2}, {"name": "Scobey", "lat": 48.791584, "lon": -105.41678, "proficiency": 0.0867, "schoolCount": 3}, {"name": "Seeley Lake", "lat": 47.176058, "lon": -113.478026, "proficiency": 0.2375, "schoolCount": 2}, {"name": "Shelby", "lat": 48.486661749999996, "lon": -111.8147885, "proficiency": 0.0413, "schoolCount": 4}, {"name": "Shepherd", "lat": 45.942057, "lon": -108.344567, "proficiency": 0.1125, "schoolCount": 2}, {"name": "Sheridan", "lat": 45.454683, "lon": -112.1917905, "proficiency": 0.1125, "schoolCount": 2}, {"name": "Sidney", "lat": 47.7125745, "lon": -104.15730049999999, "proficiency": -0.02, "schoolCount": 2}, {"name": "Simms", "lat": 47.48008466666666, "lon": -111.85680433333334, "proficiency": 0.1483, "schoolCount": 3}, {"name": "St Regis", "lat": 47.30014133333333, "lon": -115.10140633333333, "proficiency": 0.02, "schoolCount": 3}, {"name": "Stanford", "lat": 47.148702333333325, "lon": -110.21844933333334, "proficiency": 0.0683, "schoolCount": 3}, {"name": "Sand Coulee", "lat": 47.381721, "lon": -111.1748588, "proficiency": 0.077, "schoolCount": 5}, {"name": "Sunburst", "lat": 48.88090400000001, "lon": -111.91403000000001, "proficiency": 0.0683, "schoolCount": 3}, {"name": "Greenough", "lat": 46.916353, "lon": -113.42842, "proficiency": -0.03, "schoolCount": 1}, {"name": "Superior", "lat": 47.18838766666667, "lon": -114.87973266666667, "proficiency": 0.02, "schoolCount": 3}, {"name": "Condon", "lat": 47.490289, "lon": -113.679065, "proficiency": -0.025, "schoolCount": 2}, {"name": "Terry", "lat": 46.79158733333333, "lon": -105.30871, "proficiency": 0.0683, "schoolCount": 3}, {"name": "Thompson Falls", "lat": 47.597377, "lon": -115.343444, "proficiency": 0.1125, "schoolCount": 2}, {"name": "Three Forks", "lat": 45.896371, "lon": -111.547692, "proficiency": 0.065, "schoolCount": 2}, {"name": "Trego", "lat": 48.702981, "lon": -114.876819, "proficiency": -0.03, "schoolCount": 1}, {"name": "Canyon Creek", "lat": 46.805306, "lon": -112.245279, "proficiency": -0.02, "schoolCount": 1}, {"name": "Trout Creek", "lat": 47.8377505, "lon": -115.5987605, "proficiency": 0.1125, "schoolCount": 2}, {"name": "Turner", "lat": 48.846995, "lon": -108.403426, "proficiency": 0.1125, "schoolCount": 2}, {"name": "Twin Bridges", "lat": 45.546237, "lon": -112.33327266666667, "proficiency": 0.2367, "schoolCount": 3}, {"name": "Ulm", "lat": 47.42534733333334, "lon": -111.547536, "proficiency": 0.065, "schoolCount": 3}, {"name": "Valier", "lat": 48.304375, "lon": -112.331564, "proficiency": 0.065, "schoolCount": 3}, {"name": "Victor", "lat": 46.41495733333333, "lon": -114.15068533333333, "proficiency": 0.0683, "schoolCount": 3}, {"name": "West Yellowstone", "lat": 44.666194999999995, "lon": -111.10816366666666, "proficiency": 0.0867, "schoolCount": 3}, {"name": "Westby", "lat": 48.86692333333334, "lon": -104.05020566666667, "proficiency": 0.0683, "schoolCount": 3}, {"name": "Whitehall", "lat": 45.874399, "lon": -112.09778, "proficiency": 0.1125, "schoolCount": 2}, {"name": "Whitewater", "lat": 48.761697, "lon": -107.630096, "proficiency": -0.0233, "schoolCount": 3}, {"name": "Wibaux", "lat": 46.990135, "lon": -104.19482566666666, "proficiency": 0.0683, "schoolCount": 3}, {"name": "Willow Creek", "lat": 45.824504, "lon": -111.645477, "proficiency": -0.025, "schoolCount": 2}, {"name": "Winifred", "lat": 47.558626000000004, "lon": -109.381664, "proficiency": 0.0683, "schoolCount": 3}, {"name": "Winnett", "lat": 47.00178466666667, "lon": -108.35271, "proficiency": -0.0233, "schoolCount": 3}, {"name": "Wisdom", "lat": 45.614619, "lon": -113.448532, "proficiency": -0.02, "schoolCount": 1}, {"name": "White Sulphur Springs", "lat": 46.544442, "lon": -110.90382, "proficiency": 0.065, "schoolCount": 3}, {"name": "Wyola", "lat": 45.131201000000004, "lon": -107.396582, "proficiency": 0.1125, "schoolCount": 2}, {"name": "Zurich", "lat": 48.586023, "lon": -109.030466, "proficiency": -0.02, "schoolCount": 1}]}