{"state": "ND", "stateName": "North Dakota", "year": 2020, "naep": {"text": "7 out of 10", "numerator": 7, "denominator": 10}, "schools": [{"name": "HORIZON MIDDLE SCHOOL", "lat": 46.855522, "lon": -100.801197, "proficiency": 0.35, "district": "BISMARCK 1", "city": "Bismarck", "ncessch": "380001400051"}, {"name": "SIMLE MIDDLE SCHOOL", "lat": 46.817924, "lon": -100.762514, "proficiency": 0.37, "district": "BISMARCK 1", "city": "Bismarck", "ncessch": "380001400060"}, {"name": "WACHTER MIDDLE SCHOOL", "lat": 46.793373, "lon": -100.781099, "proficiency": 0.34, "district": "BISMARCK 1", "city": "Bismarck", "ncessch": "380001400061"}, {"name": "STRASBURG HIGH SCHOOL", "lat": 46.135158, "lon": -100.165639, "proficiency": 0.75, "district": "STRASBURG 15", "city": "Strasburg", "ncessch": "380001600615"}, {"name": "LINTON ELEMENTARY SCHOOL", "lat": 46.267062, "lon": -100.227194, "proficiency": 0.75, "district": "LINTON 36", "city": "Linton", "ncessch": "380001700370"}, {"name": "CAVALIER HIGH SCHOOL", "lat": 48.794704, "lon": -97.61854, "proficiency": 0.545, "district": "CAVALIER 6", "city": "Cavalier", "ncessch": "380001800089"}, {"name": "JAMESTOWN MIDDLE SCHOOL", "lat": 46.907119, "lon": -98.706114, "proficiency": 0.47, "district": "JAMESTOWN 1", "city": "Jamestown", "ncessch": "380002100311"}, {"name": "SCRANTON HIGH SCHOOL", "lat": 46.153298, "lon": -103.142582, "proficiency": 0.245, "district": "SCRANTON 33", "city": "Scranton", "ncessch": "380002300572"}, {"name": "POWERS LAKE ELEMENTARY SCHOOL", "lat": 48.560178, "lon": -102.637614, "proficiency": 0.245, "district": "POWERS LAKE 27", "city": "Powers Lake", "ncessch": "380002400541"}, {"name": "KINDRED HIGH SCHOOL", "lat": 46.652721, "lon": -97.012545, "proficiency": 0.545, "district": "KINDRED 2", "city": "Kindred", "ncessch": "380002500335"}, {"name": "NEW ENGLAND HIGH SCHOOL", "lat": 46.543817, "lon": -102.868016, "proficiency": 0.245, "district": "NEW ENGLAND 9", "city": "New England", "ncessch": "380002700487"}, {"name": "DRAKE HIGH SCHOOL", "lat": 47.926086, "lon": -100.372942, "proficiency": 0.245, "district": "DRAKE 57", "city": "Drake", "ncessch": "380002900149"}, {"name": "HAZEN MIDDLE SCHOOL", "lat": 47.300217, "lon": -101.620305, "proficiency": 0.345, "district": "HAZEN 3", "city": "Hazen", "ncessch": "380003100863"}, {"name": "BEULAH MIDDLE SCHOOL", "lat": 47.280142, "lon": -101.779698, "proficiency": 0.245, "district": "BEULAH 27", "city": "Beulah", "ncessch": "380003200738"}, {"name": "RICHLAND JUNIOR-SENIOR HIGH SCHOOL", "lat": 46.47131, "lon": -96.874375, "proficiency": 0.3, "district": "RICHLAND 44", "city": "Colfax", "ncessch": "380003600553"}, {"name": "DICKINSON MIDDLE SCHOOL", "lat": 46.904162, "lon": -102.82772, "proficiency": 0.32, "district": "DICKINSON 1", "city": "Dickinson", "ncessch": "380003800887"}, {"name": "TIOGA HIGH SCHOOL", "lat": 48.400443, "lon": -102.949402, "proficiency": 0.345, "district": "TIOGA 15", "city": "Tioga", "ncessch": "380003900635"}, {"name": "DAKOTA PRAIRIE HIGH SCHOOL", "lat": 48.010296, "lon": -98.003783, "proficiency": 0.3, "district": "DAKOTA PRAIRIE 1", "city": "Petersburg", "ncessch": "380004000649"}, {"name": "MAY-PORT CG MIDDLE SCHOOL", "lat": 47.499523, "lon": -97.34982, "proficiency": 0.345, "district": "MAY-PORT CG 14", "city": "Mayville", "ncessch": "380004100019"}, {"name": "MIDKOTA HIGH SCHOOL", "lat": 47.456523, "lon": -98.568436, "proficiency": 0.3, "district": "MIDKOTA 7", "city": "Glenfield", "ncessch": "380004200239"}, {"name": "NORTHERN CASS MIDDLE SCHOOL", "lat": 47.153693, "lon": -97.109165, "proficiency": 0.445, "district": "NORTHERN CASS 97", "city": "Hunter", "ncessch": "380004400120"}, {"name": "ELGIN-NEW LEIPZIG HIGH SCHOOL", "lat": 46.403591, "lon": -101.8489, "proficiency": 0.245, "district": "ELGIN-NEW LEIPZIG 49", "city": "Elgin", "ncessch": "380004500175"}, {"name": "MOTT-REGENT HIGH SCHOOL", "lat": 46.372185, "lon": -102.318612, "proficiency": 0.3, "district": "MOTT-REGENT 1", "city": "Mott", "ncessch": "380004600461"}, {"name": "TGU-GRANVILLE ELEMENTARY SCHOOL", "lat": 48.263359, "lon": -100.844249, "proficiency": 0.245, "district": "TGU 60", "city": "Granville", "ncessch": "380004700270"}, {"name": "TGU-TOWNER ELEMENTARY SCHOOL", "lat": 48.344255, "lon": -100.401312, "proficiency": 0.245, "district": "TGU 60", "city": "Towner", "ncessch": "380004700498"}, {"name": "RICHARDTON-TAYLOR HIGH SCHOOL", "lat": 46.885891, "lon": -102.308283, "proficiency": 0.3, "district": "RICHARDTON-TAYLOR 34", "city": "Richardton", "ncessch": "380004800551"}, {"name": "FESSENDEN-BOWDON ELEMENTARY SCHOOL", "lat": 47.652028, "lon": -99.627076, "proficiency": 0.245, "district": "FESSENDEN-BOWDON 25", "city": "Fessenden", "ncessch": "380004900212"}, {"name": "MLS-MOHALL HIGH SCHOOL", "lat": 48.766985, "lon": -101.511238, "proficiency": 0.495, "district": "MOHALL-LANSFORD-SHERWOOD 1", "city": "Mohall", "ncessch": "380005000454"}, {"name": "CENTER-STANTON HIGH SCHOOL", "lat": 47.118761, "lon": -101.297252, "proficiency": 0.495, "district": "CENTER-STANTON 1", "city": "Center", "ncessch": "380005200097"}, {"name": "CARRINGTON HIGH SCHOOL", "lat": 47.448543, "lon": -99.115222, "proficiency": 0.645, "district": "CARRINGTON 49", "city": "Carrington", "ncessch": "380005300088"}, {"name": "NORTH BORDER-PEMBINA ELEMENTARY SCHOOL", "lat": 48.967561, "lon": -97.248721, "proficiency": 0.75, "district": "NORTH BORDER 100", "city": "Pembina", "ncessch": "380005400529"}, {"name": "NORTH BORDER-WALHALLA ELEMENTARY SCHOOL", "lat": 48.924215, "lon": -97.918244, "proficiency": 0.75, "district": "NORTH BORDER 100", "city": "Walhalla", "ncessch": "380005400669"}, {"name": "LITCHVILLE-MARION HIGH SCHOOL", "lat": 46.60447, "lon": -98.330973, "proficiency": 0.245, "district": "LITCHVILLE-MARION 46", "city": "Marion", "ncessch": "380005700399"}, {"name": "BERTHOLD HIGH SCHOOL", "lat": 48.317194, "lon": -101.732107, "proficiency": 0.495, "district": "LEWIS AND CLARK 161", "city": "Berthold", "ncessch": "380005800030"}, {"name": "NORTH SHORE PLAZA HIGH SCHOOL", "lat": 48.020669, "lon": -101.958849, "proficiency": 0.75, "district": "LEWIS AND CLARK 161", "city": "Plaza", "ncessch": "380005800507"}, {"name": "NEW ROCKFORD-SHEYENNE HIGH SCHOOL", "lat": 47.680701, "lon": -99.132009, "proficiency": 0.3, "district": "NEW ROCKFORD-SHEYENNE 2", "city": "New Rockford", "ncessch": "380005900491"}, {"name": "BARNES COUNTY NORTH  ELEMENTARY SCHOOL", "lat": 47.097517, "lon": -98.360598, "proficiency": 0.495, "district": "BARNES COUNTY NORTH 7", "city": "Wimbledon", "ncessch": "380006000701"}, {"name": "ENDERLIN AREA HIGH SCHOOL", "lat": 46.621569, "lon": -97.603, "proficiency": 0.3, "district": "ENDERLIN AREA 24", "city": "Enderlin", "ncessch": "380006100184"}, {"name": "KIDDER COUNTY HIGH SCHOOL", "lat": 46.850154, "lon": -99.915274, "proficiency": 0.3, "district": "KIDDER COUNTY 1", "city": "Steele", "ncessch": "380038900612"}, {"name": "NORTH STAR ELEMENTARY SCHOOL", "lat": 48.489913, "lon": -99.208795, "proficiency": 0.695, "district": "NORTH STAR 10", "city": "Cando", "ncessch": "380039000595"}, {"name": "NEW SALEM-ALMONT HIGH SCHOOL", "lat": 46.845255, "lon": -101.410875, "proficiency": 0.445, "district": "NEW SALEM-ALMONT 49", "city": "New Salem", "ncessch": "380039200493"}, {"name": "VALLEY-EDINBURG ELEMENTARY SCHOOL-CRYSTAL", "lat": 48.594846, "lon": -97.674026, "proficiency": 0.245, "district": "VALLEY-EDINBURG 118", "city": "Crystal", "ncessch": "380039700652"}, {"name": "PARK RIVER AREA HIGH SCHOOL", "lat": 48.393283, "lon": -97.75119, "proficiency": 0.495, "district": "PARK RIVER AREA 8", "city": "Park River", "ncessch": "380040100526"}, {"name": "HOPE PAGE HIGH SCHOOL", "lat": 47.318864, "lon": -97.714736, "proficiency": 0.245, "district": "HOPE-PAGE 85", "city": "Hope", "ncessch": "380040400901"}, {"name": "ALEXANDER HIGH SCHOOL", "lat": 47.842463, "lon": -103.638291, "proficiency": 0.1, "district": "ALEXANDER 2", "city": "Alexander", "ncessch": "380176000004"}, {"name": "ASHLEY HIGH SCHOOL", "lat": 46.03366, "lon": -99.380756, "proficiency": 0.245, "district": "ASHLEY 9", "city": "Ashley", "ncessch": "380217000014"}, {"name": "BEACH HIGH SCHOOL", "lat": 46.92243, "lon": -104.005522, "proficiency": 0.245, "district": "BEACH 3", "city": "Beach", "ncessch": "380238000023"}, {"name": "TURTLE MOUNTAIN COMMUNITY MIDDLE SCHOOL", "lat": 48.84489, "lon": -99.739551, "proficiency": 0.17, "district": "BELCOURT 7", "city": "Belcourt", "ncessch": "380253000751"}, {"name": "BOTTINEAU JUNIOR-SENIOR HIGH SCHOOL", "lat": 48.829412, "lon": -100.442655, "proficiency": 0.345, "district": "BOTTINEAU 1", "city": "Bottineau", "ncessch": "380306000068"}, {"name": "BOWBELLS HIGH SCHOOL", "lat": 48.80587, "lon": -102.247188, "proficiency": 0.75, "district": "BOWBELLS 14", "city": "Bowbells", "ncessch": "380309000070"}, {"name": "BOWMAN CO HIGH SCHOOL", "lat": 46.181133, "lon": -103.407637, "proficiency": 0.245, "district": "BOWMAN CO 1", "city": "Bowman", "ncessch": "380320000075"}, {"name": "BURKE CENTRAL HIGH SCHOOL", "lat": 48.875032, "lon": -102.564759, "proficiency": 0.245, "district": "BURKE CENTRAL 36", "city": "Lignite", "ncessch": "380359000082"}, {"name": "CENTRAL CASS MIDDLE SCHOOL", "lat": 46.905918, "lon": -97.208646, "proficiency": 0.32, "district": "CENTRAL CASS 17", "city": "Casselton", "ncessch": "380409000163"}, {"name": "CENTRAL VALLEY HIGH SCHOOL", "lat": 47.635976, "lon": -97.067768, "proficiency": 0.495, "district": "CENTRAL VALLEY 3", "city": "Buxton", "ncessch": "380414000104"}, {"name": "GRIGGS COUNTY CENTRAL ELEMENTARY SCHOOL", "lat": 47.44824, "lon": -98.117959, "proficiency": 0.3, "district": "GRIGGS COUNTY CENTRAL 18", "city": "Cooperstown", "ncessch": "380456000164"}, {"name": "CENTRAL MIDDLE SCHOOL", "lat": 48.115044, "lon": -98.860415, "proficiency": 0.22, "district": "DEVILS LAKE 1", "city": "Devils Lake", "ncessch": "380504000127"}, {"name": "DIVIDE COUNTY HIGH SCHOOL", "lat": 48.907601, "lon": -103.288721, "proficiency": 0.1, "district": "DIVIDE COUNTY 1", "city": "Crosby", "ncessch": "380516000140"}, {"name": "DRAYTON ELEMENTARY SCHOOL", "lat": 48.561108, "lon": -97.184248, "proficiency": 0.75, "district": "DRAYTON 19", "city": "Drayton", "ncessch": "380534000150"}, {"name": "DUNSEITH HIGH SCHOOL", "lat": 48.809583, "lon": -100.065332, "proficiency": 0.05, "district": "DUNSEITH 1", "city": "Dunseith", "ncessch": "380546000157"}, {"name": "EDGELEY HIGH SCHOOL", "lat": 46.358893, "lon": -98.717662, "proficiency": 0.1, "district": "EDGELEY 3", "city": "Edgeley", "ncessch": "380585000166"}, {"name": "EIGHT MILE ELEMENTARY SCHOOL", "lat": 48.072197, "lon": -103.834152, "proficiency": 0.1, "district": "EIGHT MILE 6", "city": "Trenton", "ncessch": "380601000171"}, {"name": "ELLENDALE ELEMENTARY SCHOOL", "lat": 46.003004, "lon": -98.522838, "proficiency": 0.75, "district": "ELLENDALE 40", "city": "Ellendale", "ncessch": "380609000177"}, {"name": "BELFIELD HIGH SCHOOL", "lat": 46.88824, "lon": -103.195466, "proficiency": 0.3, "district": "BELFIELD 13", "city": "Belfield", "ncessch": "380621000181"}, {"name": "EMERADO ELEMENTARY SCHOOL", "lat": 47.914402, "lon": -97.370785, "proficiency": 0.245, "district": "EMERADO 127", "city": "Emerado", "ncessch": "380636000182"}, {"name": "DISCOVERY MIDDLE SCHOOL", "lat": 46.819782, "lon": -96.810694, "proficiency": 0.54, "district": "FARGO 1", "city": "Fargo", "ncessch": "380678000079"}, {"name": "CARL BEN EIELSON MIDDLE SCHOOL", "lat": 46.862817, "lon": -96.806516, "proficiency": 0.32, "district": "FARGO 1", "city": "Fargo", "ncessch": "380678000186"}, {"name": "BEN FRANKLIN MIDDLE SCHOOL", "lat": 46.896148, "lon": -96.791297, "proficiency": 0.57, "district": "FARGO 1", "city": "Fargo", "ncessch": "380678000193"}, {"name": "FLASHER HIGH SCHOOL", "lat": 46.455672, "lon": -101.228523, "proficiency": 0.1, "district": "FLASHER 39", "city": "Flasher", "ncessch": "380693000219"}, {"name": "FORT YATES MIDDLE SCHOOL", "lat": 46.093402, "lon": -100.678933, "proficiency": 0.1, "district": "FT YATES 4", "city": "Fort Yates", "ncessch": "380720000744"}, {"name": "GARRISON HIGH SCHOOL", "lat": 47.656857, "lon": -101.417553, "proficiency": 0.3, "district": "GARRISON 51", "city": "Garrison", "ncessch": "380759000234"}, {"name": "GLEN ULLIN ELEMENTARY SCHOOL", "lat": 46.81061, "lon": -101.825214, "proficiency": 0.75, "district": "GLEN ULLIN 48", "city": "Glen Ullin", "ncessch": "380783000235"}, {"name": "GLENBURN HIGH SCHOOL", "lat": 48.515855, "lon": -101.223427, "proficiency": 0.495, "district": "GLENBURN 26", "city": "Glenburn", "ncessch": "380785000238"}, {"name": "SCHROEDER MIDDLE SCHOOL", "lat": 47.890292, "lon": -97.038782, "proficiency": 0.47, "district": "GRAND FORKS 1", "city": "Grand Forks", "ncessch": "380813000263"}, {"name": "SOUTH MIDDLE SCHOOL", "lat": 47.873905, "lon": -97.055636, "proficiency": 0.37, "district": "GRAND FORKS 1", "city": "Grand Forks", "ncessch": "380813000264"}, {"name": "VALLEY MIDDLE SCHOOL", "lat": 47.92495, "lon": -97.057088, "proficiency": 0.17, "district": "GRAND FORKS 1", "city": "Grand Forks", "ncessch": "380813000265"}, {"name": "NATHAN TWINING MIDDLE SCHOOL", "lat": 47.965035, "lon": -97.367762, "proficiency": 0.495, "district": "GRAND FORKS 1", "city": "Grand Forks AFB", "ncessch": "380813000814"}, {"name": "GRENORA HIGH SCHOOL", "lat": 48.620659, "lon": -103.933261, "proficiency": 0.245, "district": "GRENORA 99", "city": "Grenora", "ncessch": "380846000274"}, {"name": "HANKINSON HIGH SCHOOL", "lat": 46.069177, "lon": -96.900133, "proficiency": 0.695, "district": "HANKINSON 8", "city": "Hankinson", "ncessch": "380871000283"}, {"name": "HARVEY HIGH SCHOOL", "lat": 47.775663, "lon": -99.92623, "proficiency": 0.3, "district": "HARVEY 38", "city": "Harvey", "ncessch": "380889000288"}, {"name": "HATTON EIELSON HIGH SCHOOL", "lat": 47.641499, "lon": -97.459967, "proficiency": 0.245, "district": "HATTON EIELSON 7", "city": "Hatton", "ncessch": "380900000290"}, {"name": "HAZELTON-MOFFIT-BRADDOCK HIGH SCHOOL", "lat": 46.485613, "lon": -100.28237, "proficiency": 0.3, "district": "HAZELTON-MOFFIT-BRADDOCK 6", "city": "Hazelton", "ncessch": "380913000141"}, {"name": "HEBRON HIGH SCHOOL", "lat": 46.903936, "lon": -102.049593, "proficiency": 0.75, "district": "HEBRON 13", "city": "Hebron", "ncessch": "380918000296"}, {"name": "HETTINGER HIGH SCHOOL", "lat": 45.999433, "lon": -102.632908, "proficiency": 0.1, "district": "HETTINGER 13", "city": "Hettinger", "ncessch": "380941000299"}, {"name": "HILLSBORO HIGH SCHOOL", "lat": 47.40421, "lon": -97.054924, "proficiency": 0.345, "district": "HILLSBORO 9", "city": "Hillsboro", "ncessch": "380957000302"}, {"name": "KENMARE ELEMENTARY SCHOOL", "lat": 48.677678, "lon": -102.083365, "proficiency": 0.345, "district": "KENMARE 28", "city": "Kenmare", "ncessch": "381018000731"}, {"name": "KILLDEER HIGH SCHOOL", "lat": 47.372673, "lon": -102.756261, "proficiency": 0.345, "district": "KILLDEER 16", "city": "Killdeer", "ncessch": "381027000332"}, {"name": "KULM ELEMENTARY SCHOOL", "lat": 46.298298, "lon": -98.946996, "proficiency": 0.245, "district": "KULM 7", "city": "Kulm", "ncessch": "381050000338"}, {"name": "LAKOTA HIGH SCHOOL", "lat": 48.044963, "lon": -98.343347, "proficiency": 0.245, "district": "LAKOTA 66", "city": "Lakota", "ncessch": "381060000342"}, {"name": "LAMOURE ELEMENTARY SCHOOL", "lat": 46.352346, "lon": -98.291892, "proficiency": 0.495, "district": "LAMOURE 8", "city": "LaMoure", "ncessch": "381074000343"}, {"name": "LANGDON AREA HIGH SCHOOL", "lat": 48.768054, "lon": -98.375297, "proficiency": 0.3, "district": "LANGDON AREA 23", "city": "Langdon", "ncessch": "381081000348"}, {"name": "LARIMORE HIGH SCHOOL", "lat": 47.90625, "lon": -97.626412, "proficiency": 0.3, "district": "LARIMORE 44", "city": "Larimore", "ncessch": "381086000355"}, {"name": "LEEDS ELEMENTARY SCHOOL", "lat": 48.288217, "lon": -99.434173, "proficiency": 0.245, "district": "LEEDS 6", "city": "Leeds", "ncessch": "381098000357"}, {"name": "LIDGERWOOD HIGH SCHOOL", "lat": 46.074419, "lon": -97.14801, "proficiency": 0.245, "district": "LIDGERWOOD 28", "city": "Lidgerwood", "ncessch": "381114000366"}, {"name": "LISBON MIDDLE SCHOOL", "lat": 46.441091, "lon": -97.685949, "proficiency": 0.445, "district": "LISBON 19", "city": "Lisbon", "ncessch": "381143000375"}, {"name": "MADDOCK ELEMENTARY SCHOOL", "lat": 47.964868, "lon": -99.521426, "proficiency": 0.245, "district": "MADDOCK 9", "city": "Maddock", "ncessch": "381170000381"}, {"name": "MANDAN MIDDLE SCHOOL", "lat": 46.851975, "lon": -100.907441, "proficiency": 0.37, "district": "MANDAN 1", "city": "Mandan", "ncessch": "381182000388"}, {"name": "MANDAREE ELEMENTARY SCHOOL", "lat": 47.735886, "lon": -102.676021, "proficiency": 0.245, "district": "MANDAREE 36", "city": "Mandaree", "ncessch": "381185000747"}, {"name": "MANVEL ELEMENTARY SCHOOL", "lat": 48.072391, "lon": -97.176304, "proficiency": 0.75, "district": "MANVEL 125", "city": "Manvel", "ncessch": "381200000394"}, {"name": "MAPLE VALLEY HIGH SCHOOL", "lat": 46.921089, "lon": -97.674975, "proficiency": 0.75, "district": "MAPLE VALLEY 4", "city": "Tower City", "ncessch": "381202000395"}, {"name": "MAX HIGH SCHOOL", "lat": 47.82747, "lon": -101.295561, "proficiency": 0.75, "district": "MAX 50", "city": "Max", "ncessch": "381235000402"}, {"name": "MCCLUSKY HIGH SCHOOL", "lat": 47.482435, "lon": -100.445321, "proficiency": 0.245, "district": "MCCLUSKY 19", "city": "McClusky", "ncessch": "381243000408"}, {"name": "WATFORD CITY MIDDLE SCHOOL", "lat": 47.801807, "lon": -103.279399, "proficiency": 0.37, "district": "MCKENZIE CO 1", "city": "Watford City", "ncessch": "381254000886"}, {"name": "MEDINA HIGH SCHOOL", "lat": 46.891456, "lon": -99.296873, "proficiency": 0.495, "district": "MEDINA 3", "city": "Medina", "ncessch": "381266000419"}, {"name": "MIDWAY ELEMENTARY SCHOOL", "lat": 48.152298, "lon": -97.515712, "proficiency": 0.495, "district": "MIDWAY 128", "city": "Inkster", "ncessch": "381292000424"}, {"name": "MILNOR HIGH SCHOOL", "lat": 46.260904, "lon": -97.455377, "proficiency": 0.75, "district": "MILNOR 2", "city": "Milnor", "ncessch": "381293000427"}, {"name": "MINNEWAUKAN ELEMENTARY SCHOOL", "lat": 48.087171, "lon": -99.28304, "proficiency": 0.1, "district": "MINNEWAUKAN 5", "city": "Minnewaukan", "ncessch": "381299000430"}, {"name": "ERIK RAMSTAD MIDDLE SCHOOL", "lat": 48.275041, "lon": -101.310086, "proficiency": 0.47, "district": "MINOT 1", "city": "Minot", "ncessch": "381303000436"}, {"name": "JIM HILL MIDDLE SCHOOL", "lat": 48.226253, "lon": -101.30248, "proficiency": 0.47, "district": "MINOT 1", "city": "Minot", "ncessch": "381303000439"}, {"name": "MEMORIAL MIDDLE SCHOOL", "lat": 48.428614, "lon": -101.314804, "proficiency": 0.545, "district": "MINOT 1", "city": "Minot AFB", "ncessch": "381303000444"}, {"name": "MINTO ELEMENTARY SCHOOL", "lat": 48.294267, "lon": -97.375146, "proficiency": 0.3, "district": "MINTO 20", "city": "Minto", "ncessch": "381305000451"}, {"name": "WILTON HIGH SCHOOL", "lat": 47.158304, "lon": -100.79001, "proficiency": 0.1, "district": "WILTON 1", "city": "Wilton", "ncessch": "381320000457"}, {"name": "MONTPELIER HIGH SCHOOL", "lat": 46.697122, "lon": -98.58734, "proficiency": 0.75, "district": "MONTPELIER 14", "city": "Montpelier", "ncessch": "381323000459"}, {"name": "MT PLEASANT HIGH SCHOOL", "lat": 48.862921, "lon": -99.611679, "proficiency": 0.75, "district": "MT PLEASANT 4", "city": "Rolla", "ncessch": "381340000464"}, {"name": "NAPOLEON HIGH SCHOOL", "lat": 46.506942, "lon": -99.765602, "proficiency": 0.3, "district": "NAPOLEON 2", "city": "Napoleon", "ncessch": "381351000469"}, {"name": "NEDROSE ELEMENTARY SCHOOL 4-8", "lat": 48.227239, "lon": -101.194138, "proficiency": 0.345, "district": "NEDROSE 4", "city": "Minot", "ncessch": "381366000876"}, {"name": "RAY ELEMENTARY SCHOOL", "lat": 48.344671, "lon": -103.169312, "proficiency": 0.3, "district": "NESSON 2", "city": "Ray", "ncessch": "381371000477"}, {"name": "NEW TOWN MIDDLE SCHOOL", "lat": 47.981815, "lon": -102.48798, "proficiency": 0.05, "district": "NEW TOWN 1", "city": "New Town", "ncessch": "381392000496"}, {"name": "NORTH SARGENT ELEMENTARY SCHOOL", "lat": 46.224766, "lon": -97.664653, "proficiency": 0.245, "district": "NORTH SARGENT 3", "city": "Gwinner", "ncessch": "381429000504"}, {"name": "NORTHWOOD HIGH SCHOOL", "lat": 47.735008, "lon": -97.578149, "proficiency": 0.495, "district": "NORTHWOOD 129", "city": "Northwood", "ncessch": "381434000509"}, {"name": "OAKES HIGH SCHOOL", "lat": 46.138455, "lon": -98.089041, "proficiency": 0.445, "district": "OAKES 41", "city": "Oakes", "ncessch": "381450000514"}, {"name": "PARSHALL HIGH SCHOOL", "lat": 47.962686, "lon": -102.134614, "proficiency": 0.1, "district": "PARSHALL 3", "city": "Parshall", "ncessch": "381494000528"}, {"name": "PINGREE-BUCHANAN HIGH SCHOOL", "lat": 47.166922, "lon": -98.911975, "proficiency": 0.245, "district": "PINGREE-BUCHANAN 10", "city": "Pingree", "ncessch": "381515000534"}, {"name": "ROLETTE ELEMENTARY SCHOOL", "lat": 48.662401, "lon": -99.838689, "proficiency": 0.245, "district": "ROLETTE 29", "city": "Rolette", "ncessch": "381605000558"}, {"name": "RUGBY HIGH SCHOOL", "lat": 48.359121, "lon": -99.994406, "proficiency": 0.445, "district": "RUGBY 5", "city": "Rugby", "ncessch": "381613000563"}, {"name": "SARGENT CENTRAL HIGH SCHOOL", "lat": 46.103803, "lon": -97.640376, "proficiency": 0.245, "district": "SARGENT CENTRAL 6", "city": "Forman", "ncessch": "381643000568"}, {"name": "SOLEN HIGH SCHOOL", "lat": 46.388472, "lon": -100.791662, "proficiency": 0.245, "district": "SOLEN 3", "city": "Solen", "ncessch": "381698000587"}, {"name": "VELVA HIGH SCHOOL", "lat": 48.058472, "lon": -100.93542, "proficiency": 0.545, "district": "VELVA 1", "city": "Velva", "ncessch": "381704000591"}, {"name": "SOUTH HEART HIGH SCHOOL", "lat": 46.866892, "lon": -102.991281, "proficiency": 0.1, "district": "SOUTH HEART 9", "city": "South Heart", "ncessch": "381713000593"}, {"name": "SOUTH PRAIRIE ELEMENTARY SCHOOL", "lat": 48.053181, "lon": -101.297903, "proficiency": 0.345, "district": "SOUTH PRAIRIE 70", "city": "Minot", "ncessch": "381717000594"}, {"name": "SAINT JOHN ELEMENTARY SCHOOL", "lat": 48.94036, "lon": -99.710292, "proficiency": 0.1, "district": "ST JOHN 3", "city": "Saint John", "ncessch": "381746000599"}, {"name": "STANLEY HIGH SCHOOL", "lat": 48.309694, "lon": -102.391973, "proficiency": 0.245, "district": "STANLEY 2", "city": "Stanley", "ncessch": "381757000605"}, {"name": "SURREY HIGH SCHOOL", "lat": 48.237158, "lon": -101.130343, "proficiency": 0.495, "district": "SURREY 41", "city": "Surrey", "ncessch": "381791000619"}, {"name": "THOMPSON HIGH SCHOOL", "lat": 47.775185, "lon": -97.105851, "proficiency": 0.445, "district": "THOMPSON 61", "city": "Thompson", "ncessch": "381828000630"}, {"name": "TURTLE LAKE-MERCER HIGH SCHOOL", "lat": 47.520573, "lon": -100.895397, "proficiency": 0.3, "district": "TURTLE LAKE-MERCER 72", "city": "Turtle Lake", "ncessch": "381850000641"}, {"name": "TWIN BUTTES ELEMENTARY SCHOOL", "lat": 47.517551, "lon": -102.247442, "proficiency": 0.245, "district": "TWIN BUTTES 37", "city": "Halliday", "ncessch": "381860000757"}, {"name": "UNDERWOOD HIGH SCHOOL", "lat": 47.456701, "lon": -101.143081, "proficiency": 0.1, "district": "UNDERWOOD 8", "city": "Underwood", "ncessch": "381866000645"}, {"name": "DES LACS-BURLINGTON HIGH SCHOOL", "lat": 48.255231, "lon": -101.561104, "proficiency": 0.445, "district": "UNITED 7", "city": "Des Lacs", "ncessch": "381873000647"}, {"name": "VALLEY CITY JUNIOR HIGH SCHOOL", "lat": 46.927348, "lon": -98.003964, "proficiency": 0.52, "district": "VALLEY CITY 2", "city": "Valley City", "ncessch": "381885000656"}, {"name": "WAHPETON MIDDLE SCHOOL", "lat": 46.27651, "lon": -96.618955, "proficiency": 0.57, "district": "WAHPETON 37", "city": "Wahpeton", "ncessch": "381902000749"}, {"name": "WARWICK MIDDLE SCHOOL", "lat": 47.857662, "lon": -98.710555, "proficiency": 0.1, "district": "WARWICK 29", "city": "Warwick", "ncessch": "381926000890"}, {"name": "WASHBURN HIGH SCHOOL", "lat": 47.292416, "lon": -101.02679, "proficiency": 0.3, "district": "WASHBURN 4", "city": "Washburn", "ncessch": "381929000674"}, {"name": "CHENEY MIDDLE SCHOOL", "lat": 46.853865, "lon": -96.884401, "proficiency": 0.38, "district": "WEST FARGO 6", "city": "West Fargo", "ncessch": "381941000680"}, {"name": "LIBERTY MIDDLE SCHOOL", "lat": 46.824728, "lon": -96.885891, "proficiency": 0.35, "district": "WEST FARGO 6", "city": "West Fargo", "ncessch": "381941000859"}, {"name": "HERITAGE MIDDLE SCHOOL", "lat": 46.773664, "lon": -96.895206, "proficiency": 0.47, "district": "WEST FARGO 6", "city": "Horace", "ncessch": "381941000899"}, {"name": "WESTHOPE HIGH SCHOOL", "lat": 48.912396, "lon": -101.021572, "proficiency": 0.245, "district": "WESTHOPE 17", "city": "Westhope", "ncessch": "381947000686"}, {"name": "WHITE SHIELD ELEMENTARY SCHOOL", "lat": 47.670763, "lon": -101.842374, "proficiency": 0.245, "district": "WHITE SHIELD 85", "city": "Roseglen", "ncessch": "381968000807"}, {"name": "WISHEK HIGH SCHOOL", "lat": 46.256449, "lon": -99.549879, "proficiency": 0.75, "district": "WISHEK 19", "city": "Wishek", "ncessch": "382019000707"}, {"name": "WYNDMERE HIGH SCHOOL", "lat": 46.263271, "lon": -97.127622, "proficiency": 0.75, "district": "WYNDMERE 42", "city": "Wyndmere", "ncessch": "382031000713"}, {"name": "EAST FAIRVIEW ELEMENTARY SCHOOL", "lat": 47.85589, "lon": -104.038071, "proficiency": 0.75, "district": "YELLOWSTONE 14", "city": "Fairview", "ncessch": "382034000714"}], "districts": [{"name": "BISMARCK 1", "lat": 46.822272999999996, "lon": -100.78160333333334, "proficiency": 0.3533, "schoolCount": 3}, {"name": "STRASBURG 15", "lat": 46.135158, "lon": -100.165639, "proficiency": 0.75, "schoolCount": 1}, {"name": "LINTON 36", "lat": 46.267062, "lon": -100.227194, "proficiency": 0.75, "schoolCount": 1}, {"name": "CAVALIER 6", "lat": 48.794704, "lon": -97.61854, "proficiency": 0.545, "schoolCount": 1}, {"name": "JAMESTOWN 1", "lat": 46.907119, "lon": -98.706114, "proficiency": 0.47, "schoolCount": 1}, {"name": "SCRANTON 33", "lat": 46.153298, "lon": -103.142582, "proficiency": 0.245, "schoolCount": 1}, {"name": "POWERS LAKE 27", "lat": 48.560178, "lon": -102.637614, "proficiency": 0.245, "schoolCount": 1}, {"name": "KINDRED 2", "lat": 46.652721, "lon": -97.012545, "proficiency": 0.545, "schoolCount": 1}, {"name": "NEW ENGLAND 9", "lat": 46.543817, "lon": -102.868016, "proficiency": 0.245, "schoolCount": 1}, {"name": "DRAKE 57", "lat": 47.926086, "lon": -100.372942, "proficiency": 0.245, "schoolCount": 1}, {"name": "HAZEN 3", "lat": 47.300217, "lon": -101.620305, "proficiency": 0.345, "schoolCount": 1}, {"name": "BEULAH 27", "lat": 47.280142, "lon": -101.779698, "proficiency": 0.245, "schoolCount": 1}, {"name": "RICHLAND 44", "lat": 46.47131, "lon": -96.874375, "proficiency": 0.3, "schoolCount": 1}, {"name": "DICKINSON 1", "lat": 46.904162, "lon": -102.82772, "proficiency": 0.32, "schoolCount": 1}, {"name": "TIOGA 15", "lat": 48.400443, "lon": -102.949402, "proficiency": 0.345, "schoolCount": 1}, {"name": "DAKOTA PRAIRIE 1", "lat": 48.010296, "lon": -98.003783, "proficiency": 0.3, "schoolCount": 1}, {"name": "MAY-PORT CG 14", "lat": 47.499523, "lon": -97.34982, "proficiency": 0.345, "schoolCount": 1}, {"name": "MIDKOTA 7", "lat": 47.456523, "lon": -98.568436, "proficiency": 0.3, "schoolCount": 1}, {"name": "NORTHERN CASS 97", "lat": 47.153693, "lon": -97.109165, "proficiency": 0.445, "schoolCount": 1}, {"name": "ELGIN-NEW LEIPZIG 49", "lat": 46.403591, "lon": -101.8489, "proficiency": 0.245, "schoolCount": 1}, {"name": "MOTT-REGENT 1", "lat": 46.372185, "lon": -102.318612, "proficiency": 0.3, "schoolCount": 1}, {"name": "TGU 60", "lat": 48.303807, "lon": -100.6227805, "proficiency": 0.245, "schoolCount": 2}, {"name": "RICHARDTON-TAYLOR 34", "lat": 46.885891, "lon": -102.308283, "proficiency": 0.3, "schoolCount": 1}, {"name": "FESSENDEN-BOWDON 25", "lat": 47.652028, "lon": -99.627076, "proficiency": 0.245, "schoolCount": 1}, {"name": "MOHALL-LANSFORD-SHERWOOD 1", "lat": 48.766985, "lon": -101.511238, "proficiency": 0.495, "schoolCount": 1}, {"name": "CENTER-STANTON 1", "lat": 47.118761, "lon": -101.297252, "proficiency": 0.495, "schoolCount": 1}, {"name": "CARRINGTON 49", "lat": 47.448543, "lon": -99.115222, "proficiency": 0.645, "schoolCount": 1}, {"name": "NORTH BORDER 100", "lat": 48.945888, "lon": -97.5834825, "proficiency": 0.75, "schoolCount": 2}, {"name": "LITCHVILLE-MARION 46", "lat": 46.60447, "lon": -98.330973, "proficiency": 0.245, "schoolCount": 1}, {"name": "LEWIS AND CLARK 161", "lat": 48.1689315, "lon": -101.845478, "proficiency": 0.6225, "schoolCount": 2}, {"name": "NEW ROCKFORD-SHEYENNE 2", "lat": 47.680701, "lon": -99.132009, "proficiency": 0.3, "schoolCount": 1}, {"name": "BARNES COUNTY NORTH 7", "lat": 47.097517, "lon": -98.360598, "proficiency": 0.495, "schoolCount": 1}, {"name": "ENDERLIN AREA 24", "lat": 46.621569, "lon": -97.603, "proficiency": 0.3, "schoolCount": 1}, {"name": "KIDDER COUNTY 1", "lat": 46.850154, "lon": -99.915274, "proficiency": 0.3, "schoolCount": 1}, {"name": "NORTH STAR 10", "lat": 48.489913, "lon": -99.208795, "proficiency": 0.695, "schoolCount": 1}, {"name": "NEW SALEM-ALMONT 49", "lat": 46.845255, "lon": -101.410875, "proficiency": 0.445, "schoolCount": 1}, {"name": "VALLEY-EDINBURG 118", "lat": 48.594846, "lon": -97.674026, "proficiency": 0.245, "schoolCount": 1}, {"name": "PARK RIVER AREA 8", "lat": 48.393283, "lon": -97.75119, "proficiency": 0.495, "schoolCount": 1}, {"name": "HOPE-PAGE 85", "lat": 47.318864, "lon": -97.714736, "proficiency": 0.245, "schoolCount": 1}, {"name": "ALEXANDER 2", "lat": 47.842463, "lon": -103.638291, "proficiency": 0.1, "schoolCount": 1}, {"name": "ASHLEY 9", "lat": 46.03366, "lon": -99.380756, "proficiency": 0.245, "schoolCount": 1}, {"name": "BEACH 3", "lat": 46.92243, "lon": -104.005522, "proficiency": 0.245, "schoolCount": 1}, {"name": "BELCOURT 7", "lat": 48.84489, "lon": -99.739551, "proficiency": 0.17, "schoolCount": 1}, {"name": "BOTTINEAU 1", "lat": 48.829412, "lon": -100.442655, "proficiency": 0.345, "schoolCount": 1}, {"name": "BOWBELLS 14", "lat": 48.80587, "lon": -102.247188, "proficiency": 0.75, "schoolCount": 1}, {"name": "BOWMAN CO 1", "lat": 46.181133, "lon": -103.407637, "proficiency": 0.245, "schoolCount": 1}, {"name": "BURKE CENTRAL 36", "lat": 48.875032, "lon": -102.564759, "proficiency": 0.245, "schoolCount": 1}, {"name": "CENTRAL CASS 17", "lat": 46.905918, "lon": -97.208646, "proficiency": 0.32, "schoolCount": 1}, {"name": "CENTRAL VALLEY 3", "lat": 47.635976, "lon": -97.067768, "proficiency": 0.495, "schoolCount": 1}, {"name": "GRIGGS COUNTY CENTRAL 18", "lat": 47.44824, "lon": -98.117959, "proficiency": 0.3, "schoolCount": 1}, {"name": "DEVILS LAKE 1", "lat": 48.115044, "lon": -98.860415, "proficiency": 0.22, "schoolCount": 1}, {"name": "DIVIDE COUNTY 1", "lat": 48.907601, "lon": -103.288721, "proficiency": 0.1, "schoolCount": 1}, {"name": "DRAYTON 19", "lat": 48.561108, "lon": -97.184248, "proficiency": 0.75, "schoolCount": 1}, {"name": "DUNSEITH 1", "lat": 48.809583, "lon": -100.065332, "proficiency": 0.05, "schoolCount": 1}, {"name": "EDGELEY 3", "lat": 46.358893, "lon": -98.717662, "proficiency": 0.1, "schoolCount": 1}, {"name": "EIGHT MILE 6", "lat": 48.072197, "lon": -103.834152, "proficiency": 0.1, "schoolCount": 1}, {"name": "ELLENDALE 40", "lat": 46.003004, "lon": -98.522838, "proficiency": 0.75, "schoolCount": 1}, {"name": "BELFIELD 13", "lat": 46.88824, "lon": -103.195466, "proficiency": 0.3, "schoolCount": 1}, {"name": "EMERADO 127", "lat": 47.914402, "lon": -97.370785, "proficiency": 0.245, "schoolCount": 1}, {"name": "FARGO 1", "lat": 46.85958233333333, "lon": -96.80283566666667, "proficiency": 0.4767, "schoolCount": 3}, {"name": "FLASHER 39", "lat": 46.455672, "lon": -101.228523, "proficiency": 0.1, "schoolCount": 1}, {"name": "FT YATES 4", "lat": 46.093402, "lon": -100.678933, "proficiency": 0.1, "schoolCount": 1}, {"name": "GARRISON 51", "lat": 47.656857, "lon": -101.417553, "proficiency": 0.3, "schoolCount": 1}, {"name": "GLEN ULLIN 48", "lat": 46.81061, "lon": -101.825214, "proficiency": 0.75, "schoolCount": 1}, {"name": "GLENBURN 26", "lat": 48.515855, "lon": -101.223427, "proficiency": 0.495, "schoolCount": 1}, {"name": "GRAND FORKS 1", "lat": 47.9135455, "lon": -97.129817, "proficiency": 0.3762, "schoolCount": 4}, {"name": "GRENORA 99", "lat": 48.620659, "lon": -103.933261, "proficiency": 0.245, "schoolCount": 1}, {"name": "HANKINSON 8", "lat": 46.069177, "lon": -96.900133, "proficiency": 0.695, "schoolCount": 1}, {"name": "HARVEY 38", "lat": 47.775663, "lon": -99.92623, "proficiency": 0.3, "schoolCount": 1}, {"name": "HATTON EIELSON 7", "lat": 47.641499, "lon": -97.459967, "proficiency": 0.245, "schoolCount": 1}, {"name": "HAZELTON-MOFFIT-BRADDOCK 6", "lat": 46.485613, "lon": -100.28237, "proficiency": 0.3, "schoolCount": 1}, {"name": "HEBRON 13", "lat": 46.903936, "lon": -102.049593, "proficiency": 0.75, "schoolCount": 1}, {"name": "HETTINGER 13", "lat": 45.999433, "lon": -102.632908, "proficiency": 0.1, "schoolCount": 1}, {"name": "HILLSBORO 9", "lat": 47.40421, "lon": -97.054924, "proficiency": 0.345, "schoolCount": 1}, {"name": "KENMARE 28", "lat": 48.677678, "lon": -102.083365, "proficiency": 0.345, "schoolCount": 1}, {"name": "KILLDEER 16", "lat": 47.372673, "lon": -102.756261, "proficiency": 0.345, "schoolCount": 1}, {"name": "KULM 7", "lat": 46.298298, "lon": -98.946996, "proficiency": 0.245, "schoolCount": 1}, {"name": "LAKOTA 66", "lat": 48.044963, "lon": -98.343347, "proficiency": 0.245, "schoolCount": 1}, {"name": "LAMOURE 8", "lat": 46.352346, "lon": -98.291892, "proficiency": 0.495, "schoolCount": 1}, {"name": "LANGDON AREA 23", "lat": 48.768054, "lon": -98.375297, "proficiency": 0.3, "schoolCount": 1}, {"name": "LARIMORE 44", "lat": 47.90625, "lon": -97.626412, "proficiency": 0.3, "schoolCount": 1}, {"name": "LEEDS 6", "lat": 48.288217, "lon": -99.434173, "proficiency": 0.245, "schoolCount": 1}, {"name": "LIDGERWOOD 28", "lat": 46.074419, "lon": -97.14801, "proficiency": 0.245, "schoolCount": 1}, {"name": "LISBON 19", "lat": 46.441091, "lon": -97.685949, "proficiency": 0.445, "schoolCount": 1}, {"name": "MADDOCK 9", "lat": 47.964868, "lon": -99.521426, "proficiency": 0.245, "schoolCount": 1}, {"name": "MANDAN 1", "lat": 46.851975, "lon": -100.907441, "proficiency": 0.37, "schoolCount": 1}, {"name": "MANDAREE 36", "lat": 47.735886, "lon": -102.676021, "proficiency": 0.245, "schoolCount": 1}, {"name": "MANVEL 125", "lat": 48.072391, "lon": -97.176304, "proficiency": 0.75, "schoolCount": 1}, {"name": "MAPLE VALLEY 4", "lat": 46.921089, "lon": -97.674975, "proficiency": 0.75, "schoolCount": 1}, {"name": "MAX 50", "lat": 47.82747, "lon": -101.295561, "proficiency": 0.75, "schoolCount": 1}, {"name": "MCCLUSKY 19", "lat": 47.482435, "lon": -100.445321, "proficiency": 0.245, "schoolCount": 1}, {"name": "MCKENZIE CO 1", "lat": 47.801807, "lon": -103.279399, "proficiency": 0.37, "schoolCount": 1}, {"name": "MEDINA 3", "lat": 46.891456, "lon": -99.296873, "proficiency": 0.495, "schoolCount": 1}, {"name": "MIDWAY 128", "lat": 48.152298, "lon": -97.515712, "proficiency": 0.495, "schoolCount": 1}, {"name": "MILNOR 2", "lat": 46.260904, "lon": -97.455377, "proficiency": 0.75, "schoolCount": 1}, {"name": "MINNEWAUKAN 5", "lat": 48.087171, "lon": -99.28304, "proficiency": 0.1, "schoolCount": 1}, {"name": "MINOT 1", "lat": 48.309969333333335, "lon": -101.30912333333333, "proficiency": 0.495, "schoolCount": 3}, {"name": "MINTO 20", "lat": 48.294267, "lon": -97.375146, "proficiency": 0.3, "schoolCount": 1}, {"name": "WILTON 1", "lat": 47.158304, "lon": -100.79001, "proficiency": 0.1, "schoolCount": 1}, {"name": "MONTPELIER 14", "lat": 46.697122, "lon": -98.58734, "proficiency": 0.75, "schoolCount": 1}, {"name": "MT PLEASANT 4", "lat": 48.862921, "lon": -99.611679, "proficiency": 0.75, "schoolCount": 1}, {"name": "NAPOLEON 2", "lat": 46.506942, "lon": -99.765602, "proficiency": 0.3, "schoolCount": 1}, {"name": "NEDROSE 4", "lat": 48.227239, "lon": -101.194138, "proficiency": 0.345, "schoolCount": 1}, {"name": "NESSON 2", "lat": 48.344671, "lon": -103.169312, "proficiency": 0.3, "schoolCount": 1}, {"name": "NEW TOWN 1", "lat": 47.981815, "lon": -102.48798, "proficiency": 0.05, "schoolCount": 1}, {"name": "NORTH SARGENT 3", "lat": 46.224766, "lon": -97.664653, "proficiency": 0.245, "schoolCount": 1}, {"name": "NORTHWOOD 129", "lat": 47.735008, "lon": -97.578149, "proficiency": 0.495, "schoolCount": 1}, {"name": "OAKES 41", "lat": 46.138455, "lon": -98.089041, "proficiency": 0.445, "schoolCount": 1}, {"name": "PARSHALL 3", "lat": 47.962686, "lon": -102.134614, "proficiency": 0.1, "schoolCount": 1}, {"name": "PINGREE-BUCHANAN 10", "lat": 47.166922, "lon": -98.911975, "proficiency": 0.245, "schoolCount": 1}, {"name": "ROLETTE 29", "lat": 48.662401, "lon": -99.838689, "proficiency": 0.245, "schoolCount": 1}, {"name": "RUGBY 5", "lat": 48.359121, "lon": -99.994406, "proficiency": 0.445, "schoolCount": 1}, {"name": "SARGENT CENTRAL 6", "lat": 46.103803, "lon": -97.640376, "proficiency": 0.245, "schoolCount": 1}, {"name": "SOLEN 3", "lat": 46.388472, "lon": -100.791662, "proficiency": 0.245, "schoolCount": 1}, {"name": "VELVA 1", "lat": 48.058472, "lon": -100.93542, "proficiency": 0.545, "schoolCount": 1}, {"name": "SOUTH HEART 9", "lat": 46.866892, "lon": -102.991281, "proficiency": 0.1, "schoolCount": 1}, {"name": "SOUTH PRAIRIE 70", "lat": 48.053181, "lon": -101.297903, "proficiency": 0.345, "schoolCount": 1}, {"name": "ST JOHN 3", "lat": 48.94036, "lon": -99.710292, "proficiency": 0.1, "schoolCount": 1}, {"name": "STANLEY 2", "lat": 48.309694, "lon": -102.391973, "proficiency": 0.245, "schoolCount": 1}, {"name": "SURREY 41", "lat": 48.237158, "lon": -101.130343, "proficiency": 0.495, "schoolCount": 1}, {"name": "THOMPSON 61", "lat": 47.775185, "lon": -97.105851, "proficiency": 0.445, "schoolCount": 1}, {"name": "TURTLE LAKE-MERCER 72", "lat": 47.520573, "lon": -100.895397, "proficiency": 0.3, "schoolCount": 1}, {"name": "TWIN BUTTES 37", "lat": 47.517551, "lon": -102.247442, "proficiency": 0.245, "schoolCount": 1}, {"name": "UNDERWOOD 8", "lat": 47.456701, "lon": -101.143081, "proficiency": 0.1, "schoolCount": 1}, {"name": "UNITED 7", "lat": 48.255231, "lon": -101.561104, "proficiency": 0.445, "schoolCount": 1}, {"name": "VALLEY CITY 2", "lat": 46.927348, "lon": -98.003964, "proficiency": 0.52, "schoolCount": 1}, {"name": "WAHPETON 37", "lat": 46.27651, "lon": -96.618955, "proficiency": 0.57, "schoolCount": 1}, {"name": "WARWICK 29", "lat": 47.857662, "lon": -98.710555, "proficiency": 0.1, "schoolCount": 1}, {"name": "WASHBURN 4", "lat": 47.292416, "lon": -101.02679, "proficiency": 0.3, "schoolCount": 1}, {"name": "WEST FARGO 6", "lat": 46.817419, "lon": -96.88849933333334, "proficiency": 0.4, "schoolCount": 3}, {"name": "WESTHOPE 17", "lat": 48.912396, "lon": -101.021572, "proficiency": 0.245, "schoolCount": 1}, {"name": "WHITE SHIELD 85", "lat": 47.670763, "lon": -101.842374, "proficiency": 0.245, "schoolCount": 1}, {"name": "WISHEK 19", "lat": 46.256449, "lon": -99.549879, "proficiency": 0.75, "schoolCount": 1}, {"name": "WYNDMERE 42", "lat": 46.263271, "lon": -97.127622, "proficiency": 0.75, "schoolCount": 1}, {"name": "YELLOWSTONE 14", "lat": 47.85589, "lon": -104.038071, "proficiency": 0.75, "schoolCount": 1}], "cities": [{"name": "Bismarck", "lat": 46.822272999999996, "lon": -100.78160333333334, "proficiency": 0.3533, "schoolCount": 3}, {"name": "Strasburg", "lat": 46.135158, "lon": -100.165639, "proficiency": 0.75, "schoolCount": 1}, {"name": "Linton", "lat": 46.267062, "lon": -100.227194, "proficiency": 0.75, "schoolCount": 1}, {"name": "Cavalier", "lat": 48.794704, "lon": -97.61854, "proficiency": 0.545, "schoolCount": 1}, {"name": "Jamestown", "lat": 46.907119, "lon": -98.706114, "proficiency": 0.47, "schoolCount": 1}, {"name": "Scranton", "lat": 46.153298, "lon": -103.142582, "proficiency": 0.245, "schoolCount": 1}, {"name": "Powers Lake", "lat": 48.560178, "lon": -102.637614, "proficiency": 0.245, "schoolCount": 1}, {"name": "Kindred", "lat": 46.652721, "lon": -97.012545, "proficiency": 0.545, "schoolCount": 1}, {"name": "New England", "lat": 46.543817, "lon": -102.868016, "proficiency": 0.245, "schoolCount": 1}, {"name": "Drake", "lat": 47.926086, "lon": -100.372942, "proficiency": 0.245, "schoolCount": 1}, {"name": "Hazen", "lat": 47.300217, "lon": -101.620305, "proficiency": 0.345, "schoolCount": 1}, {"name": "Beulah", "lat": 47.280142, "lon": -101.779698, "proficiency": 0.245, "schoolCount": 1}, {"name": "Colfax", "lat": 46.47131, "lon": -96.874375, "proficiency": 0.3, "schoolCount": 1}, {"name": "Dickinson", "lat": 46.904162, "lon": -102.82772, "proficiency": 0.32, "schoolCount": 1}, {"name": "Tioga", "lat": 48.400443, "lon": -102.949402, "proficiency": 0.345, "schoolCount": 1}, {"name": "Petersburg", "lat": 48.010296, "lon": -98.003783, "proficiency": 0.3, "schoolCount": 1}, {"name": "Mayville", "lat": 47.499523, "lon": -97.34982, "proficiency": 0.345, "schoolCount": 1}, {"name": "Glenfield", "lat": 47.456523, "lon": -98.568436, "proficiency": 0.3, "schoolCount": 1}, {"name": "Hunter", "lat": 47.153693, "lon": -97.109165, "proficiency": 0.445, "schoolCount": 1}, {"name": "Elgin", "lat": 46.403591, "lon": -101.8489, "proficiency": 0.245, "schoolCount": 1}, {"name": "Mott", "lat": 46.372185, "lon": -102.318612, "proficiency": 0.3, "schoolCount": 1}, {"name": "Granville", "lat": 48.263359, "lon": -100.844249, "proficiency": 0.245, "schoolCount": 1}, {"name": "Towner", "lat": 48.344255, "lon": -100.401312, "proficiency": 0.245, "schoolCount": 1}, {"name": "Richardton", "lat": 46.885891, "lon": -102.308283, "proficiency": 0.3, "schoolCount": 1}, {"name": "Fessenden", "lat": 47.652028, "lon": -99.627076, "proficiency": 0.245, "schoolCount": 1}, {"name": "Mohall", "lat": 48.766985, "lon": -101.511238, "proficiency": 0.495, "schoolCount": 1}, {"name": "Center", "lat": 47.118761, "lon": -101.297252, "proficiency": 0.495, "schoolCount": 1}, {"name": "Carrington", "lat": 47.448543, "lon": -99.115222, "proficiency": 0.645, "schoolCount": 1}, {"name": "Pembina", "lat": 48.967561, "lon": -97.248721, "proficiency": 0.75, "schoolCount": 1}, {"name": "Walhalla", "lat": 48.924215, "lon": -97.918244, "proficiency": 0.75, "schoolCount": 1}, {"name": "Marion", "lat": 46.60447, "lon": -98.330973, "proficiency": 0.245, "schoolCount": 1}, {"name": "Berthold", "lat": 48.317194, "lon": -101.732107, "proficiency": 0.495, "schoolCount": 1}, {"name": "Plaza", "lat": 48.020669, "lon": -101.958849, "proficiency": 0.75, "schoolCount": 1}, {"name": "New Rockford", "lat": 47.680701, "lon": -99.132009, "proficiency": 0.3, "schoolCount": 1}, {"name": "Wimbledon", "lat": 47.097517, "lon": -98.360598, "proficiency": 0.495, "schoolCount": 1}, {"name": "Enderlin", "lat": 46.621569, "lon": -97.603, "proficiency": 0.3, "schoolCount": 1}, {"name": "Steele", "lat": 46.850154, "lon": -99.915274, "proficiency": 0.3, "schoolCount": 1}, {"name": "Cando", "lat": 48.489913, "lon": -99.208795, "proficiency": 0.695, "schoolCount": 1}, {"name": "New Salem", "lat": 46.845255, "lon": -101.410875, "proficiency": 0.445, "schoolCount": 1}, {"name": "Crystal", "lat": 48.594846, "lon": -97.674026, "proficiency": 0.245, "schoolCount": 1}, {"name": "Park River", "lat": 48.393283, "lon": -97.75119, "proficiency": 0.495, "schoolCount": 1}, {"name": "Hope", "lat": 47.318864, "lon": -97.714736, "proficiency": 0.245, "schoolCount": 1}, {"name": "Alexander", "lat": 47.842463, "lon": -103.638291, "proficiency": 0.1, "schoolCount": 1}, {"name": "Ashley", "lat": 46.03366, "lon": -99.380756, "proficiency": 0.245, "schoolCount": 1}, {"name": "Beach", "lat": 46.92243, "lon": -104.005522, "proficiency": 0.245, "schoolCount": 1}, {"name": "Belcourt", "lat": 48.84489, "lon": -99.739551, "proficiency": 0.17, "schoolCount": 1}, {"name": "Bottineau", "lat": 48.829412, "lon": -100.442655, "proficiency": 0.345, "schoolCount": 1}, {"name": "Bowbells", "lat": 48.80587, "lon": -102.247188, "proficiency": 0.75, "schoolCount": 1}, {"name": "Bowman", "lat": 46.181133, "lon": -103.407637, "proficiency": 0.245, "schoolCount": 1}, {"name": "Lignite", "lat": 48.875032, "lon": -102.564759, "proficiency": 0.245, "schoolCount": 1}, {"name": "Casselton", "lat": 46.905918, "lon": -97.208646, "proficiency": 0.32, "schoolCount": 1}, {"name": "Buxton", "lat": 47.635976, "lon": -97.067768, "proficiency": 0.495, "schoolCount": 1}, {"name": "Cooperstown", "lat": 47.44824, "lon": -98.117959, "proficiency": 0.3, "schoolCount": 1}, {"name": "Devils Lake", "lat": 48.115044, "lon": -98.860415, "proficiency": 0.22, "schoolCount": 1}, {"name": "Crosby", "lat": 48.907601, "lon": -103.288721, "proficiency": 0.1, "schoolCount": 1}, {"name": "Drayton", "lat": 48.561108, "lon": -97.184248, "proficiency": 0.75, "schoolCount": 1}, {"name": "Dunseith", "lat": 48.809583, "lon": -100.065332, "proficiency": 0.05, "schoolCount": 1}, {"name": "Edgeley", "lat": 46.358893, "lon": -98.717662, "proficiency": 0.1, "schoolCount": 1}, {"name": "Trenton", "lat": 48.072197, "lon": -103.834152, "proficiency": 0.1, "schoolCount": 1}, {"name": "Ellendale", "lat": 46.003004, "lon": -98.522838, "proficiency": 0.75, "schoolCount": 1}, {"name": "Belfield", "lat": 46.88824, "lon": -103.195466, "proficiency": 0.3, "schoolCount": 1}, {"name": "Emerado", "lat": 47.914402, "lon": -97.370785, "proficiency": 0.245, "schoolCount": 1}, {"name": "Fargo", "lat": 46.85958233333333, "lon": -96.80283566666667, "proficiency": 0.4767, "schoolCount": 3}, {"name": "Flasher", "lat": 46.455672, "lon": -101.228523, "proficiency": 0.1, "schoolCount": 1}, {"name": "Fort Yates", "lat": 46.093402, "lon": -100.678933, "proficiency": 0.1, "schoolCount": 1}, {"name": "Garrison", "lat": 47.656857, "lon": -101.417553, "proficiency": 0.3, "schoolCount": 1}, {"name": "Glen Ullin", "lat": 46.81061, "lon": -101.825214, "proficiency": 0.75, "schoolCount": 1}, {"name": "Glenburn", "lat": 48.515855, "lon": -101.223427, "proficiency": 0.495, "schoolCount": 1}, {"name": "Grand Forks", "lat": 47.89638233333333, "lon": -97.050502, "proficiency": 0.3367, "schoolCount": 3}, {"name": "Grand Forks AFB", "lat": 47.965035, "lon": -97.367762, "proficiency": 0.495, "schoolCount": 1}, {"name": "Grenora", "lat": 48.620659, "lon": -103.933261, "proficiency": 0.245, "schoolCount": 1}, {"name": "Hankinson", "lat": 46.069177, "lon": -96.900133, "proficiency": 0.695, "schoolCount": 1}, {"name": "Harvey", "lat": 47.775663, "lon": -99.92623, "proficiency": 0.3, "schoolCount": 1}, {"name": "Hatton", "lat": 47.641499, "lon": -97.459967, "proficiency": 0.245, "schoolCount": 1}, {"name": "Hazelton", "lat": 46.485613, "lon": -100.28237, "proficiency": 0.3, "schoolCount": 1}, {"name": "Hebron", "lat": 46.903936, "lon": -102.049593, "proficiency": 0.75, "schoolCount": 1}, {"name": "Hettinger", "lat": 45.999433, "lon": -102.632908, "proficiency": 0.1, "schoolCount": 1}, {"name": "Hillsboro", "lat": 47.40421, "lon": -97.054924, "proficiency": 0.345, "schoolCount": 1}, {"name": "Kenmare", "lat": 48.677678, "lon": -102.083365, "proficiency": 0.345, "schoolCount": 1}, {"name": "Killdeer", "lat": 47.372673, "lon": -102.756261, "proficiency": 0.345, "schoolCount": 1}, {"name": "Kulm", "lat": 46.298298, "lon": -98.946996, "proficiency": 0.245, "schoolCount": 1}, {"name": "Lakota", "lat": 48.044963, "lon": -98.343347, "proficiency": 0.245, "schoolCount": 1}, {"name": "LaMoure", "lat": 46.352346, "lon": -98.291892, "proficiency": 0.495, "schoolCount": 1}, {"name": "Langdon", "lat": 48.768054, "lon": -98.375297, "proficiency": 0.3, "schoolCount": 1}, {"name": "Larimore", "lat": 47.90625, "lon": -97.626412, "proficiency": 0.3, "schoolCount": 1}, {"name": "Leeds", "lat": 48.288217, "lon": -99.434173, "proficiency": 0.245, "schoolCount": 1}, {"name": "Lidgerwood", "lat": 46.074419, "lon": -97.14801, "proficiency": 0.245, "schoolCount": 1}, {"name": "Lisbon", "lat": 46.441091, "lon": -97.685949, "proficiency": 0.445, "schoolCount": 1}, {"name": "Maddock", "lat": 47.964868, "lon": -99.521426, "proficiency": 0.245, "schoolCount": 1}, {"name": "Mandan", "lat": 46.851975, "lon": -100.907441, "proficiency": 0.37, "schoolCount": 1}, {"name": "Mandaree", "lat": 47.735886, "lon": -102.676021, "proficiency": 0.245, "schoolCount": 1}, {"name": "Manvel", "lat": 48.072391, "lon": -97.176304, "proficiency": 0.75, "schoolCount": 1}, {"name": "Tower City", "lat": 46.921089, "lon": -97.674975, "proficiency": 0.75, "schoolCount": 1}, {"name": "Max", "lat": 47.82747, "lon": -101.295561, "proficiency": 0.75, "schoolCount": 1}, {"name": "McClusky", "lat": 47.482435, "lon": -100.445321, "proficiency": 0.245, "schoolCount": 1}, {"name": "Watford City", "lat": 47.801807, "lon": -103.279399, "proficiency": 0.37, "schoolCount": 1}, {"name": "Medina", "lat": 46.891456, "lon": -99.296873, "proficiency": 0.495, "schoolCount": 1}, {"name": "Inkster", "lat": 48.152298, "lon": -97.515712, "proficiency": 0.495, "schoolCount": 1}, {"name": "Milnor", "lat": 46.260904, "lon": -97.455377, "proficiency": 0.75, "schoolCount": 1}, {"name": "Minnewaukan", "lat": 48.087171, "lon": -99.28304, "proficiency": 0.1, "schoolCount": 1}, {"name": "Minot", "lat": 48.1954285, "lon": -101.27615175, "proficiency": 0.4075, "schoolCount": 4}, {"name": "Minot AFB", "lat": 48.428614, "lon": -101.314804, "proficiency": 0.545, "schoolCount": 1}, {"name": "Minto", "lat": 48.294267, "lon": -97.375146, "proficiency": 0.3, "schoolCount": 1}, {"name": "Wilton", "lat": 47.158304, "lon": -100.79001, "proficiency": 0.1, "schoolCount": 1}, {"name": "Montpelier", "lat": 46.697122, "lon": -98.58734, "proficiency": 0.75, "schoolCount": 1}, {"name": "Rolla", "lat": 48.862921, "lon": -99.611679, "proficiency": 0.75, "schoolCount": 1}, {"name": "Napoleon", "lat": 46.506942, "lon": -99.765602, "proficiency": 0.3, "schoolCount": 1}, {"name": "Ray", "lat": 48.344671, "lon": -103.169312, "proficiency": 0.3, "schoolCount": 1}, {"name": "New Town", "lat": 47.981815, "lon": -102.48798, "proficiency": 0.05, "schoolCount": 1}, {"name": "Gwinner", "lat": 46.224766, "lon": -97.664653, "proficiency": 0.245, "schoolCount": 1}, {"name": "Northwood", "lat": 47.735008, "lon": -97.578149, "proficiency": 0.495, "schoolCount": 1}, {"name": "Oakes", "lat": 46.138455, "lon": -98.089041, "proficiency": 0.445, "schoolCount": 1}, {"name": "Parshall", "lat": 47.962686, "lon": -102.134614, "proficiency": 0.1, "schoolCount": 1}, {"name": "Pingree", "lat": 47.166922, "lon": -98.911975, "proficiency": 0.245, "schoolCount": 1}, {"name": "Rolette", "lat": 48.662401, "lon": -99.838689, "proficiency": 0.245, "schoolCount": 1}, {"name": "Rugby", "lat": 48.359121, "lon": -99.994406, "proficiency": 0.445, "schoolCount": 1}, {"name": "Forman", "lat": 46.103803, "lon": -97.640376, "proficiency": 0.245, "schoolCount": 1}, {"name": "Solen", "lat": 46.388472, "lon": -100.791662, "proficiency": 0.245, "schoolCount": 1}, {"name": "Velva", "lat": 48.058472, "lon": -100.93542, "proficiency": 0.545, "schoolCount": 1}, {"name": "South Heart", "lat": 46.866892, "lon": -102.991281, "proficiency": 0.1, "schoolCount": 1}, {"name": "Saint John", "lat": 48.94036, "lon": -99.710292, "proficiency": 0.1, "schoolCount": 1}, {"name": "Stanley", "lat": 48.309694, "lon": -102.391973, "proficiency": 0.245, "schoolCount": 1}, {"name": "Surrey", "lat": 48.237158, "lon": -101.130343, "proficiency": 0.495, "schoolCount": 1}, {"name": "Thompson", "lat": 47.775185, "lon": -97.105851, "proficiency": 0.445, "schoolCount": 1}, {"name": "Turtle Lake", "lat": 47.520573, "lon": -100.895397, "proficiency": 0.3, "schoolCount": 1}, {"name": "Halliday", "lat": 47.517551, "lon": -102.247442, "proficiency": 0.245, "schoolCount": 1}, {"name": "Underwood", "lat": 47.456701, "lon": -101.143081, "proficiency": 0.1, "schoolCount": 1}, {"name": "Des Lacs", "lat": 48.255231, "lon": -101.561104, "proficiency": 0.445, "schoolCount": 1}, {"name": "Valley City", "lat": 46.927348, "lon": -98.003964, "proficiency": 0.52, "schoolCount": 1}, {"name": "Wahpeton", "lat": 46.27651, "lon": -96.618955, "proficiency": 0.57, "schoolCount": 1}, {"name": "Warwick", "lat": 47.857662, "lon": -98.710555, "proficiency": 0.1, "schoolCount": 1}, {"name": "Washburn", "lat": 47.292416, "lon": -101.02679, "proficiency": 0.3, "schoolCount": 1}, {"name": "West Fargo", "lat": 46.8392965, "lon": -96.88514599999999, "proficiency": 0.365, "schoolCount": 2}, {"name": "Horace", "lat": 46.773664, "lon": -96.895206, "proficiency": 0.47, "schoolCount": 1}, {"name": "Westhope", "lat": 48.912396, "lon": -101.021572, "proficiency": 0.245, "schoolCount": 1}, {"name": "Roseglen", "lat": 47.670763, "lon": -101.842374, "proficiency": 0.245, "schoolCount": 1}, {"name": "Wishek", "lat": 46.256449, "lon": -99.549879, "proficiency": 0.75, "schoolCount": 1}, {"name": "Wyndmere", "lat": 46.263271, "lon": -97.127622, "proficiency": 0.75, "schoolCount": 1}, {"name": "Fairview", "lat": 47.85589, "lon": -104.038071, "proficiency": 0.75, "schoolCount": 1}]}