{"state": "NE", "stateName": "Nebraska", "year": 2020, "naep": {"text": "7 out of 10", "numerator": 7, "denominator": 10}, "schools": [{"name": "DAVID CITY SECONDARY SCHOOL", "lat": 41.253149, "lon": -97.12495, "proficiency": 0.645, "district": "DAVID CITY PUBLIC SCHOOLS", "city": "DAVID CITY", "ncessch": "310000200192"}, {"name": "HIGH SCHOOL AT BRAINARD", "lat": 41.181737, "lon": -97.001969, "proficiency": 0.3, "district": "EAST BUTLER PUBLIC SCHOOLS", "city": "BRAINARD", "ncessch": "310000300918"}, {"name": "LAUREL-CONCORD-COLERIDGE MIDDLE SCHOOL", "lat": 42.504198, "lon": -97.204004, "proficiency": 0.245, "district": "LAUREL-CONCORD-COLERIDGE SCHOOL", "city": "COLERIDGE", "ncessch": "310000402195"}, {"name": "WEST POINT - BEEMER MIDDLE SCHOOL", "lat": 41.840079, "lon": -96.694243, "proficiency": 0.545, "district": "WEST POINT PUBLIC SCHOOLS", "city": "WEST POINT", "ncessch": "310000602249"}, {"name": "WISNER-PILGER HIGH SCHOOL", "lat": 41.995414, "lon": -96.924422, "proficiency": 0.245, "district": "WISNER-PILGER PUBLIC SCHOOLS", "city": "WISNER", "ncessch": "310000801734"}, {"name": "ANSELMO-MERNA HIGH SCHOOL", "lat": 41.48587, "lon": -99.767612, "proficiency": 0.245, "district": "ANSELMO-MERNA PUBLIC SCHOOLS", "city": "MERNA", "ncessch": "310001000022"}, {"name": "BROKEN BOW MIDDLE SCHOOL", "lat": 41.408052, "lon": -99.639939, "proficiency": 0.445, "district": "BROKEN BOW PUBLIC SCHOOLS", "city": "BROKEN BOW", "ncessch": "310001101882"}, {"name": "CALLAWAY HIGH SCHOOL", "lat": 41.291574, "lon": -99.919079, "proficiency": 0.3, "district": "CALLAWAY PUBLIC SCHOOLS", "city": "CALLAWAY", "ncessch": "310001200120"}, {"name": "CAMBRIDGE MIDDLE SCHOOL", "lat": 40.283374, "lon": -100.173819, "proficiency": 0.495, "district": "CAMBRIDGE PUBLIC SCHOOLS", "city": "CAMBRIDGE", "ncessch": "310001502316"}, {"name": "BARR MIDDLE SCHOOL", "lat": 40.9035, "lon": -98.34467, "proficiency": 0.32, "district": "GRAND ISLAND PUBLIC SCHOOLS", "city": "GRAND ISLAND", "ncessch": "310001601014"}, {"name": "WALNUT MIDDLE SCHOOL", "lat": 40.935215, "lon": -98.369996, "proficiency": 0.27, "district": "GRAND ISLAND PUBLIC SCHOOLS", "city": "GRAND ISLAND", "ncessch": "310001601027"}, {"name": "WESTRIDGE MIDDLE SCHOOL", "lat": 40.930197, "lon": -98.40455, "proficiency": 0.62, "district": "GRAND ISLAND PUBLIC SCHOOLS", "city": "GRAND ISLAND", "ncessch": "310001601864"}, {"name": "WAUNETA PALISADE MIDDLE SCHOOL", "lat": 40.41889, "lon": -101.374553, "proficiency": 0.3, "district": "WAUNETA-PALISADE PUBLIC SCHS", "city": "WAUNETA", "ncessch": "310001800075"}, {"name": "WAVERLY MIDDLE SCHOOL", "lat": 40.903514, "lon": -96.532616, "proficiency": 0.57, "district": "WAVERLY SCHOOL DISTRICT 145", "city": "WAVERLY", "ncessch": "310002101853"}, {"name": "ADAMS MIDDLE SCHOOL", "lat": 41.123287, "lon": -100.780717, "proficiency": 0.42, "district": "NORTH PLATTE PUBLIC SCHOOLS", "city": "NORTH PLATTE", "ncessch": "310002201321"}, {"name": "MAXWELL HIGH SCHOOL", "lat": 41.077958, "lon": -100.519063, "proficiency": 0.3, "district": "MAXWELL PUBLIC SCHOOLS", "city": "MAXWELL", "ncessch": "310002301215"}, {"name": "SUTHERLAND ELEMENTARY SCHOOL", "lat": 41.159992, "lon": -101.125848, "proficiency": -0.03, "district": "SUTHERLAND PUBLIC SCHOOLS", "city": "SUTHERLAND", "ncessch": "310002401647"}, {"name": "SUTHERLAND HIGH SCHOOL", "lat": 41.159992, "lon": -101.125848, "proficiency": 0.1, "district": "SUTHERLAND PUBLIC SCHOOLS", "city": "SUTHERLAND", "ncessch": "310002401648"}, {"name": "ELKHORN VALLEY HIGH SCHOOL", "lat": 42.041615, "lon": -97.832167, "proficiency": 0.3, "district": "ELKHORN VALLEY SCHOOLS", "city": "TILDEN", "ncessch": "310002501665"}, {"name": "SUPERIOR MIDDLE SCHOOL", "lat": 40.023404, "lon": -98.078536, "proficiency": 0.1, "district": "SUPERIOR PUBLIC SCHOOLS", "city": "SUPERIOR", "ncessch": "310002902416"}, {"name": "ASHLAND-GREENWOOD MIDDLE SCHOOL", "lat": 41.045895, "lon": -96.374197, "proficiency": 0.37, "district": "ASHLAND-GREENWOOD PUBLIC SCHS", "city": "ASHLAND", "ncessch": "310003401927"}, {"name": "STANTON HIGH SCHOOL", "lat": 41.951879, "lon": -97.224495, "proficiency": 0.345, "district": "STANTON COMMUNITY SCHOOLS", "city": "STANTON", "ncessch": "310004101626"}, {"name": "WEST HASTINGS MS", "lat": 40.587548, "lon": -98.440119, "proficiency": -0.03, "district": "WEST HASTINGS SCHOOLS (DHHS)", "city": "HASTINGS", "ncessch": "310005101873"}, {"name": "FRANKLIN HIGH SCHOOL", "lat": 40.095679, "lon": -98.959219, "proficiency": 0.3, "district": "FRANKLIN PUBLIC SCHOOLS", "city": "FRANKLIN", "ncessch": "310006500971"}, {"name": "SILVER LAKE HIGH SCHOOL", "lat": 40.46825, "lon": -98.558172, "proficiency": 0.1, "district": "SILVER LAKE PUBLIC SCHOOLS", "city": "ROSELAND", "ncessch": "310006601883"}, {"name": "BANNER COUNTY MIDDLE SCHOOL", "lat": 41.558329, "lon": -103.745483, "proficiency": 0.245, "district": "BANNER COUNTY PUBLIC SCHOOLS", "city": "HARRISBURG", "ncessch": "310006702395"}, {"name": "AMHERST HIGH SCHOOL", "lat": 40.837842, "lon": -99.265154, "proficiency": 0.3, "district": "AMHERST PUBLIC SCHOOLS", "city": "AMHERST", "ncessch": "310007000019"}, {"name": "HIGH SCHOOL AT TEKAMAH", "lat": 41.778946, "lon": -96.221707, "proficiency": 0.345, "district": "TEKAMAH-HERMAN COMMUNITY SCHS", "city": "TEKAMAH", "ncessch": "310007101662"}, {"name": "LEYTON ELEMENTARY/JUNIOR HIGH SCHOOL", "lat": 41.321143, "lon": -102.968646, "proficiency": 0.245, "district": "LEYTON PUBLIC SCHOOLS", "city": "GURLEY", "ncessch": "310007201879"}, {"name": "ARNOLD HIGH SCHOOL", "lat": 41.42576, "lon": -100.191892, "proficiency": 0.245, "district": "ARNOLD PUBLIC SCHOOLS", "city": "ARNOLD", "ncessch": "310007300032"}, {"name": "SCRIBNER-SNYDER SECONDARY SCH", "lat": 41.669978, "lon": -96.664525, "proficiency": 0.245, "district": "SCRIBNER-SNYDER COMMUNITY SCHS", "city": "SCRIBNER", "ncessch": "310007601585"}, {"name": "DUNDY CO STRATTON HIGH SCHOOL", "lat": 40.052509, "lon": -101.538065, "proficiency": 0.1, "district": "DUNDY CO STRATTON PUBLIC SCHS", "city": "BENKELMAN", "ncessch": "310007701885"}, {"name": "ALMA HIGH SCHOOL", "lat": 40.102992, "lon": -99.361645, "proficiency": 0.3, "district": "ALMA PUBLIC SCHOOLS", "city": "ALMA", "ncessch": "310008000017"}, {"name": "STUART HIGH SCHOOL", "lat": 42.600031, "lon": -99.137933, "proficiency": 0.495, "district": "STUART PUBLIC SCHOOLS", "city": "STUART", "ncessch": "310008201640"}, {"name": "ST PAUL JR/SR HIGH SCHOOL", "lat": 41.212805, "lon": -98.466063, "proficiency": 0.345, "district": "ST PAUL PUBLIC SCHOOLS", "city": "ST PAUL", "ncessch": "310008502369"}, {"name": "NORRIS MIDDLE SCHOOL", "lat": 40.564774, "lon": -96.632474, "proficiency": 0.37, "district": "NORRIS SCHOOL DIST 160", "city": "FIRTH", "ncessch": "310008801317"}, {"name": "PALMER JUNIOR-SENIOR HIGH", "lat": 41.223016, "lon": -98.266139, "proficiency": 0.495, "district": "PALMER PUBLIC SCHOOLS", "city": "PALMER", "ncessch": "310008901468"}, {"name": "BAYARD SECONDARY SCHOOL", "lat": 41.758379, "lon": -103.318396, "proficiency": 0.15, "district": "BAYARD PUBLIC SCHOOLS", "city": "BAYARD", "ncessch": "310009000057"}, {"name": "FULLERTON HIGH SCHOOL", "lat": 41.362901, "lon": -97.97213, "proficiency": 0.3, "district": "FULLERTON PUBLIC SCHOOLS", "city": "FULLERTON", "ncessch": "310009100990"}, {"name": "CRETE MIDDLE SCHOOL", "lat": 40.628584, "lon": -96.943366, "proficiency": 0.57, "district": "CRETE PUBLIC SCHOOLS", "city": "CRETE", "ncessch": "310009501759"}, {"name": "FRIEND HIGH SCHOOLS", "lat": 40.650564, "lon": -97.288139, "proficiency": 0.75, "district": "FRIEND PUBLIC SCHOOLS", "city": "FRIEND", "ncessch": "310009600988"}, {"name": "MORRILL HIGH SCHOOL", "lat": 41.966086, "lon": -103.921696, "proficiency": 0.3, "district": "MORRILL PUBLIC SCHOOLS", "city": "MORRILL", "ncessch": "310009701274"}, {"name": "GERING JUNIOR HIGH SCHOOL", "lat": 41.826304, "lon": -103.657512, "proficiency": 0.32, "district": "GERING PUBLIC SCHOOLS", "city": "GERING", "ncessch": "310009801000"}, {"name": "CENTENNIAL JR-SR HIGH SCHOOL", "lat": 40.888958, "lon": -97.351518, "proficiency": 0.495, "district": "CENTENNIAL PUBLIC SCHOOLS", "city": "UTICA", "ncessch": "310009901671"}, {"name": "BRIDGEPORT HIGH SCHOOL", "lat": 41.667203, "lon": -103.093298, "proficiency": 0.495, "district": "BRIDGEPORT PUBLIC SCHOOLS", "city": "BRIDGEPORT", "ncessch": "310010500101"}, {"name": "SOUTHERN VALLEY JR/SR HIGH", "lat": 40.145342, "lon": -99.642407, "proficiency": 0.695, "district": "SOUTHERN VALLEY SCHOOLS", "city": "OXFORD", "ncessch": "310010901464"}, {"name": "SOUTH PLATTE HIGH SCHOOL", "lat": 41.066784, "lon": -102.069204, "proficiency": 0.3, "district": "SOUTH PLATTE PUBLIC SCHOOLS", "city": "BIG SPRINGS", "ncessch": "310011000348"}, {"name": "EUSTIS-FARNAM HIGH SCHOOL", "lat": 40.666871, "lon": -100.02676, "proficiency": 0.245, "district": "EUSTIS-FARNAM PUBLIC SCHOOLS", "city": "EUSTIS", "ncessch": "310011100470"}, {"name": "LAKEVIEW JUNIOR HIGH SCHOOL", "lat": 41.497723, "lon": -97.374634, "proficiency": 0.42, "district": "LAKEVIEW COMMUNITY SCHOOLS", "city": "COLUMBUS", "ncessch": "310011202219"}, {"name": "LOGAN VIEW JR/SR HIGH SCHOOL", "lat": 41.653083, "lon": -96.503838, "proficiency": 0.345, "district": "LOGAN VIEW PUBLIC SCHOOLS", "city": "HOOPER", "ncessch": "310011400547"}, {"name": "NORTH BEND CENTRAL HIGH SCHOOL", "lat": 41.469483, "lon": -96.786428, "proficiency": 0.645, "district": "NORTH BEND CENTRAL PUBLIC SCHS", "city": "NORTH BEND", "ncessch": "310011500572"}, {"name": "FREEMAN HIGH SCHOOL", "lat": 40.457628, "lon": -96.511981, "proficiency": 0.745, "district": "FREEMAN PUBLIC SCHOOLS", "city": "ADAMS", "ncessch": "310011600593"}, {"name": "HEARTLAND COMMUNITY HIGH SCH", "lat": 40.782792, "lon": -97.810443, "proficiency": 0.695, "district": "HEARTLAND COMMUNITY SCHOOLS", "city": "HENDERSON", "ncessch": "310011700602"}, {"name": "FILLMORE CENTRAL MIDDLE SCHOOL", "lat": 40.635711, "lon": -97.580021, "proficiency": 0.745, "district": "FILLMORE CENTRAL PUBLIC SCHS", "city": "FAIRMONT", "ncessch": "310011800734"}, {"name": "HITCHCOCK CO JR/SR HIGH SCHOOL", "lat": 40.175425, "lon": -101.016348, "proficiency": 0.495, "district": "HITCHCOCK CO SCH SYSTEM", "city": "TRENTON", "ncessch": "310012001562"}, {"name": "DONIPHAN-TRUMBULL SECONDARY", "lat": 40.772324, "lon": -98.372313, "proficiency": 0.545, "district": "DONIPHAN-TRUMBULL PUBLIC SCHS", "city": "DONIPHAN", "ncessch": "310012100750"}, {"name": "SANDY CREEK MIDDLE SCHOOL", "lat": 40.43312, "lon": -98.052788, "proficiency": 0.9, "district": "SOUTH CENTRAL NEBRASKA UNIFIED 5", "city": "FAIRFIELD", "ncessch": "310012202285"}, {"name": "LAWRENCE - NELSON MIDDLE SCHOOL", "lat": 40.196417, "lon": -98.073946, "proficiency": 0.495, "district": "SOUTH CENTRAL NEBRASKA UNIFIED 5", "city": "NELSON", "ncessch": "310012202321"}, {"name": "HIGH PLAINS COMMUNITY JR/SR HIGH SCHOOL", "lat": 41.073353, "lon": -97.781588, "proficiency": 0.695, "district": "HIGH PLAINS COMMUNITY SCHOOLS", "city": "POLK", "ncessch": "310012300815"}, {"name": "BRUNING-DAVENPORT MIDDLE SCH", "lat": 40.313404, "lon": -97.809943, "proficiency": 0.495, "district": "BRUNING-DAVENPORT UNIFIED SYS", "city": "DAVENPORT", "ncessch": "310012400865"}, {"name": "DILLER-ODELL SECONDARY SCHOOL", "lat": 40.052415, "lon": -96.802191, "proficiency": 0.3, "district": "DILLER-ODELL PUBLIC SCHOOLS", "city": "ODELL", "ncessch": "310012500744"}, {"name": "TWIN RIVER SR HIGH SCHOOL", "lat": 41.449173, "lon": -97.735708, "proficiency": 0.245, "district": "TWIN RIVER PUBLIC SCHOOLS", "city": "GENOA", "ncessch": "310012901076"}, {"name": "CROSS COUNTY MIDDLE SCHOOL", "lat": 41.078409, "lon": -97.603255, "proficiency": 0.545, "district": "CROSS COUNTY COMMUNITY SCHOOLS", "city": "STROMSBURG", "ncessch": "310013001180"}, {"name": "THAYER CENTRAL HIGH SCHOOL", "lat": 40.170862, "lon": -97.582591, "proficiency": 0.545, "district": "THAYER CENTRAL COMMUNITY SCHS", "city": "HEBRON", "ncessch": "310013201258"}, {"name": "EXETER-MILLIGAN HIGH SCHOOL", "lat": 40.642844, "lon": -97.445525, "proficiency": 0.75, "district": "EXETER-MILLIGAN PUBLIC SCHOOLS", "city": "EXETER", "ncessch": "310013301344"}, {"name": "WILCOX-HILDRETH JR/SR HIGH SCHOOL", "lat": 40.365333, "lon": -99.165349, "proficiency": 0.495, "district": "WILCOX-HILDRETH PUBLIC SCHOOLS", "city": "WILCOX", "ncessch": "310013401368"}, {"name": "CREEK VALLEY HIGH SCHOOL", "lat": 41.093601, "lon": -102.461997, "proficiency": 0.245, "district": "CREEK VALLEY SCHOOLS", "city": "CHAPPELL", "ncessch": "310014001419"}, {"name": "EMERSON-HUBBARD MIDDLE SCHOOL", "lat": 42.272568, "lon": -96.72424, "proficiency": 0.245, "district": "EMERSON-HUBBARD PUBLIC SCHOOLS", "city": "EMERSON", "ncessch": "310014102390"}, {"name": "PERKINS COUNTY JUNIOR- SENIOR HIGH SCHOOL", "lat": 40.846129, "lon": -101.730141, "proficiency": 0.345, "district": "PERKINS COUNTY SCHOOLS", "city": "GRANT", "ncessch": "310015701827"}, {"name": "CHASE COUNTY HIGH SCHOOL", "lat": 40.520729, "lon": -101.634291, "proficiency": 0.645, "district": "CHASE COUNTY SCHOOLS", "city": "IMPERIAL", "ncessch": "310016301772"}, {"name": "DOUGLAS CO WEST MIDDLE SCHOOL", "lat": 41.309305, "lon": -96.343112, "proficiency": 0.42, "district": "DOUGLAS CO WEST COMMUNITY SCHS", "city": "VALLEY", "ncessch": "310016501787"}, {"name": "GORDON-RUSHVILLE MIDDLE SCHOOL", "lat": 42.715598, "lon": -102.459965, "proficiency": 0.645, "district": "GORDON-RUSHVILLE PUBLIC SCHS", "city": "RUSHVILLE", "ncessch": "310017001850"}, {"name": "WEST HOLT HIGH SCHOOL", "lat": 42.540597, "lon": -98.978321, "proficiency": 0.695, "district": "WEST HOLT PUBLIC SCHOOLS", "city": "ATKINSON", "ncessch": "310017202008"}, {"name": "JOHNSON CO CENTRAL MIDDLE SCH", "lat": 40.513789, "lon": -96.161514, "proficiency": 0.445, "district": "JOHNSON CO CENTRAL PUBLIC SCHS", "city": "COOK", "ncessch": "310017602022"}, {"name": "SOUTHWEST JR/SR HIGH SCHOOL", "lat": 40.257527, "lon": -100.307572, "proficiency": 0.3, "district": "SOUTHWEST PUBLIC SCHOOLS", "city": "BARTLEY", "ncessch": "310017801758"}, {"name": "HTRS MIDDLE SCHOOL", "lat": 40.168403, "lon": -95.946783, "proficiency": 0.1, "district": "HUMBOLDT TABLE ROCK STEINAUER", "city": "HUMBOLDT", "ncessch": "310017902190"}, {"name": "HOWELLS SENIOR HIGH SCHOOL", "lat": 41.72414, "lon": -97.005846, "proficiency": 0.3, "district": "HOWELLS-DODGE CONSOLIDATED SCHOOLS", "city": "HOWELLS", "ncessch": "310018301090"}, {"name": "RIVERSIDE MIDDLE SCHOOL", "lat": 41.68855, "lon": -98.36001, "proficiency": 0.495, "district": "RIVERSIDE PUBLIC SCHOOLS", "city": "SPALDING", "ncessch": "310018402300"}, {"name": "CENTRAL VALLEY HIGH SCHOOL", "lat": 41.550882, "lon": -98.529926, "proficiency": 0.3, "district": "CENTRAL VALLEY PUBLIC SCHOOLS", "city": "GREELEY", "ncessch": "310018502310"}, {"name": "BOYD COUNTY MIDDLE SCHOOL (SPENCER)", "lat": 42.875616, "lon": -98.70061, "proficiency": 0.1, "district": "BOYD COUNTY SCHOOLS", "city": "SPENCER", "ncessch": "310018702355"}, {"name": "ELMWOOD-MURDOCK JR/SR HIGH SCH", "lat": 40.926254, "lon": -96.284292, "proficiency": 0.495, "district": "ELMWOOD-MURDOCK PUBLIC SCHOOLS", "city": "MURDOCK", "ncessch": "310199201992"}, {"name": "ADAMS CENTRAL JR-SR HIGH SCH", "lat": 40.569523, "lon": -98.460303, "proficiency": 0.42, "district": "ADAMS CENTRAL PUBLIC SCHOOLS", "city": "HASTINGS", "ncessch": "310277000003"}, {"name": "AINSWORTH MIDDLE SCHOOL", "lat": 42.547374, "lon": -99.856161, "proficiency": 0.695, "district": "AINSWORTH COMMUNITY SCHOOLS", "city": "AINSWORTH", "ncessch": "310279000202"}, {"name": "BOONE CENTRAL MIDDLE SCHOOL", "lat": 41.687848, "lon": -98.003457, "proficiency": 0.245, "district": "BOONE CENTRAL SCHOOLS", "city": "ALBION", "ncessch": "310282000701"}, {"name": "ALLEN HIGH SCHOOL", "lat": 42.412401, "lon": -96.843883, "proficiency": 0.3, "district": "ALLEN CONSOLIDATED SCHOOLS", "city": "ALLEN", "ncessch": "310288000010"}, {"name": "ALLIANCE MIDDLE SCHOOL", "lat": 42.106113, "lon": -102.8719, "proficiency": 0.22, "district": "ALLIANCE PUBLIC SCHOOLS", "city": "ALLIANCE", "ncessch": "310291000012"}, {"name": "ANSLEY HIGH SCHOOL", "lat": 41.291196, "lon": -99.378778, "proficiency": 0.245, "district": "ANSLEY PUBLIC SCHOOLS", "city": "ANSLEY", "ncessch": "310306000024"}, {"name": "ARAPAHOE HIGH SCHOOL", "lat": 40.309266, "lon": -99.896414, "proficiency": 0.3, "district": "ARAPAHOE PUBLIC SCHOOLS", "city": "ARAPAHOE", "ncessch": "310309000026"}, {"name": "ARCADIA HIGH SCHOOL", "lat": 41.425771, "lon": -99.1291, "proficiency": 0.245, "district": "ARCADIA PUBLIC SCHOOLS", "city": "ARCADIA", "ncessch": "310312000028"}, {"name": "ARLINGTON HIGH SCHOOL", "lat": 41.457578, "lon": -96.360093, "proficiency": 0.645, "district": "ARLINGTON PUBLIC SCHOOLS", "city": "ARLINGTON", "ncessch": "310313000030"}, {"name": "ARTHUR COUNTY HIGH SCHOOL", "lat": 41.568939, "lon": -101.689204, "proficiency": 0.245, "district": "ARTHUR COUNTY SCHOOLS", "city": "ARTHUR", "ncessch": "310321000033"}, {"name": "AUBURN MIDDLE SCHOOL", "lat": 40.391429, "lon": -95.850832, "proficiency": 0.445, "district": "AUBURN PUBLIC SCHOOLS", "city": "AUBURN", "ncessch": "310333000039"}, {"name": "AURORA MIDDLE SCHOOL", "lat": 40.866131, "lon": -98.014478, "proficiency": 0.42, "district": "AURORA PUBLIC SCHOOLS", "city": "AURORA", "ncessch": "310336000045"}, {"name": "AXTELL HIGH SCHOOL", "lat": 40.480878, "lon": -99.125723, "proficiency": 0.495, "district": "AXTELL COMMUNITY SCHOOLS", "city": "AXTELL", "ncessch": "310342000047"}, {"name": "BANCROFT-ROSALIE JR/SR HIGH SCHOOL", "lat": 42.009118, "lon": -96.572119, "proficiency": 0.3, "district": "BANCROFT-ROSALIE COMM SCHOOLS", "city": "BANCROFT", "ncessch": "310344000049"}, {"name": "BATTLE CREEK HIGH SCHOOL", "lat": 41.994793, "lon": -97.606189, "proficiency": 0.345, "district": "BATTLE CREEK PUBLIC SCHOOLS", "city": "BATTLE CREEK", "ncessch": "310354000055"}, {"name": "BEATRICE MIDDLE SCHOOL", "lat": 40.26786, "lon": -96.748608, "proficiency": 0.42, "district": "BEATRICE PUBLIC SCHOOLS", "city": "BEATRICE", "ncessch": "310360000061"}, {"name": "LOGAN FONTENELLE MIDDLE SCHOOL", "lat": 41.154353, "lon": -95.91387, "proficiency": 0.52, "district": "BELLEVUE PUBLIC SCHOOLS", "city": "BELLEVUE", "ncessch": "310381001511"}, {"name": "BELLEVUE MISSION MIDDLE SCHOOL", "lat": 41.137185, "lon": -95.897402, "proficiency": 0.37, "district": "BELLEVUE PUBLIC SCHOOLS", "city": "BELLEVUE", "ncessch": "310381001512"}, {"name": "LEWIS & CLARK MIDDLE SCHOOL", "lat": 41.110117, "lon": -95.97254, "proficiency": 0.57, "district": "BELLEVUE PUBLIC SCHOOLS", "city": "BELLEVUE", "ncessch": "310381002001"}, {"name": "BENNINGTON MIDDLE SCHOOL", "lat": 41.363786, "lon": -96.176532, "proficiency": 0.72, "district": "BENNINGTON PUBLIC SCHOOLS", "city": "BENNINGTON", "ncessch": "310399002357"}, {"name": "BERTRAND HIGH SCHOOL", "lat": 40.522401, "lon": -99.63168, "proficiency": 0.495, "district": "BERTRAND PUBLIC SCHOOLS", "city": "BERTRAND", "ncessch": "310402000080"}, {"name": "GERALD OTTE BLAIR MIDDLE SCH", "lat": 41.546073, "lon": -96.120706, "proficiency": 0.57, "district": "BLAIR COMMUNITY SCHOOLS", "city": "BLAIR", "ncessch": "310410000516"}, {"name": "BLOOMFIELD JR-SR HIGH SCHOOL", "lat": 42.59491, "lon": -97.643085, "proficiency": 0.695, "district": "BLOOMFIELD COMMUNITY SCHOOLS", "city": "BLOOMFIELD", "ncessch": "310414000093"}, {"name": "BLUE HILL HIGH SCHOOL", "lat": 40.326765, "lon": -98.450186, "proficiency": 0.695, "district": "BLUE HILL COMMUNITY SCHOOLS", "city": "BLUE HILL", "ncessch": "310420000095"}, {"name": "BRADY HIGH SCHOOL", "lat": 41.024172, "lon": -100.364071, "proficiency": 0.3, "district": "BRADY PUBLIC SCHOOLS", "city": "BRADY", "ncessch": "310429000099"}, {"name": "BURWELL JR-SR HIGH SCHOOL", "lat": 41.778971, "lon": -99.12748, "proficiency": 0.695, "district": "BURWELL PUBLIC SCHOOLS", "city": "BURWELL", "ncessch": "310464000112"}, {"name": "CEDAR BLUFFS SECONDARY SCHOOL", "lat": 41.397438, "lon": -96.608447, "proficiency": 0.495, "district": "CEDAR BLUFFS PUBLIC SCHOOLS", "city": "CEDAR BLUFFS", "ncessch": "310487000126"}, {"name": "CENTRAL CITY MIDDLE SCHOOL", "lat": 41.10294, "lon": -97.999894, "proficiency": 0.545, "district": "CENTRAL CITY PUBLIC SCHOOLS", "city": "CENTRAL CITY", "ncessch": "310492000130"}, {"name": "SECONDARY SCH AT RAYMOND", "lat": 41.022805, "lon": -96.746884, "proficiency": 0.245, "district": "RAYMOND CENTRAL PUBLIC SCHOOLS", "city": "RAYMOND", "ncessch": "310495000137"}, {"name": "CHADRON MIDDLE SCHOOL", "lat": 42.824595, "lon": -102.995184, "proficiency": 0.77, "district": "CHADRON PUBLIC SCHOOLS", "city": "CHADRON", "ncessch": "310498000141"}, {"name": "CHAMBERS HIGH SCHOOL", "lat": 42.203379, "lon": -98.751062, "proficiency": 0.75, "district": "CHAMBERS PUBLIC SCHOOLS", "city": "CHAMBERS", "ncessch": "310501000143"}, {"name": "CLARKSON JR-SR HIGH SCHOOL", "lat": 41.719656, "lon": -97.123818, "proficiency": 0.3, "district": "CLARKSON PUBLIC SCHOOLS", "city": "CLARKSON", "ncessch": "310516000151"}, {"name": "CODY-KILGORE MIDDLE SCHOOL", "lat": 42.938003, "lon": -101.248669, "proficiency": 0.695, "district": "CODY-KILGORE PUBLIC SCHS", "city": "CODY", "ncessch": "310528002306"}, {"name": "COLUMBUS MIDDLE SCHOOL", "lat": 41.441981, "lon": -97.354719, "proficiency": 0.42, "district": "COLUMBUS PUBLIC SCHOOLS", "city": "COLUMBUS", "ncessch": "310534000165"}, {"name": "COZAD MIDDLE SCHOOL", "lat": 40.868926, "lon": -99.985437, "proficiency": 0.57, "district": "COZAD COMMUNITY SCHOOLS", "city": "COZAD", "ncessch": "310546000174"}, {"name": "CRAWFORD HIGH SCHOOL", "lat": 42.680476, "lon": -103.406617, "proficiency": 0.75, "district": "CRAWFORD PUBLIC SCHOOLS", "city": "CRAWFORD", "ncessch": "310552000178"}, {"name": "CREIGHTON COMMUNITY HIGH SCH", "lat": 42.456655, "lon": -97.905667, "proficiency": 0.695, "district": "CREIGHTON COMMUNITY PUBLIC SCHOOLS", "city": "CREIGHTON", "ncessch": "310555000179"}, {"name": "CROFTON HIGH SCHOOL", "lat": 42.736785, "lon": -97.50441, "proficiency": 0.75, "district": "CROFTON COMMUNITY SCHOOLS", "city": "CROFTON", "ncessch": "310563000184"}, {"name": "DESHLER HIGH SCHOOL", "lat": 40.134195, "lon": -97.723535, "proficiency": 0.495, "district": "DESHLER PUBLIC SCHOOLS", "city": "DESHLER", "ncessch": "310591000198"}, {"name": "TRI COUNTY JR-SR HIGH SCHOOL", "lat": 40.336844, "lon": -96.917549, "proficiency": 0.545, "district": "TRI COUNTY PUBLIC SCHOOLS", "city": "DEWITT", "ncessch": "310597000201"}, {"name": "HAYES CENTER SECONDARY SCHOOL", "lat": 40.511479, "lon": -101.017824, "proficiency": 0.245, "district": "HAYES CENTER PUBLIC SCHOOLS", "city": "HAYES CENTER", "ncessch": "310912000259"}, {"name": "UMO N HO N NATION MIDDLE SCH", "lat": 42.113326, "lon": -96.355144, "proficiency": 0.1, "district": "UMO N HO N NATION PUBLIC SCHS", "city": "MACY", "ncessch": "311956002194"}, {"name": "CENTURA SECONDARY SCHOOL", "lat": 41.06229, "lon": -98.617079, "proficiency": 0.545, "district": "CENTURA PUBLIC SCHOOLS", "city": "CAIRO", "ncessch": "316295000818"}, {"name": "DORCHESTER HIGH SCHOOL", "lat": 40.649346, "lon": -97.11959, "proficiency": 0.3, "district": "DORCHESTER PUBLIC SCHOOL", "city": "DORCHESTER", "ncessch": "316984000913"}, {"name": "ELBA SECONDARY SCHOOL", "lat": 41.283486, "lon": -98.566615, "proficiency": 0.245, "district": "ELBA PUBLIC SCHOOLS", "city": "ELBA", "ncessch": "317002000921"}, {"name": "ELGIN HIGH SCHOOL", "lat": 41.983585, "lon": -98.080395, "proficiency": 0.695, "district": "ELGIN PUBLIC SCHOOLS", "city": "ELGIN", "ncessch": "317005000923"}, {"name": "ELKHORN MIDDLE SCHOOL", "lat": 41.287237, "lon": -96.239991, "proficiency": 0.77, "district": "ELKHORN PUBLIC SCHOOLS", "city": "ELKHORN", "ncessch": "317011001800"}, {"name": "ELKHORN RIDGE MIDDLE SCHOOL", "lat": 41.251703, "lon": -96.193305, "proficiency": 0.87, "district": "ELKHORN PUBLIC SCHOOLS", "city": "OMAHA", "ncessch": "317011002182"}, {"name": "ELKHORN VALLEY VIEW MIDDLE SCHOOL", "lat": 41.246187, "lon": -96.241011, "proficiency": 0.87, "district": "ELKHORN PUBLIC SCHOOLS", "city": "ELKHORN", "ncessch": "317011002245"}, {"name": "ELKHORN GRANDVIEW MIDDLE SCHOOL", "lat": 41.301248, "lon": -96.194433, "proficiency": 0.77, "district": "ELKHORN PUBLIC SCHOOLS", "city": "OMAHA", "ncessch": "317011002305"}, {"name": "ELM CREEK HIGH SCHOOL", "lat": 40.720001, "lon": -99.370925, "proficiency": 0.495, "district": "ELM CREEK PUBLIC SCHOOLS", "city": "ELM CREEK", "ncessch": "317014000930"}, {"name": "ELWOOD HIGH SCHOOL", "lat": 40.588197, "lon": -99.864948, "proficiency": 0.245, "district": "ELWOOD PUBLIC SCHOOLS", "city": "ELWOOD", "ncessch": "317022000934"}, {"name": "FAIRBURY JR-SR HIGH SCHOOL", "lat": 40.141383, "lon": -97.165012, "proficiency": 0.245, "district": "FAIRBURY PUBLIC SCHOOLS", "city": "FAIRBURY", "ncessch": "317044000948"}, {"name": "FALLS CITY MIDDLE SCHOOL", "lat": 40.059634, "lon": -95.59975, "proficiency": 0.445, "district": "FALLS CITY PUBLIC SCHOOLS", "city": "FALLS CITY", "ncessch": "317053001804"}, {"name": "FORT CALHOUN JR-SR HIGH SCHOOL", "lat": 41.463706, "lon": -96.028384, "proficiency": 0.57, "district": "FORT CALHOUN COMMUNITY SCHS", "city": "FORT CALHOUN", "ncessch": "317065000969"}, {"name": "FREMONT MIDDLE SCHOOL", "lat": 41.433938, "lon": -96.450552, "proficiency": 0.37, "district": "FREMONT PUBLIC SCHOOLS", "city": "FREMONT", "ncessch": "317071000978"}, {"name": "GARDEN COUNTY JUNIOR/SENIOR HIGH SCHOOL", "lat": 41.404572, "lon": -102.350643, "proficiency": 0.245, "district": "GARDEN COUNTY SCHOOLS", "city": "OSHKOSH", "ncessch": "317080000991"}, {"name": "GIBBON HIGH SCHOOL", "lat": 40.738344, "lon": -98.848004, "proficiency": 0.245, "district": "GIBBON PUBLIC SCHOOLS", "city": "GIBBON", "ncessch": "317098001006"}, {"name": "GILTNER HIGH SCHOOL", "lat": 40.771259, "lon": -98.150925, "proficiency": 0.245, "district": "GILTNER PUBLIC SCHOOLS", "city": "GILTNER", "ncessch": "317101001008"}, {"name": "GOTHENBURG SECONDARY SCHOOL", "lat": 40.93207, "lon": -100.155311, "proficiency": 0.37, "district": "GOTHENBURG PUBLIC SCHOOLS", "city": "GOTHENBURG", "ncessch": "317110001012"}, {"name": "GRETNA MIDDLE SCHOOL", "lat": 41.134078, "lon": -96.251503, "proficiency": 0.67, "district": "GRETNA PUBLIC SCHOOLS", "city": "GRETNA", "ncessch": "317122000257"}, {"name": "ASPEN CREEK MIDDLE SCHOOL", "lat": 41.153832, "lon": -96.2041, "proficiency": 0.67, "district": "GRETNA PUBLIC SCHOOLS", "city": "GRETNA", "ncessch": "317122002362"}, {"name": "HAMPTON HIGH SCHOOL", "lat": 40.882529, "lon": -97.889237, "proficiency": 0.245, "district": "HAMPTON PUBLIC SCHOOL", "city": "HAMPTON", "ncessch": "317137001042"}, {"name": "HARTINGTON NEWCASTLE HIGH SCHOOL", "lat": 42.615304, "lon": -97.263939, "proficiency": 0.495, "district": "HARTINGTON NEWCASTLE PUBLIC SCHOOLS", "city": "HARTINGTON", "ncessch": "317152001047"}, {"name": "HARVARD MIDDLE SCHOOL", "lat": 40.622206, "lon": -98.090857, "proficiency": 0.245, "district": "HARVARD PUBLIC SCHOOLS", "city": "HARVARD", "ncessch": "317155002353"}, {"name": "HASTINGS MIDDLE SCHOOL", "lat": 40.585901, "lon": -98.42218, "proficiency": 0.47, "district": "HASTINGS PUBLIC SCHOOLS", "city": "HASTINGS", "ncessch": "317158001053"}, {"name": "HAY SPRINGS MIDDLE SCHOOL", "lat": 42.687206, "lon": -102.688135, "proficiency": 0.75, "district": "HAY SPRINGS PUBLIC SCHOOLS", "city": "HAY SPRINGS", "ncessch": "317161002193"}, {"name": "HEMINGFORD HIGH SCHOOL", "lat": 42.322047, "lon": -103.079305, "proficiency": 0.3, "district": "HEMINGFORD PUBLIC SCHOOLS", "city": "HEMINGFORD", "ncessch": "317173001063"}, {"name": "HERSHEY HIGH SCHOOL", "lat": 41.156103, "lon": -101.001311, "proficiency": 0.445, "district": "HERSHEY PUBLIC SCHOOLS", "city": "HERSHEY", "ncessch": "317182001067"}, {"name": "HOLDREGE MIDDLE SCHOOL", "lat": 40.449557, "lon": -99.372262, "proficiency": 0.42, "district": "HOLDREGE PUBLIC SCHOOLS", "city": "HOLDREGE", "ncessch": "317194001075"}, {"name": "HOMER HIGH SCHOOL", "lat": 42.319067, "lon": -96.494194, "proficiency": 0.495, "district": "HOMER COMMUNITY SCHOOLS", "city": "HOMER", "ncessch": "317200001083"}, {"name": "HUMPHREY JR-SR HIGH SCHOOL", "lat": 41.688543, "lon": -97.490278, "proficiency": 0.3, "district": "HUMPHREY PUBLIC SCHOOLS", "city": "HUMPHREY", "ncessch": "317215001094"}, {"name": "HYANNIS HIGH SCHOOL", "lat": 41.997586, "lon": -101.751364, "proficiency": 0.245, "district": "HYANNIS AREA SCHOOLS", "city": "HYANNIS", "ncessch": "317221001096"}, {"name": "HIGH SCHOOL AT JOHNSON", "lat": 40.412034, "lon": -95.997128, "proficiency": 0.9, "district": "JOHNSON-BROCK PUBLIC SCHOOLS", "city": "JOHNSON", "ncessch": "317233501099"}, {"name": "SUNRISE MIDDLE SCHOOL", "lat": 40.719631, "lon": -99.063039, "proficiency": 0.67, "district": "KEARNEY PUBLIC SCHOOLS", "city": "KEARNEY", "ncessch": "317239000425"}, {"name": "HORIZON MIDDLE SCHOOL", "lat": 40.711169, "lon": -99.094591, "proficiency": 0.57, "district": "KEARNEY PUBLIC SCHOOLS", "city": "KEARNEY", "ncessch": "317239001104"}, {"name": "KENESAW SECONDARY SCHOOL", "lat": 40.621282, "lon": -98.651734, "proficiency": 0.75, "district": "KENESAW PUBLIC SCHOOLS", "city": "KENESAW", "ncessch": "317242001112"}, {"name": "KEYA PAHA COUNTY HIGH SCHOOL", "lat": 42.826674, "lon": -99.745594, "proficiency": 0.245, "district": "KEYA PAHA COUNTY SCHOOLS", "city": "SPRINGVIEW", "ncessch": "317248001113"}, {"name": "KIMBALL JR/SR HIGH SCHOOL", "lat": 41.226997, "lon": -103.655164, "proficiency": 0.1, "district": "KIMBALL PUBLIC SCHOOLS", "city": "KIMBALL", "ncessch": "317257001117"}, {"name": "LEIGH HIGH SCHOOL", "lat": 41.70821, "lon": -97.240184, "proficiency": 0.75, "district": "LEIGH COMMUNITY SCHOOLS", "city": "LEIGH", "ncessch": "317272001126"}, {"name": "LEWISTON HIGH SCHOOL", "lat": 40.243617, "lon": -96.410209, "proficiency": 0.245, "district": "LEWISTON CONSOLIDATED SCHOOLS", "city": "LEWISTON", "ncessch": "317278001129"}, {"name": "LEXINGTON HIGH SCHOOL", "lat": 40.787491, "lon": -99.750018, "proficiency": -0.03, "district": "LEXINGTON PUBLIC SCHOOLS", "city": "LEXINGTON", "ncessch": "317281001131"}, {"name": "LEXINGTON MIDDLE SCHOOL", "lat": 40.784806, "lon": -99.740964, "proficiency": 0.27, "district": "LEXINGTON PUBLIC SCHOOLS", "city": "LEXINGTON", "ncessch": "317281001132"}, {"name": "LUX MIDDLE SCHOOL", "lat": 40.780183, "lon": -96.614098, "proficiency": 0.72, "district": "LINCOLN PUBLIC SCHOOLS", "city": "LINCOLN", "ncessch": "317284000392"}, {"name": "SCOTT MIDDLE SCHOOL", "lat": 40.739874, "lon": -96.690538, "proficiency": 0.74, "district": "LINCOLN PUBLIC SCHOOLS", "city": "LINCOLN", "ncessch": "317284000393"}, {"name": "CULLER MIDDLE SCHOOL", "lat": 40.820142, "lon": -96.648123, "proficiency": 0.27, "district": "LINCOLN PUBLIC SCHOOLS", "city": "LINCOLN", "ncessch": "317284001141"}, {"name": "DAWES MIDDLE SCHOOL", "lat": 40.850815, "lon": -96.650032, "proficiency": 0.32, "district": "LINCOLN PUBLIC SCHOOLS", "city": "LINCOLN", "ncessch": "317284001145"}, {"name": "GOODRICH MIDDLE SCHOOL", "lat": 40.856858, "lon": -96.703839, "proficiency": 0.32, "district": "LINCOLN PUBLIC SCHOOLS", "city": "LINCOLN", "ncessch": "317284001149"}, {"name": "IRVING MIDDLE SCHOOL", "lat": 40.785047, "lon": -96.69048, "proficiency": 0.57, "district": "LINCOLN PUBLIC SCHOOLS", "city": "LINCOLN", "ncessch": "317284001156"}, {"name": "LEFLER MIDDLE SCHOOL", "lat": 40.802931, "lon": -96.65199, "proficiency": 0.47, "district": "LINCOLN PUBLIC SCHOOLS", "city": "LINCOLN", "ncessch": "317284001165"}, {"name": "POUND MIDDLE SCHOOL", "lat": 40.764352, "lon": -96.657221, "proficiency": 0.57, "district": "LINCOLN PUBLIC SCHOOLS", "city": "LINCOLN", "ncessch": "317284001170"}, {"name": "MICKLE MIDDLE SCHOOL", "lat": 40.83723, "lon": -96.628378, "proficiency": 0.62, "district": "LINCOLN PUBLIC SCHOOLS", "city": "LINCOLN", "ncessch": "317284001175"}, {"name": "PARK MIDDLE SCHOOL", "lat": 40.805238, "lon": -96.710757, "proficiency": 0.27, "district": "LINCOLN PUBLIC SCHOOLS", "city": "LINCOLN", "ncessch": "317284002122"}, {"name": "SCHOO MIDDLE SCHOOL", "lat": 40.88164, "lon": -96.73109, "proficiency": 0.47, "district": "LINCOLN PUBLIC SCHOOLS", "city": "LINCOLN", "ncessch": "317284002215"}, {"name": "MOORE MIDDLE SCHOOL", "lat": 40.725023, "lon": -96.603142, "proficiency": 0.72, "district": "LINCOLN PUBLIC SCHOOLS", "city": "LINCOLN", "ncessch": "317284002363"}, {"name": "LITCHFIELD HIGH SCHOOL", "lat": 41.160432, "lon": -99.155491, "proficiency": 0.245, "district": "LITCHFIELD PUBLIC SCHOOLS", "city": "LITCHFIELD", "ncessch": "317291001186"}, {"name": "LOOMIS SECONDARY SCHOOL", "lat": 40.475433, "lon": -99.512893, "proficiency": 0.3, "district": "LOOMIS PUBLIC SCHOOLS", "city": "LOOMIS", "ncessch": "317299001190"}, {"name": "LOUISVILLE MIDDLE SCHOOL", "lat": 41.000127, "lon": -96.164779, "proficiency": 0.345, "district": "LOUISVILLE PUBLIC SCHOOLS", "city": "LOUISVILLE", "ncessch": "317305000717"}, {"name": "LOUP CITY HIGH SCHOOL", "lat": 41.282761, "lon": -98.967847, "proficiency": 0.1, "district": "LOUP CITY PUBLIC SCHOOLS", "city": "LOUP CITY", "ncessch": "317309001195"}, {"name": "LOUP COUNTY HIGH SCHOOL", "lat": 41.767837, "lon": -99.384136, "proficiency": 0.245, "district": "LOUP COUNTY PUBLIC SCHOOLS", "city": "TAYLOR", "ncessch": "317312001198"}, {"name": "NORTHEAST SECONDARY SCHOOL", "lat": 41.933875, "lon": -96.472453, "proficiency": 0.1, "district": "LYONS-DECATUR NORTHEAST SCHS", "city": "LYONS", "ncessch": "317321001204"}, {"name": "MADISON MIDDLE SCHOOL", "lat": 41.824052, "lon": -97.457904, "proficiency": 0.3, "district": "MADISON PUBLIC SCHOOLS", "city": "MADISON", "ncessch": "317323000599"}, {"name": "MALCOLM JR/SR HIGH SCHOOL", "lat": 40.914329, "lon": -96.868611, "proficiency": 0.645, "district": "MALCOLM PUBLIC SCHOOLS", "city": "MALCOLM", "ncessch": "317329001210"}, {"name": "MAYWOOD HIGH SCHOOL", "lat": 40.653749, "lon": -100.618873, "proficiency": 0.75, "district": "MAYWOOD PUBLIC SCHOOLS", "city": "MAYWOOD", "ncessch": "317344001217"}, {"name": "MC COOK JUNIOR HIGH SCHOOL", "lat": 40.204709, "lon": -100.63579, "proficiency": 0.57, "district": "MC COOK PUBLIC SCHOOLS", "city": "MC COOK", "ncessch": "317347001221"}, {"name": "MCCOOL JUNCTION JR-SR HIGH SCH", "lat": 40.74261, "lon": -97.596697, "proficiency": 0.1, "district": "MC COOL JUNCTION PUBLIC SCHS", "city": "MCCOOL JUNCTION", "ncessch": "317350001227"}, {"name": "MC PHERSON COUNTY SECONDARY SCHOOL", "lat": 41.55347, "lon": -100.958769, "proficiency": 0.75, "district": "MC PHERSON COUNTY SCHOOLS", "city": "TRYON", "ncessch": "317356001229"}, {"name": "MEAD HIGH SCHOOL", "lat": 41.231811, "lon": -96.487981, "proficiency": 0.245, "district": "MEAD PUBLIC SCHOOLS", "city": "MEAD", "ncessch": "317359001231"}, {"name": "MEDICINE VALLEY JR-SR HIGH SCHOOL", "lat": 40.633095, "lon": -100.522733, "proficiency": 0.245, "district": "MEDICINE VALLEY PUBLIC SCHOOLS", "city": "CURTIS", "ncessch": "317360001812"}, {"name": "MERIDIAN HIGH SCHOOL", "lat": 40.320069, "lon": -97.330052, "proficiency": 0.3, "district": "MERIDIAN PUBLIC SCHOOLS", "city": "DAYKIN", "ncessch": "317366001236"}, {"name": "MILFORD HIGH SCHOOL", "lat": 40.772238, "lon": -97.059571, "proficiency": 0.445, "district": "MILFORD PUBLIC SCHOOLS", "city": "MILFORD", "ncessch": "317371001239"}, {"name": "RUSSELL MIDDLE SCHOOL", "lat": 41.203973, "lon": -96.184479, "proficiency": 0.67, "district": "MILLARD PUBLIC SCHOOLS", "city": "OMAHA", "ncessch": "317374000240"}, {"name": "BEADLE MIDDLE SCHOOL", "lat": 41.193922, "lon": -96.198039, "proficiency": 0.67, "district": "MILLARD PUBLIC SCHOOLS", "city": "OMAHA", "ncessch": "317374000723"}, {"name": "MILLARD CENTRAL MIDDLE SCHOOL", "lat": 41.210919, "lon": -96.114169, "proficiency": 0.37, "district": "MILLARD PUBLIC SCHOOLS", "city": "OMAHA", "ncessch": "317374001250"}, {"name": "MILLARD NORTH MIDDLE SCHOOL", "lat": 41.232156, "lon": -96.129937, "proficiency": 0.52, "district": "MILLARD PUBLIC SCHOOLS", "city": "OMAHA", "ncessch": "317374001253"}, {"name": "HARRY ANDERSEN MIDDLE SCHOOL", "lat": 41.196343, "lon": -96.154834, "proficiency": 0.37, "district": "MILLARD PUBLIC SCHOOLS", "city": "OMAHA", "ncessch": "317374001896"}, {"name": "KIEWIT MIDDLE SCHOOL", "lat": 41.256265, "lon": -96.15937, "proficiency": 0.62, "district": "MILLARD PUBLIC SCHOOLS", "city": "OMAHA", "ncessch": "317374001934"}, {"name": "MINATARE HIGH SCHOOL", "lat": 41.8128, "lon": -103.501192, "proficiency": 0.245, "district": "MINATARE PUBLIC SCHOOLS", "city": "MINATARE", "ncessch": "317380001263"}, {"name": "C L JONES MIDDLE SCHOOL", "lat": 40.49801, "lon": -98.957286, "proficiency": 0.57, "district": "MINDEN PUBLIC SCHOOLS", "city": "MINDEN", "ncessch": "317383001264"}, {"name": "MITCHELL SECONDARY SCHOOL", "lat": 41.946243, "lon": -103.812555, "proficiency": 0.645, "district": "MITCHELL PUBLIC SCHOOLS", "city": "MITCHELL", "ncessch": "317389001269"}, {"name": "MULLEN MIDDLE SCHOOL", "lat": 42.045276, "lon": -101.045596, "proficiency": 0.245, "district": "MULLEN PUBLIC SCHOOLS", "city": "MULLEN", "ncessch": "317404002405"}, {"name": "NEBRASKA CITY MIDDLE SCHOOL", "lat": 40.674914, "lon": -95.856821, "proficiency": 0.37, "district": "NEBRASKA CITY PUBLIC SCHOOLS", "city": "NEBRASKA CITY", "ncessch": "317416001284"}, {"name": "CONESTOGA JR/SR HIGH SCHOOL", "lat": 40.913735, "lon": -95.980588, "proficiency": 0.345, "district": "CONESTOGA PUBLIC SCHOOLS", "city": "MURRAY", "ncessch": "317420001290"}, {"name": "NELIGH-OAKDALE HIGH SCHOOL", "lat": 42.130936, "lon": -98.024986, "proficiency": 0.495, "district": "NELIGH-OAKDALE SCHOOLS", "city": "NELIGH", "ncessch": "317422001292"}, {"name": "NEWMAN GROVE HIGH SCHOOL", "lat": 41.746269, "lon": -97.773933, "proficiency": 0.245, "district": "NEWMAN GROVE PUBLIC SCHOOLS", "city": "NEWMAN GROVE", "ncessch": "317434001300"}, {"name": "NIOBRARA SECONDARY SCHOOL", "lat": 42.752207, "lon": -98.028488, "proficiency": 0.245, "district": "NIOBRARA PUBLIC SCHOOLS", "city": "NIOBRARA", "ncessch": "317437001604"}, {"name": "NORFOLK JR HIGH SCHOOL", "lat": 42.026662, "lon": -97.414537, "proficiency": 0.38, "district": "NORFOLK PUBLIC SCHOOLS", "city": "NORFOLK", "ncessch": "317443001310"}, {"name": "1R ELEMENTARY", "lat": 41.002783, "lon": -98.379562, "proficiency": 0.695, "district": "NORTHWEST PUBLIC SCHOOLS", "city": "GRAND ISLAND", "ncessch": "317458000209"}, {"name": "CEDAR HOLLOW SCHOOL", "lat": 40.860173, "lon": -98.417997, "proficiency": 0.545, "district": "NORTHWEST PUBLIC SCHOOLS", "city": "GRAND ISLAND", "ncessch": "317458000253"}, {"name": "ST LIBORY ELEMENTARY SCHOOL", "lat": 41.094926, "lon": -98.36252, "proficiency": 0.245, "district": "NORTHWEST PUBLIC SCHOOLS", "city": "ST LIBORY", "ncessch": "317458000965"}, {"name": "OAKLAND CRAIG JUNIOR-SENIOR HIGH", "lat": 41.836219, "lon": -96.463786, "proficiency": 0.745, "district": "OAKLAND CRAIG PUBLIC SCHOOLS", "city": "OAKLAND", "ncessch": "317464001336"}, {"name": "PRAIRIE VIEW SCHOOL", "lat": 41.13137, "lon": -101.699971, "proficiency": 0.32, "district": "OGALLALA PUBLIC SCHOOLS", "city": "OGALLALA", "ncessch": "317476002298"}, {"name": "BEVERIDGE MAGNET MIDDLE SCHOOL", "lat": 41.242282, "lon": -96.10232, "proficiency": 0.22, "district": "OMAHA PUBLIC SCHOOLS", "city": "OMAHA", "ncessch": "317482001356"}, {"name": "BRYAN MIDDLE SCHOOL", "lat": 41.177592, "lon": -95.978255, "proficiency": 0.075, "district": "OMAHA PUBLIC SCHOOLS", "city": "OMAHA", "ncessch": "317482001358"}, {"name": "NATHAN HALE MAGNET MIDDLE SCHOOL", "lat": 41.320946, "lon": -96.008266, "proficiency": 0.12, "district": "OMAHA PUBLIC SCHOOLS", "city": "OMAHA", "ncessch": "317482001384"}, {"name": "LEWIS & CLARK MIDDLE SCHOOL", "lat": 41.266206, "lon": -96.020513, "proficiency": 0.25, "district": "OMAHA PUBLIC SCHOOLS", "city": "OMAHA", "ncessch": "317482001399"}, {"name": "MC MILLAN MAGNET MIDDLE SCHOOL", "lat": 41.318281, "lon": -95.970123, "proficiency": 0.12, "district": "OMAHA PUBLIC SCHOOLS", "city": "OMAHA", "ncessch": "317482001408"}, {"name": "MONROE MIDDLE SCHOOL", "lat": 41.28818, "lon": -95.993568, "proficiency": 0.12, "district": "OMAHA PUBLIC SCHOOLS", "city": "OMAHA", "ncessch": "317482001412"}, {"name": "MORTON MAGNET MIDDLE SCHOOL", "lat": 41.300571, "lon": -96.068281, "proficiency": 0.27, "district": "OMAHA PUBLIC SCHOOLS", "city": "OMAHA", "ncessch": "317482001413"}, {"name": "NORRIS MIDDLE SCHOOL", "lat": 41.237014, "lon": -95.980446, "proficiency": 0.07, "district": "OMAHA PUBLIC SCHOOLS", "city": "OMAHA", "ncessch": "317482001415"}, {"name": "ALICE BUFFETT MAGNET MIDDLE SCHOOL", "lat": 41.301068, "lon": -96.135659, "proficiency": 0.37, "district": "OMAHA PUBLIC SCHOOLS", "city": "OMAHA", "ncessch": "317482001431"}, {"name": "R M MARRS MAGNET MIDDLE SCHOOL", "lat": 41.201114, "lon": -95.939745, "proficiency": 0.32, "district": "OMAHA PUBLIC SCHOOLS", "city": "OMAHA", "ncessch": "317482001438"}, {"name": "KING SCIENCE/TECH MAGNET MIDDLE SCHOOL", "lat": 41.292951, "lon": -95.943382, "proficiency": 0.12, "district": "OMAHA PUBLIC SCHOOLS", "city": "OMAHA", "ncessch": "317482001940"}, {"name": "ALFONZA W DAVIS MIDDLE SCHOOL", "lat": 41.33362, "lon": -96.117461, "proficiency": 0.37, "district": "OMAHA PUBLIC SCHOOLS", "city": "OMAHA", "ncessch": "317482002278"}, {"name": "O'NEILL HIGH SCHOOL", "lat": 42.465768, "lon": -98.644684, "proficiency": 0.445, "district": "O'NEILL PUBLIC SCHOOLS", "city": "O'NEILL", "ncessch": "317485001448"}, {"name": "ORD JR-SR HIGH SCHOOL", "lat": 41.604507, "lon": -98.932348, "proficiency": 0.245, "district": "ORD PUBLIC SCHOOLS", "city": "ORD", "ncessch": "317494001454"}, {"name": "OSCEOLA MIDDLE SCHOOL", "lat": 41.172283, "lon": -97.544554, "proficiency": 0.495, "district": "OSCEOLA PUBLIC SCHOOLS", "city": "OSCEOLA", "ncessch": "317500001228"}, {"name": "OSMOND HIGH SCHOOL", "lat": 42.366498, "lon": -97.599061, "proficiency": 0.75, "district": "OSMOND COMMUNITY SCHOOLS", "city": "OSMOND", "ncessch": "317503001460"}, {"name": "OVERTON HIGH SCHOOL", "lat": 40.741137, "lon": -99.537308, "proficiency": 0.3, "district": "OVERTON PUBLIC SCHOOLS", "city": "OVERTON", "ncessch": "317506001462"}, {"name": "JR-SR HIGH SCHOOL AT PALMYRA", "lat": 40.703855, "lon": -96.393827, "proficiency": 0.445, "district": "PALMYRA DISTRICT O R 1", "city": "PALMYRA", "ncessch": "317521001470"}, {"name": "LA VISTA MIDDLE SCHOOL", "lat": 41.178038, "lon": -96.03865, "proficiency": 0.46, "district": "PAPILLION LA VISTA COMMUNITY SCHOOLS", "city": "LA VISTA", "ncessch": "317527001475"}, {"name": "PAPILLION MIDDLE SCHOOL", "lat": 41.152815, "lon": -96.042441, "proficiency": 0.52, "district": "PAPILLION LA VISTA COMMUNITY SCHOOLS", "city": "PAPILLION", "ncessch": "317527001477"}, {"name": "LIBERTY MIDDLE SCHOOL", "lat": 41.151703, "lon": -96.077656, "proficiency": 0.67, "district": "PAPILLION LA VISTA COMMUNITY SCHOOLS", "city": "PAPILLION", "ncessch": "317527002341"}, {"name": "PAWNEE CITY SECONDARY SCHOOL", "lat": 40.110093, "lon": -96.156105, "proficiency": 0.495, "district": "PAWNEE CITY PUBLIC SCHOOLS", "city": "PAWNEE CITY", "ncessch": "317533001485"}, {"name": "PAXTON HIGH SCHOOL", "lat": 41.12533, "lon": -101.36239, "proficiency": 0.3, "district": "PAXTON CONSOLIDATED SCHOOLS", "city": "PAXTON", "ncessch": "317536001487"}, {"name": "PENDER HIGH SCHOOL", "lat": 42.111582, "lon": -96.710678, "proficiency": 0.495, "district": "PENDER PUBLIC SCHOOLS", "city": "PENDER", "ncessch": "317539001489"}, {"name": "PIERCE JR/SR HIGH SCHOOL", "lat": 42.199747, "lon": -97.539737, "proficiency": 0.745, "district": "PIERCE PUBLIC SCHOOLS", "city": "PIERCE", "ncessch": "317551001495"}, {"name": "PLAINVIEW SECONDARY SCHOOL", "lat": 42.352693, "lon": -97.791487, "proficiency": 0.695, "district": "PLAINVIEW PUBLIC SCHOOLS", "city": "PLAINVIEW", "ncessch": "317557001498"}, {"name": "PLATTEVIEW CENTRAL JR HIGH SCHOOL", "lat": 41.090426, "lon": -96.078843, "proficiency": 0.47, "district": "SPRINGFIELD PLATTEVIEW COMMUNITY SCHOOLS", "city": "SPRINGFIELD", "ncessch": "317563001902"}, {"name": "PLATTSMOUTH MIDDLE SCHOOL", "lat": 41.00347, "lon": -95.900345, "proficiency": 0.27, "district": "PLATTSMOUTH COMMUNITY SCHOOLS", "city": "PLATTSMOUTH", "ncessch": "317566001524"}, {"name": "PLEASANTON HIGH SCHOOL", "lat": 40.97021, "lon": -99.089719, "proficiency": 0.1, "district": "PLEASANTON PUBLIC SCHOOLS", "city": "PLEASANTON", "ncessch": "317569001527"}, {"name": "PONCA ELEMENTARY SCHOOL", "lat": 42.5643, "lon": -96.712859, "proficiency": -0.03, "district": "PONCA PUBLIC SCHOOLS", "city": "PONCA", "ncessch": "317577001530"}, {"name": "PONCA HIGH SCHOOL", "lat": 42.5643, "lon": -96.712859, "proficiency": 0.645, "district": "PONCA PUBLIC SCHOOLS", "city": "PONCA", "ncessch": "317577001531"}, {"name": "POTTER-DIX JR/SR HIGH SCHOOL", "lat": 41.216434, "lon": -103.307049, "proficiency": 0.1, "district": "POTTER-DIX PUBLIC SCHOOLS", "city": "POTTER", "ncessch": "317581001533"}, {"name": "RALSTON MIDDLE SCHOOL", "lat": 41.209786, "lon": -96.040461, "proficiency": 0.22, "district": "RALSTON PUBLIC SCHOOLS", "city": "RALSTON", "ncessch": "317590001540"}, {"name": "RANDOLPH HIGH SCHOOL", "lat": 42.380271, "lon": -97.359426, "proficiency": 0.245, "district": "RANDOLPH PUBLIC SCHOOLS", "city": "RANDOLPH", "ncessch": "317593001546"}, {"name": "RAVENNA SENIOR HIGH", "lat": 41.030198, "lon": -98.924004, "proficiency": 0.695, "district": "RAVENNA PUBLIC SCHOOLS", "city": "RAVENNA", "ncessch": "317596001549"}, {"name": "RED CLOUD HIGH SCHOOL", "lat": 40.092299, "lon": -98.519856, "proficiency": 0.75, "district": "RED CLOUD COMMUNITY SCHOOLS", "city": "RED CLOUD", "ncessch": "317599001551"}, {"name": "ROCK COUNTY HIGH SCHOOL", "lat": 42.578183, "lon": -99.532173, "proficiency": 0.3, "district": "ROCK COUNTY PUBLIC SCHOOLS", "city": "BASSETT", "ncessch": "317617001559"}, {"name": "HIGH SCHOOL AT DUNNING", "lat": 41.826618, "lon": -100.101349, "proficiency": 0.245, "district": "SANDHILLS PUBLIC SCHOOLS", "city": "DUNNING", "ncessch": "317638001570"}, {"name": "ISANTI HIGH SCHOOL", "lat": 42.838871, "lon": -97.849566, "proficiency": 0.1, "district": "ISANTI COMMUNITY SCHOOL", "city": "NIOBRARA", "ncessch": "317640001572"}, {"name": "SARGENT HIGH SCHOOL", "lat": 41.644483, "lon": -99.373597, "proficiency": 0.245, "district": "SARGENT PUBLIC SCHOOLS", "city": "SARGENT", "ncessch": "317641001574"}, {"name": "RICHLAND ELEMENTARY SCHOOL", "lat": 41.46628, "lon": -97.21499, "proficiency": -0.03, "district": "SCHUYLER COMMUNITY SCHOOLS", "city": "RICHLAND", "ncessch": "317645000215"}, {"name": "SCHUYLER ELEMENTARY-FISHER'S", "lat": 41.525822, "lon": -97.059868, "proficiency": -0.03, "district": "SCHUYLER COMMUNITY SCHOOLS", "city": "SCHUYLER", "ncessch": "317645000446"}, {"name": "SCHUYLER MIDDLE SCHOOL", "lat": 41.445998, "lon": -97.061005, "proficiency": 0.37, "district": "SCHUYLER COMMUNITY SCHOOLS", "city": "SCHUYLER", "ncessch": "317645002216"}, {"name": "BLUFFS MIDDLE SCHOOL", "lat": 41.870514, "lon": -103.661373, "proficiency": 0.37, "district": "SCOTTSBLUFF PUBLIC SCHOOLS", "city": "SCOTTSBLUFF", "ncessch": "317647001581"}, {"name": "SEWARD MIDDLE SCHOOL", "lat": 40.928924, "lon": -97.086859, "proficiency": 0.72, "district": "SEWARD PUBLIC SCHOOLS", "city": "SEWARD", "ncessch": "317656001592"}, {"name": "SHELBY - RISING CITY MIDDLE SCHOOL", "lat": 41.1987, "lon": -97.42426, "proficiency": 0.3, "district": "SHELBY - RISING CITY PUBLIC SCHOOLS", "city": "SHELBY", "ncessch": "317659002257"}, {"name": "SHELTON HIGH SCHOOL", "lat": 40.770789, "lon": -98.7341, "proficiency": 0.245, "district": "SHELTON PUBLIC SCHOOLS", "city": "SHELTON", "ncessch": "317662001596"}, {"name": "SHICKLEY HIGH SCHOOL", "lat": 40.418536, "lon": -97.722501, "proficiency": 0.75, "district": "SHICKLEY PUBLIC SCHOOLS", "city": "SHICKLEY", "ncessch": "317665001598"}, {"name": "SIDNEY MIDDLE SCHOOL", "lat": 41.141828, "lon": -102.988445, "proficiency": 0.47, "district": "SIDNEY PUBLIC SCHOOLS", "city": "SIDNEY", "ncessch": "317671001602"}, {"name": "HARRISON GRADE SCHOOL", "lat": 42.688843, "lon": -103.884784, "proficiency": 0.75, "district": "SIOUX COUNTY PUBLIC SCHOOLS", "city": "HARRISON", "ncessch": "317680001045"}, {"name": "SOUTH SIOUX CITY MIDDLE SCHOOL", "lat": 42.455754, "lon": -96.405452, "proficiency": 0.47, "district": "SO SIOUX CITY COMMUNITY SCHS", "city": "SO SIOUX CITY", "ncessch": "317686001615"}, {"name": "ST EDWARD HIGH SCHOOL", "lat": 41.571456, "lon": -97.861383, "proficiency": 0.245, "district": "ST EDWARD PUBLIC SCHOOLS", "city": "ST EDWARD", "ncessch": "317698001622"}, {"name": "STAPLETON HIGH SCHOOL", "lat": 41.476601, "lon": -100.513461, "proficiency": 0.495, "district": "STAPLETON PUBLIC SCHOOLS", "city": "STAPLETON", "ncessch": "317710001628"}, {"name": "SOUTHERN JR-SR HIGH SCHOOL", "lat": 40.121806, "lon": -96.668398, "proficiency": 0.15, "district": "SOUTHERN SCHOOL DISTRICT 1", "city": "WYMORE", "ncessch": "317718001632"}, {"name": "STERLING HIGH SCHOOL", "lat": 40.460139, "lon": -96.375649, "proficiency": 0.245, "district": "STERLING PUBLIC SCHOOLS", "city": "STERLING", "ncessch": "317719001634"}, {"name": "JUNIOR-SENIOR HIGH AT SUMNER", "lat": 40.950132, "lon": -99.50657, "proficiency": 0.3, "district": "SUMNER-EDDYVILLE-MILLER SCHS", "city": "SUMNER", "ncessch": "317734001642"}, {"name": "SUTTON SECONDARY SCHOOL", "lat": 40.61784, "lon": -97.859784, "proficiency": 0.3, "district": "SUTTON PUBLIC SCHOOLS", "city": "SUTTON", "ncessch": "317752001650"}, {"name": "MIDDLE SCHOOL AT SYRACUSE", "lat": 40.665395, "lon": -96.180367, "proficiency": 0.745, "district": "SYRACUSE-DUNBAR-AVOCA SCHOOLS", "city": "SYRACUSE", "ncessch": "317755002238"}, {"name": "THEDFORD HIGH SCHOOL", "lat": 41.979907, "lon": -100.574763, "proficiency": 0.245, "district": "THEDFORD PUBLIC SCHOOLS", "city": "THEDFORD", "ncessch": "317773001663"}, {"name": "VALENTINE MIDDLE SCHOOL", "lat": 42.874129, "lon": -100.554179, "proficiency": 0.445, "district": "VALENTINE COMMUNITY SCHOOLS", "city": "VALENTINE", "ncessch": "317802001673"}, {"name": "VERDIGRE HIGH SCHOOL", "lat": 42.599035, "lon": -98.035745, "proficiency": 0.245, "district": "VERDIGRE PUBLIC SCHOOLS", "city": "VERDIGRE", "ncessch": "317812001679"}, {"name": "WAHOO MIDDLE SCHOOL", "lat": 41.225862, "lon": -96.626783, "proficiency": 0.67, "district": "WAHOO PUBLIC SCHOOLS", "city": "WAHOO", "ncessch": "317821001683"}, {"name": "WAKEFIELD HIGH SCHOOL", "lat": 42.262751, "lon": -96.868426, "proficiency": 0.445, "district": "WAKEFIELD PUBLIC SCHOOLS", "city": "WAKEFIELD", "ncessch": "317824001686"}, {"name": "WALLACE HIGH SCHOOL", "lat": 40.840035, "lon": -101.170415, "proficiency": 0.75, "district": "WALLACE PUBLIC SCH DIST 65 R", "city": "WALLACE", "ncessch": "317826001688"}, {"name": "WALTHILL HIGH SCHOOL", "lat": 42.14776, "lon": -96.49421, "proficiency": 0.1, "district": "WALTHILL PUBLIC SCHOOLS", "city": "WALTHILL", "ncessch": "317830001690"}, {"name": "WAUSA HIGH SCHOOL", "lat": 42.497198, "lon": -97.542927, "proficiency": 0.495, "district": "WAUSA PUBLIC SCHOOLS", "city": "WAUSA", "ncessch": "317845001696"}, {"name": "WAYNE JUNIOR HIGH SCHOOL", "lat": 42.234782, "lon": -97.025688, "proficiency": 0.345, "district": "WAYNE COMMUNITY SCHOOLS", "city": "WAYNE", "ncessch": "317852001701"}, {"name": "WEEPING WATER MIDDLE SCHOOL", "lat": 40.865669, "lon": -96.141045, "proficiency": 0.1, "district": "WEEPING WATER PUBLIC SCHOOLS", "city": "WEEPING WATER", "ncessch": "317854002318"}, {"name": "WESTSIDE MIDDLE SCHOOL", "lat": 41.236474, "lon": -96.045655, "proficiency": 0.64, "district": "WESTSIDE COMMUNITY SCHOOLS", "city": "OMAHA", "ncessch": "317866001915"}, {"name": "WHEELER CENTRAL HIGH", "lat": 41.885863, "lon": -98.555198, "proficiency": -0.03, "district": "WHEELER CENTRAL SCHOOLS", "city": "BARTLETT", "ncessch": "317867001726"}, {"name": "WILBER-CLATONIA MIDDLE SCHOOL", "lat": 40.475532, "lon": -96.968742, "proficiency": 0.245, "district": "WILBER-CLATONIA PUBLIC SCHOOLS", "city": "WILBER", "ncessch": "317872002417"}, {"name": "WINNEBAGO ELEMENTARY SCHOOL", "lat": 42.238637, "lon": -96.473897, "proficiency": 0.15, "district": "WINNEBAGO PUBLIC SCHOOLS DISTRICT 17", "city": "WINNEBAGO", "ncessch": "317881001737"}, {"name": "WINSIDE HIGH SCHOOL", "lat": 42.178218, "lon": -97.179535, "proficiency": 0.1, "district": "WINSIDE PUBLIC SCHOOLS", "city": "WINSIDE", "ncessch": "317884001740"}, {"name": "WOOD RIVER RURAL MIDDLE SCHOOL", "lat": 40.830876, "lon": -98.605349, "proficiency": 0.345, "district": "WOOD RIVER RURAL SCHOOLS", "city": "WOOD RIVER", "ncessch": "317894001560"}, {"name": "WYNOT MIDDLE SCHOOL", "lat": 42.742575, "lon": -97.1705, "proficiency": 0.245, "district": "WYNOT PUBLIC SCHOOLS", "city": "WYNOT", "ncessch": "317899002117"}, {"name": "YORK MIDDLE SCHOOL", "lat": 40.878728, "lon": -97.575788, "proficiency": 0.37, "district": "YORK PUBLIC SCHOOLS", "city": "YORK", "ncessch": "317905001919"}, {"name": "YUTAN HIGH SCHOOL", "lat": 41.236856, "lon": -96.396137, "proficiency": 0.495, "district": "YUTAN PUBLIC SCHOOLS", "city": "YUTAN", "ncessch": "317908001754"}], "districts": [{"name": "DAVID CITY PUBLIC SCHOOLS", "lat": 41.253149, "lon": -97.12495, "proficiency": 0.645, "schoolCount": 1}, {"name": "EAST BUTLER PUBLIC SCHOOLS", "lat": 41.181737, "lon": -97.001969, "proficiency": 0.3, "schoolCount": 1}, {"name": "LAUREL-CONCORD-COLERIDGE SCHOOL", "lat": 42.504198, "lon": -97.204004, "proficiency": 0.245, "schoolCount": 1}, {"name": "WEST POINT PUBLIC SCHOOLS", "lat": 41.840079, "lon": -96.694243, "proficiency": 0.545, "schoolCount": 1}, {"name": "WISNER-PILGER PUBLIC SCHOOLS", "lat": 41.995414, "lon": -96.924422, "proficiency": 0.245, "schoolCount": 1}, {"name": "ANSELMO-MERNA PUBLIC SCHOOLS", "lat": 41.48587, "lon": -99.767612, "proficiency": 0.245, "schoolCount": 1}, {"name": "BROKEN BOW PUBLIC SCHOOLS", "lat": 41.408052, "lon": -99.639939, "proficiency": 0.445, "schoolCount": 1}, {"name": "CALLAWAY PUBLIC SCHOOLS", "lat": 41.291574, "lon": -99.919079, "proficiency": 0.3, "schoolCount": 1}, {"name": "CAMBRIDGE PUBLIC SCHOOLS", "lat": 40.283374, "lon": -100.173819, "proficiency": 0.495, "schoolCount": 1}, {"name": "GRAND ISLAND PUBLIC SCHOOLS", "lat": 40.922970666666664, "lon": -98.373072, "proficiency": 0.4033, "schoolCount": 3}, {"name": "WAUNETA-PALISADE PUBLIC SCHS", "lat": 40.41889, "lon": -101.374553, "proficiency": 0.3, "schoolCount": 1}, {"name": "WAVERLY SCHOOL DISTRICT 145", "lat": 40.903514, "lon": -96.532616, "proficiency": 0.57, "schoolCount": 1}, {"name": "NORTH PLATTE PUBLIC SCHOOLS", "lat": 41.123287, "lon": -100.780717, "proficiency": 0.42, "schoolCount": 1}, {"name": "MAXWELL PUBLIC SCHOOLS", "lat": 41.077958, "lon": -100.519063, "proficiency": 0.3, "schoolCount": 1}, {"name": "SUTHERLAND PUBLIC SCHOOLS", "lat": 41.159992, "lon": -101.125848, "proficiency": 0.035, "schoolCount": 2}, {"name": "ELKHORN VALLEY SCHOOLS", "lat": 42.041615, "lon": -97.832167, "proficiency": 0.3, "schoolCount": 1}, {"name": "SUPERIOR PUBLIC SCHOOLS", "lat": 40.023404, "lon": -98.078536, "proficiency": 0.1, "schoolCount": 1}, {"name": "ASHLAND-GREENWOOD PUBLIC SCHS", "lat": 41.045895, "lon": -96.374197, "proficiency": 0.37, "schoolCount": 1}, {"name": "STANTON COMMUNITY SCHOOLS", "lat": 41.951879, "lon": -97.224495, "proficiency": 0.345, "schoolCount": 1}, {"name": "WEST HASTINGS SCHOOLS (DHHS)", "lat": 40.587548, "lon": -98.440119, "proficiency": -0.03, "schoolCount": 1}, {"name": "FRANKLIN PUBLIC SCHOOLS", "lat": 40.095679, "lon": -98.959219, "proficiency": 0.3, "schoolCount": 1}, {"name": "SILVER LAKE PUBLIC SCHOOLS", "lat": 40.46825, "lon": -98.558172, "proficiency": 0.1, "schoolCount": 1}, {"name": "BANNER COUNTY PUBLIC SCHOOLS", "lat": 41.558329, "lon": -103.745483, "proficiency": 0.245, "schoolCount": 1}, {"name": "AMHERST PUBLIC SCHOOLS", "lat": 40.837842, "lon": -99.265154, "proficiency": 0.3, "schoolCount": 1}, {"name": "TEKAMAH-HERMAN COMMUNITY SCHS", "lat": 41.778946, "lon": -96.221707, "proficiency": 0.345, "schoolCount": 1}, {"name": "LEYTON PUBLIC SCHOOLS", "lat": 41.321143, "lon": -102.968646, "proficiency": 0.245, "schoolCount": 1}, {"name": "ARNOLD PUBLIC SCHOOLS", "lat": 41.42576, "lon": -100.191892, "proficiency": 0.245, "schoolCount": 1}, {"name": "SCRIBNER-SNYDER COMMUNITY SCHS", "lat": 41.669978, "lon": -96.664525, "proficiency": 0.245, "schoolCount": 1}, {"name": "DUNDY CO STRATTON PUBLIC SCHS", "lat": 40.052509, "lon": -101.538065, "proficiency": 0.1, "schoolCount": 1}, {"name": "ALMA PUBLIC SCHOOLS", "lat": 40.102992, "lon": -99.361645, "proficiency": 0.3, "schoolCount": 1}, {"name": "STUART PUBLIC SCHOOLS", "lat": 42.600031, "lon": -99.137933, "proficiency": 0.495, "schoolCount": 1}, {"name": "ST PAUL PUBLIC SCHOOLS", "lat": 41.212805, "lon": -98.466063, "proficiency": 0.345, "schoolCount": 1}, {"name": "NORRIS SCHOOL DIST 160", "lat": 40.564774, "lon": -96.632474, "proficiency": 0.37, "schoolCount": 1}, {"name": "PALMER PUBLIC SCHOOLS", "lat": 41.223016, "lon": -98.266139, "proficiency": 0.495, "schoolCount": 1}, {"name": "BAYARD PUBLIC SCHOOLS", "lat": 41.758379, "lon": -103.318396, "proficiency": 0.15, "schoolCount": 1}, {"name": "FULLERTON PUBLIC SCHOOLS", "lat": 41.362901, "lon": -97.97213, "proficiency": 0.3, "schoolCount": 1}, {"name": "CRETE PUBLIC SCHOOLS", "lat": 40.628584, "lon": -96.943366, "proficiency": 0.57, "schoolCount": 1}, {"name": "FRIEND PUBLIC SCHOOLS", "lat": 40.650564, "lon": -97.288139, "proficiency": 0.75, "schoolCount": 1}, {"name": "MORRILL PUBLIC SCHOOLS", "lat": 41.966086, "lon": -103.921696, "proficiency": 0.3, "schoolCount": 1}, {"name": "GERING PUBLIC SCHOOLS", "lat": 41.826304, "lon": -103.657512, "proficiency": 0.32, "schoolCount": 1}, {"name": "CENTENNIAL PUBLIC SCHOOLS", "lat": 40.888958, "lon": -97.351518, "proficiency": 0.495, "schoolCount": 1}, {"name": "BRIDGEPORT PUBLIC SCHOOLS", "lat": 41.667203, "lon": -103.093298, "proficiency": 0.495, "schoolCount": 1}, {"name": "SOUTHERN VALLEY SCHOOLS", "lat": 40.145342, "lon": -99.642407, "proficiency": 0.695, "schoolCount": 1}, {"name": "SOUTH PLATTE PUBLIC SCHOOLS", "lat": 41.066784, "lon": -102.069204, "proficiency": 0.3, "schoolCount": 1}, {"name": "EUSTIS-FARNAM PUBLIC SCHOOLS", "lat": 40.666871, "lon": -100.02676, "proficiency": 0.245, "schoolCount": 1}, {"name": "LAKEVIEW COMMUNITY SCHOOLS", "lat": 41.497723, "lon": -97.374634, "proficiency": 0.42, "schoolCount": 1}, {"name": "LOGAN VIEW PUBLIC SCHOOLS", "lat": 41.653083, "lon": -96.503838, "proficiency": 0.345, "schoolCount": 1}, {"name": "NORTH BEND CENTRAL PUBLIC SCHS", "lat": 41.469483, "lon": -96.786428, "proficiency": 0.645, "schoolCount": 1}, {"name": "FREEMAN PUBLIC SCHOOLS", "lat": 40.457628, "lon": -96.511981, "proficiency": 0.745, "schoolCount": 1}, {"name": "HEARTLAND COMMUNITY SCHOOLS", "lat": 40.782792, "lon": -97.810443, "proficiency": 0.695, "schoolCount": 1}, {"name": "FILLMORE CENTRAL PUBLIC SCHS", "lat": 40.635711, "lon": -97.580021, "proficiency": 0.745, "schoolCount": 1}, {"name": "HITCHCOCK CO SCH SYSTEM", "lat": 40.175425, "lon": -101.016348, "proficiency": 0.495, "schoolCount": 1}, {"name": "DONIPHAN-TRUMBULL PUBLIC SCHS", "lat": 40.772324, "lon": -98.372313, "proficiency": 0.545, "schoolCount": 1}, {"name": "SOUTH CENTRAL NEBRASKA UNIFIED 5", "lat": 40.3147685, "lon": -98.063367, "proficiency": 0.6975, "schoolCount": 2}, {"name": "HIGH PLAINS COMMUNITY SCHOOLS", "lat": 41.073353, "lon": -97.781588, "proficiency": 0.695, "schoolCount": 1}, {"name": "BRUNING-DAVENPORT UNIFIED SYS", "lat": 40.313404, "lon": -97.809943, "proficiency": 0.495, "schoolCount": 1}, {"name": "DILLER-ODELL PUBLIC SCHOOLS", "lat": 40.052415, "lon": -96.802191, "proficiency": 0.3, "schoolCount": 1}, {"name": "TWIN RIVER PUBLIC SCHOOLS", "lat": 41.449173, "lon": -97.735708, "proficiency": 0.245, "schoolCount": 1}, {"name": "CROSS COUNTY COMMUNITY SCHOOLS", "lat": 41.078409, "lon": -97.603255, "proficiency": 0.545, "schoolCount": 1}, {"name": "THAYER CENTRAL COMMUNITY SCHS", "lat": 40.170862, "lon": -97.582591, "proficiency": 0.545, "schoolCount": 1}, {"name": "EXETER-MILLIGAN PUBLIC SCHOOLS", "lat": 40.642844, "lon": -97.445525, "proficiency": 0.75, "schoolCount": 1}, {"name": "WILCOX-HILDRETH PUBLIC SCHOOLS", "lat": 40.365333, "lon": -99.165349, "proficiency": 0.495, "schoolCount": 1}, {"name": "CREEK VALLEY SCHOOLS", "lat": 41.093601, "lon": -102.461997, "proficiency": 0.245, "schoolCount": 1}, {"name": "EMERSON-HUBBARD PUBLIC SCHOOLS", "lat": 42.272568, "lon": -96.72424, "proficiency": 0.245, "schoolCount": 1}, {"name": "PERKINS COUNTY SCHOOLS", "lat": 40.846129, "lon": -101.730141, "proficiency": 0.345, "schoolCount": 1}, {"name": "CHASE COUNTY SCHOOLS", "lat": 40.520729, "lon": -101.634291, "proficiency": 0.645, "schoolCount": 1}, {"name": "DOUGLAS CO WEST COMMUNITY SCHS", "lat": 41.309305, "lon": -96.343112, "proficiency": 0.42, "schoolCount": 1}, {"name": "GORDON-RUSHVILLE PUBLIC SCHS", "lat": 42.715598, "lon": -102.459965, "proficiency": 0.645, "schoolCount": 1}, {"name": "WEST HOLT PUBLIC SCHOOLS", "lat": 42.540597, "lon": -98.978321, "proficiency": 0.695, "schoolCount": 1}, {"name": "JOHNSON CO CENTRAL PUBLIC SCHS", "lat": 40.513789, "lon": -96.161514, "proficiency": 0.445, "schoolCount": 1}, {"name": "SOUTHWEST PUBLIC SCHOOLS", "lat": 40.257527, "lon": -100.307572, "proficiency": 0.3, "schoolCount": 1}, {"name": "HUMBOLDT TABLE ROCK STEINAUER", "lat": 40.168403, "lon": -95.946783, "proficiency": 0.1, "schoolCount": 1}, {"name": "HOWELLS-DODGE CONSOLIDATED SCHOOLS", "lat": 41.72414, "lon": -97.005846, "proficiency": 0.3, "schoolCount": 1}, {"name": "RIVERSIDE PUBLIC SCHOOLS", "lat": 41.68855, "lon": -98.36001, "proficiency": 0.495, "schoolCount": 1}, {"name": "CENTRAL VALLEY PUBLIC SCHOOLS", "lat": 41.550882, "lon": -98.529926, "proficiency": 0.3, "schoolCount": 1}, {"name": "BOYD COUNTY SCHOOLS", "lat": 42.875616, "lon": -98.70061, "proficiency": 0.1, "schoolCount": 1}, {"name": "ELMWOOD-MURDOCK PUBLIC SCHOOLS", "lat": 40.926254, "lon": -96.284292, "proficiency": 0.495, "schoolCount": 1}, {"name": "ADAMS CENTRAL PUBLIC SCHOOLS", "lat": 40.569523, "lon": -98.460303, "proficiency": 0.42, "schoolCount": 1}, {"name": "AINSWORTH COMMUNITY SCHOOLS", "lat": 42.547374, "lon": -99.856161, "proficiency": 0.695, "schoolCount": 1}, {"name": "BOONE CENTRAL SCHOOLS", "lat": 41.687848, "lon": -98.003457, "proficiency": 0.245, "schoolCount": 1}, {"name": "ALLEN CONSOLIDATED SCHOOLS", "lat": 42.412401, "lon": -96.843883, "proficiency": 0.3, "schoolCount": 1}, {"name": "ALLIANCE PUBLIC SCHOOLS", "lat": 42.106113, "lon": -102.8719, "proficiency": 0.22, "schoolCount": 1}, {"name": "ANSLEY PUBLIC SCHOOLS", "lat": 41.291196, "lon": -99.378778, "proficiency": 0.245, "schoolCount": 1}, {"name": "ARAPAHOE PUBLIC SCHOOLS", "lat": 40.309266, "lon": -99.896414, "proficiency": 0.3, "schoolCount": 1}, {"name": "ARCADIA PUBLIC SCHOOLS", "lat": 41.425771, "lon": -99.1291, "proficiency": 0.245, "schoolCount": 1}, {"name": "ARLINGTON PUBLIC SCHOOLS", "lat": 41.457578, "lon": -96.360093, "proficiency": 0.645, "schoolCount": 1}, {"name": "ARTHUR COUNTY SCHOOLS", "lat": 41.568939, "lon": -101.689204, "proficiency": 0.245, "schoolCount": 1}, {"name": "AUBURN PUBLIC SCHOOLS", "lat": 40.391429, "lon": -95.850832, "proficiency": 0.445, "schoolCount": 1}, {"name": "AURORA PUBLIC SCHOOLS", "lat": 40.866131, "lon": -98.014478, "proficiency": 0.42, "schoolCount": 1}, {"name": "AXTELL COMMUNITY SCHOOLS", "lat": 40.480878, "lon": -99.125723, "proficiency": 0.495, "schoolCount": 1}, {"name": "BANCROFT-ROSALIE COMM SCHOOLS", "lat": 42.009118, "lon": -96.572119, "proficiency": 0.3, "schoolCount": 1}, {"name": "BATTLE CREEK PUBLIC SCHOOLS", "lat": 41.994793, "lon": -97.606189, "proficiency": 0.345, "schoolCount": 1}, {"name": "BEATRICE PUBLIC SCHOOLS", "lat": 40.26786, "lon": -96.748608, "proficiency": 0.42, "schoolCount": 1}, {"name": "BELLEVUE PUBLIC SCHOOLS", "lat": 41.133885, "lon": -95.92793733333333, "proficiency": 0.4867, "schoolCount": 3}, {"name": "BENNINGTON PUBLIC SCHOOLS", "lat": 41.363786, "lon": -96.176532, "proficiency": 0.72, "schoolCount": 1}, {"name": "BERTRAND PUBLIC SCHOOLS", "lat": 40.522401, "lon": -99.63168, "proficiency": 0.495, "schoolCount": 1}, {"name": "BLAIR COMMUNITY SCHOOLS", "lat": 41.546073, "lon": -96.120706, "proficiency": 0.57, "schoolCount": 1}, {"name": "BLOOMFIELD COMMUNITY SCHOOLS", "lat": 42.59491, "lon": -97.643085, "proficiency": 0.695, "schoolCount": 1}, {"name": "BLUE HILL COMMUNITY SCHOOLS", "lat": 40.326765, "lon": -98.450186, "proficiency": 0.695, "schoolCount": 1}, {"name": "BRADY PUBLIC SCHOOLS", "lat": 41.024172, "lon": -100.364071, "proficiency": 0.3, "schoolCount": 1}, {"name": "BURWELL PUBLIC SCHOOLS", "lat": 41.778971, "lon": -99.12748, "proficiency": 0.695, "schoolCount": 1}, {"name": "CEDAR BLUFFS PUBLIC SCHOOLS", "lat": 41.397438, "lon": -96.608447, "proficiency": 0.495, "schoolCount": 1}, {"name": "CENTRAL CITY PUBLIC SCHOOLS", "lat": 41.10294, "lon": -97.999894, "proficiency": 0.545, "schoolCount": 1}, {"name": "RAYMOND CENTRAL PUBLIC SCHOOLS", "lat": 41.022805, "lon": -96.746884, "proficiency": 0.245, "schoolCount": 1}, {"name": "CHADRON PUBLIC SCHOOLS", "lat": 42.824595, "lon": -102.995184, "proficiency": 0.77, "schoolCount": 1}, {"name": "CHAMBERS PUBLIC SCHOOLS", "lat": 42.203379, "lon": -98.751062, "proficiency": 0.75, "schoolCount": 1}, {"name": "CLARKSON PUBLIC SCHOOLS", "lat": 41.719656, "lon": -97.123818, "proficiency": 0.3, "schoolCount": 1}, {"name": "CODY-KILGORE PUBLIC SCHS", "lat": 42.938003, "lon": -101.248669, "proficiency": 0.695, "schoolCount": 1}, {"name": "COLUMBUS PUBLIC SCHOOLS", "lat": 41.441981, "lon": -97.354719, "proficiency": 0.42, "schoolCount": 1}, {"name": "COZAD COMMUNITY SCHOOLS", "lat": 40.868926, "lon": -99.985437, "proficiency": 0.57, "schoolCount": 1}, {"name": "CRAWFORD PUBLIC SCHOOLS", "lat": 42.680476, "lon": -103.406617, "proficiency": 0.75, "schoolCount": 1}, {"name": "CREIGHTON COMMUNITY PUBLIC SCHOOLS", "lat": 42.456655, "lon": -97.905667, "proficiency": 0.695, "schoolCount": 1}, {"name": "CROFTON COMMUNITY SCHOOLS", "lat": 42.736785, "lon": -97.50441, "proficiency": 0.75, "schoolCount": 1}, {"name": "DESHLER PUBLIC SCHOOLS", "lat": 40.134195, "lon": -97.723535, "proficiency": 0.495, "schoolCount": 1}, {"name": "TRI COUNTY PUBLIC SCHOOLS", "lat": 40.336844, "lon": -96.917549, "proficiency": 0.545, "schoolCount": 1}, {"name": "HAYES CENTER PUBLIC SCHOOLS", "lat": 40.511479, "lon": -101.017824, "proficiency": 0.245, "schoolCount": 1}, {"name": "UMO N HO N NATION PUBLIC SCHS", "lat": 42.113326, "lon": -96.355144, "proficiency": 0.1, "schoolCount": 1}, {"name": "CENTURA PUBLIC SCHOOLS", "lat": 41.06229, "lon": -98.617079, "proficiency": 0.545, "schoolCount": 1}, {"name": "DORCHESTER PUBLIC SCHOOL", "lat": 40.649346, "lon": -97.11959, "proficiency": 0.3, "schoolCount": 1}, {"name": "ELBA PUBLIC SCHOOLS", "lat": 41.283486, "lon": -98.566615, "proficiency": 0.245, "schoolCount": 1}, {"name": "ELGIN PUBLIC SCHOOLS", "lat": 41.983585, "lon": -98.080395, "proficiency": 0.695, "schoolCount": 1}, {"name": "ELKHORN PUBLIC SCHOOLS", "lat": 41.27159375, "lon": -96.217185, "proficiency": 0.82, "schoolCount": 4}, {"name": "ELM CREEK PUBLIC SCHOOLS", "lat": 40.720001, "lon": -99.370925, "proficiency": 0.495, "schoolCount": 1}, {"name": "ELWOOD PUBLIC SCHOOLS", "lat": 40.588197, "lon": -99.864948, "proficiency": 0.245, "schoolCount": 1}, {"name": "FAIRBURY PUBLIC SCHOOLS", "lat": 40.141383, "lon": -97.165012, "proficiency": 0.245, "schoolCount": 1}, {"name": "FALLS CITY PUBLIC SCHOOLS", "lat": 40.059634, "lon": -95.59975, "proficiency": 0.445, "schoolCount": 1}, {"name": "FORT CALHOUN COMMUNITY SCHS", "lat": 41.463706, "lon": -96.028384, "proficiency": 0.57, "schoolCount": 1}, {"name": "FREMONT PUBLIC SCHOOLS", "lat": 41.433938, "lon": -96.450552, "proficiency": 0.37, "schoolCount": 1}, {"name": "GARDEN COUNTY SCHOOLS", "lat": 41.404572, "lon": -102.350643, "proficiency": 0.245, "schoolCount": 1}, {"name": "GIBBON PUBLIC SCHOOLS", "lat": 40.738344, "lon": -98.848004, "proficiency": 0.245, "schoolCount": 1}, {"name": "GILTNER PUBLIC SCHOOLS", "lat": 40.771259, "lon": -98.150925, "proficiency": 0.245, "schoolCount": 1}, {"name": "GOTHENBURG PUBLIC SCHOOLS", "lat": 40.93207, "lon": -100.155311, "proficiency": 0.37, "schoolCount": 1}, {"name": "GRETNA PUBLIC SCHOOLS", "lat": 41.143955000000005, "lon": -96.2278015, "proficiency": 0.67, "schoolCount": 2}, {"name": "HAMPTON PUBLIC SCHOOL", "lat": 40.882529, "lon": -97.889237, "proficiency": 0.245, "schoolCount": 1}, {"name": "HARTINGTON NEWCASTLE PUBLIC SCHOOLS", "lat": 42.615304, "lon": -97.263939, "proficiency": 0.495, "schoolCount": 1}, {"name": "HARVARD PUBLIC SCHOOLS", "lat": 40.622206, "lon": -98.090857, "proficiency": 0.245, "schoolCount": 1}, {"name": "HASTINGS PUBLIC SCHOOLS", "lat": 40.585901, "lon": -98.42218, "proficiency": 0.47, "schoolCount": 1}, {"name": "HAY SPRINGS PUBLIC SCHOOLS", "lat": 42.687206, "lon": -102.688135, "proficiency": 0.75, "schoolCount": 1}, {"name": "HEMINGFORD PUBLIC SCHOOLS", "lat": 42.322047, "lon": -103.079305, "proficiency": 0.3, "schoolCount": 1}, {"name": "HERSHEY PUBLIC SCHOOLS", "lat": 41.156103, "lon": -101.001311, "proficiency": 0.445, "schoolCount": 1}, {"name": "HOLDREGE PUBLIC SCHOOLS", "lat": 40.449557, "lon": -99.372262, "proficiency": 0.42, "schoolCount": 1}, {"name": "HOMER COMMUNITY SCHOOLS", "lat": 42.319067, "lon": -96.494194, "proficiency": 0.495, "schoolCount": 1}, {"name": "HUMPHREY PUBLIC SCHOOLS", "lat": 41.688543, "lon": -97.490278, "proficiency": 0.3, "schoolCount": 1}, {"name": "HYANNIS AREA SCHOOLS", "lat": 41.997586, "lon": -101.751364, "proficiency": 0.245, "schoolCount": 1}, {"name": "JOHNSON-BROCK PUBLIC SCHOOLS", "lat": 40.412034, "lon": -95.997128, "proficiency": 0.9, "schoolCount": 1}, {"name": "KEARNEY PUBLIC SCHOOLS", "lat": 40.7154, "lon": -99.07881499999999, "proficiency": 0.62, "schoolCount": 2}, {"name": "KENESAW PUBLIC SCHOOLS", "lat": 40.621282, "lon": -98.651734, "proficiency": 0.75, "schoolCount": 1}, {"name": "KEYA PAHA COUNTY SCHOOLS", "lat": 42.826674, "lon": -99.745594, "proficiency": 0.245, "schoolCount": 1}, {"name": "KIMBALL PUBLIC SCHOOLS", "lat": 41.226997, "lon": -103.655164, "proficiency": 0.1, "schoolCount": 1}, {"name": "LEIGH COMMUNITY SCHOOLS", "lat": 41.70821, "lon": -97.240184, "proficiency": 0.75, "schoolCount": 1}, {"name": "LEWISTON CONSOLIDATED SCHOOLS", "lat": 40.243617, "lon": -96.410209, "proficiency": 0.245, "schoolCount": 1}, {"name": "LEXINGTON PUBLIC SCHOOLS", "lat": 40.7861485, "lon": -99.745491, "proficiency": 0.12, "schoolCount": 2}, {"name": "LINCOLN PUBLIC SCHOOLS", "lat": 40.80411108333333, "lon": -96.66497399999999, "proficiency": 0.505, "schoolCount": 12}, {"name": "LITCHFIELD PUBLIC SCHOOLS", "lat": 41.160432, "lon": -99.155491, "proficiency": 0.245, "schoolCount": 1}, {"name": "LOOMIS PUBLIC SCHOOLS", "lat": 40.475433, "lon": -99.512893, "proficiency": 0.3, "schoolCount": 1}, {"name": "LOUISVILLE PUBLIC SCHOOLS", "lat": 41.000127, "lon": -96.164779, "proficiency": 0.345, "schoolCount": 1}, {"name": "LOUP CITY PUBLIC SCHOOLS", "lat": 41.282761, "lon": -98.967847, "proficiency": 0.1, "schoolCount": 1}, {"name": "LOUP COUNTY PUBLIC SCHOOLS", "lat": 41.767837, "lon": -99.384136, "proficiency": 0.245, "schoolCount": 1}, {"name": "LYONS-DECATUR NORTHEAST SCHS", "lat": 41.933875, "lon": -96.472453, "proficiency": 0.1, "schoolCount": 1}, {"name": "MADISON PUBLIC SCHOOLS", "lat": 41.824052, "lon": -97.457904, "proficiency": 0.3, "schoolCount": 1}, {"name": "MALCOLM PUBLIC SCHOOLS", "lat": 40.914329, "lon": -96.868611, "proficiency": 0.645, "schoolCount": 1}, {"name": "MAYWOOD PUBLIC SCHOOLS", "lat": 40.653749, "lon": -100.618873, "proficiency": 0.75, "schoolCount": 1}, {"name": "MC COOK PUBLIC SCHOOLS", "lat": 40.204709, "lon": -100.63579, "proficiency": 0.57, "schoolCount": 1}, {"name": "MC COOL JUNCTION PUBLIC SCHS", "lat": 40.74261, "lon": -97.596697, "proficiency": 0.1, "schoolCount": 1}, {"name": "MC PHERSON COUNTY SCHOOLS", "lat": 41.55347, "lon": -100.958769, "proficiency": 0.75, "schoolCount": 1}, {"name": "MEAD PUBLIC SCHOOLS", "lat": 41.231811, "lon": -96.487981, "proficiency": 0.245, "schoolCount": 1}, {"name": "MEDICINE VALLEY PUBLIC SCHOOLS", "lat": 40.633095, "lon": -100.522733, "proficiency": 0.245, "schoolCount": 1}, {"name": "MERIDIAN PUBLIC SCHOOLS", "lat": 40.320069, "lon": -97.330052, "proficiency": 0.3, "schoolCount": 1}, {"name": "MILFORD PUBLIC SCHOOLS", "lat": 40.772238, "lon": -97.059571, "proficiency": 0.445, "schoolCount": 1}, {"name": "MILLARD PUBLIC SCHOOLS", "lat": 41.21559633333333, "lon": -96.15680466666667, "proficiency": 0.5367, "schoolCount": 6}, {"name": "MINATARE PUBLIC SCHOOLS", "lat": 41.8128, "lon": -103.501192, "proficiency": 0.245, "schoolCount": 1}, {"name": "MINDEN PUBLIC SCHOOLS", "lat": 40.49801, "lon": -98.957286, "proficiency": 0.57, "schoolCount": 1}, {"name": "MITCHELL PUBLIC SCHOOLS", "lat": 41.946243, "lon": -103.812555, "proficiency": 0.645, "schoolCount": 1}, {"name": "MULLEN PUBLIC SCHOOLS", "lat": 42.045276, "lon": -101.045596, "proficiency": 0.245, "schoolCount": 1}, {"name": "NEBRASKA CITY PUBLIC SCHOOLS", "lat": 40.674914, "lon": -95.856821, "proficiency": 0.37, "schoolCount": 1}, {"name": "CONESTOGA PUBLIC SCHOOLS", "lat": 40.913735, "lon": -95.980588, "proficiency": 0.345, "schoolCount": 1}, {"name": "NELIGH-OAKDALE SCHOOLS", "lat": 42.130936, "lon": -98.024986, "proficiency": 0.495, "schoolCount": 1}, {"name": "NEWMAN GROVE PUBLIC SCHOOLS", "lat": 41.746269, "lon": -97.773933, "proficiency": 0.245, "schoolCount": 1}, {"name": "NIOBRARA PUBLIC SCHOOLS", "lat": 42.752207, "lon": -98.028488, "proficiency": 0.245, "schoolCount": 1}, {"name": "NORFOLK PUBLIC SCHOOLS", "lat": 42.026662, "lon": -97.414537, "proficiency": 0.38, "schoolCount": 1}, {"name": "NORTHWEST PUBLIC SCHOOLS", "lat": 40.98596066666667, "lon": -98.386693, "proficiency": 0.495, "schoolCount": 3}, {"name": "OAKLAND CRAIG PUBLIC SCHOOLS", "lat": 41.836219, "lon": -96.463786, "proficiency": 0.745, "schoolCount": 1}, {"name": "OGALLALA PUBLIC SCHOOLS", "lat": 41.13137, "lon": -101.699971, "proficiency": 0.32, "schoolCount": 1}, {"name": "OMAHA PUBLIC SCHOOLS", "lat": 41.27331875, "lon": -96.02150158333335, "proficiency": 0.2021, "schoolCount": 12}, {"name": "O'NEILL PUBLIC SCHOOLS", "lat": 42.465768, "lon": -98.644684, "proficiency": 0.445, "schoolCount": 1}, {"name": "ORD PUBLIC SCHOOLS", "lat": 41.604507, "lon": -98.932348, "proficiency": 0.245, "schoolCount": 1}, {"name": "OSCEOLA PUBLIC SCHOOLS", "lat": 41.172283, "lon": -97.544554, "proficiency": 0.495, "schoolCount": 1}, {"name": "OSMOND COMMUNITY SCHOOLS", "lat": 42.366498, "lon": -97.599061, "proficiency": 0.75, "schoolCount": 1}, {"name": "OVERTON PUBLIC SCHOOLS", "lat": 40.741137, "lon": -99.537308, "proficiency": 0.3, "schoolCount": 1}, {"name": "PALMYRA DISTRICT O R 1", "lat": 40.703855, "lon": -96.393827, "proficiency": 0.445, "schoolCount": 1}, {"name": "PAPILLION LA VISTA COMMUNITY SCHOOLS", "lat": 41.160852, "lon": -96.05291566666666, "proficiency": 0.55, "schoolCount": 3}, {"name": "PAWNEE CITY PUBLIC SCHOOLS", "lat": 40.110093, "lon": -96.156105, "proficiency": 0.495, "schoolCount": 1}, {"name": "PAXTON CONSOLIDATED SCHOOLS", "lat": 41.12533, "lon": -101.36239, "proficiency": 0.3, "schoolCount": 1}, {"name": "PENDER PUBLIC SCHOOLS", "lat": 42.111582, "lon": -96.710678, "proficiency": 0.495, "schoolCount": 1}, {"name": "PIERCE PUBLIC SCHOOLS", "lat": 42.199747, "lon": -97.539737, "proficiency": 0.745, "schoolCount": 1}, {"name": "PLAINVIEW PUBLIC SCHOOLS", "lat": 42.352693, "lon": -97.791487, "proficiency": 0.695, "schoolCount": 1}, {"name": "SPRINGFIELD PLATTEVIEW COMMUNITY SCHOOLS", "lat": 41.090426, "lon": -96.078843, "proficiency": 0.47, "schoolCount": 1}, {"name": "PLATTSMOUTH COMMUNITY SCHOOLS", "lat": 41.00347, "lon": -95.900345, "proficiency": 0.27, "schoolCount": 1}, {"name": "PLEASANTON PUBLIC SCHOOLS", "lat": 40.97021, "lon": -99.089719, "proficiency": 0.1, "schoolCount": 1}, {"name": "PONCA PUBLIC SCHOOLS", "lat": 42.5643, "lon": -96.712859, "proficiency": 0.3075, "schoolCount": 2}, {"name": "POTTER-DIX PUBLIC SCHOOLS", "lat": 41.216434, "lon": -103.307049, "proficiency": 0.1, "schoolCount": 1}, {"name": "RALSTON PUBLIC SCHOOLS", "lat": 41.209786, "lon": -96.040461, "proficiency": 0.22, "schoolCount": 1}, {"name": "RANDOLPH PUBLIC SCHOOLS", "lat": 42.380271, "lon": -97.359426, "proficiency": 0.245, "schoolCount": 1}, {"name": "RAVENNA PUBLIC SCHOOLS", "lat": 41.030198, "lon": -98.924004, "proficiency": 0.695, "schoolCount": 1}, {"name": "RED CLOUD COMMUNITY SCHOOLS", "lat": 40.092299, "lon": -98.519856, "proficiency": 0.75, "schoolCount": 1}, {"name": "ROCK COUNTY PUBLIC SCHOOLS", "lat": 42.578183, "lon": -99.532173, "proficiency": 0.3, "schoolCount": 1}, {"name": "SANDHILLS PUBLIC SCHOOLS", "lat": 41.826618, "lon": -100.101349, "proficiency": 0.245, "schoolCount": 1}, {"name": "ISANTI COMMUNITY SCHOOL", "lat": 42.838871, "lon": -97.849566, "proficiency": 0.1, "schoolCount": 1}, {"name": "SARGENT PUBLIC SCHOOLS", "lat": 41.644483, "lon": -99.373597, "proficiency": 0.245, "schoolCount": 1}, {"name": "SCHUYLER COMMUNITY SCHOOLS", "lat": 41.479366666666664, "lon": -97.11195433333334, "proficiency": 0.1033, "schoolCount": 3}, {"name": "SCOTTSBLUFF PUBLIC SCHOOLS", "lat": 41.870514, "lon": -103.661373, "proficiency": 0.37, "schoolCount": 1}, {"name": "SEWARD PUBLIC SCHOOLS", "lat": 40.928924, "lon": -97.086859, "proficiency": 0.72, "schoolCount": 1}, {"name": "SHELBY - RISING CITY PUBLIC SCHOOLS", "lat": 41.1987, "lon": -97.42426, "proficiency": 0.3, "schoolCount": 1}, {"name": "SHELTON PUBLIC SCHOOLS", "lat": 40.770789, "lon": -98.7341, "proficiency": 0.245, "schoolCount": 1}, {"name": "SHICKLEY PUBLIC SCHOOLS", "lat": 40.418536, "lon": -97.722501, "proficiency": 0.75, "schoolCount": 1}, {"name": "SIDNEY PUBLIC SCHOOLS", "lat": 41.141828, "lon": -102.988445, "proficiency": 0.47, "schoolCount": 1}, {"name": "SIOUX COUNTY PUBLIC SCHOOLS", "lat": 42.688843, "lon": -103.884784, "proficiency": 0.75, "schoolCount": 1}, {"name": "SO SIOUX CITY COMMUNITY SCHS", "lat": 42.455754, "lon": -96.405452, "proficiency": 0.47, "schoolCount": 1}, {"name": "ST EDWARD PUBLIC SCHOOLS", "lat": 41.571456, "lon": -97.861383, "proficiency": 0.245, "schoolCount": 1}, {"name": "STAPLETON PUBLIC SCHOOLS", "lat": 41.476601, "lon": -100.513461, "proficiency": 0.495, "schoolCount": 1}, {"name": "SOUTHERN SCHOOL DISTRICT 1", "lat": 40.121806, "lon": -96.668398, "proficiency": 0.15, "schoolCount": 1}, {"name": "STERLING PUBLIC SCHOOLS", "lat": 40.460139, "lon": -96.375649, "proficiency": 0.245, "schoolCount": 1}, {"name": "SUMNER-EDDYVILLE-MILLER SCHS", "lat": 40.950132, "lon": -99.50657, "proficiency": 0.3, "schoolCount": 1}, {"name": "SUTTON PUBLIC SCHOOLS", "lat": 40.61784, "lon": -97.859784, "proficiency": 0.3, "schoolCount": 1}, {"name": "SYRACUSE-DUNBAR-AVOCA SCHOOLS", "lat": 40.665395, "lon": -96.180367, "proficiency": 0.745, "schoolCount": 1}, {"name": "THEDFORD PUBLIC SCHOOLS", "lat": 41.979907, "lon": -100.574763, "proficiency": 0.245, "schoolCount": 1}, {"name": "VALENTINE COMMUNITY SCHOOLS", "lat": 42.874129, "lon": -100.554179, "proficiency": 0.445, "schoolCount": 1}, {"name": "VERDIGRE PUBLIC SCHOOLS", "lat": 42.599035, "lon": -98.035745, "proficiency": 0.245, "schoolCount": 1}, {"name": "WAHOO PUBLIC SCHOOLS", "lat": 41.225862, "lon": -96.626783, "proficiency": 0.67, "schoolCount": 1}, {"name": "WAKEFIELD PUBLIC SCHOOLS", "lat": 42.262751, "lon": -96.868426, "proficiency": 0.445, "schoolCount": 1}, {"name": "WALLACE PUBLIC SCH DIST 65 R", "lat": 40.840035, "lon": -101.170415, "proficiency": 0.75, "schoolCount": 1}, {"name": "WALTHILL PUBLIC SCHOOLS", "lat": 42.14776, "lon": -96.49421, "proficiency": 0.1, "schoolCount": 1}, {"name": "WAUSA PUBLIC SCHOOLS", "lat": 42.497198, "lon": -97.542927, "proficiency": 0.495, "schoolCount": 1}, {"name": "WAYNE COMMUNITY SCHOOLS", "lat": 42.234782, "lon": -97.025688, "proficiency": 0.345, "schoolCount": 1}, {"name": "WEEPING WATER PUBLIC SCHOOLS", "lat": 40.865669, "lon": -96.141045, "proficiency": 0.1, "schoolCount": 1}, {"name": "WESTSIDE COMMUNITY SCHOOLS", "lat": 41.236474, "lon": -96.045655, "proficiency": 0.64, "schoolCount": 1}, {"name": "WHEELER CENTRAL SCHOOLS", "lat": 41.885863, "lon": -98.555198, "proficiency": -0.03, "schoolCount": 1}, {"name": "WILBER-CLATONIA PUBLIC SCHOOLS", "lat": 40.475532, "lon": -96.968742, "proficiency": 0.245, "schoolCount": 1}, {"name": "WINNEBAGO PUBLIC SCHOOLS DISTRICT 17", "lat": 42.238637, "lon": -96.473897, "proficiency": 0.15, "schoolCount": 1}, {"name": "WINSIDE PUBLIC SCHOOLS", "lat": 42.178218, "lon": -97.179535, "proficiency": 0.1, "schoolCount": 1}, {"name": "WOOD RIVER RURAL SCHOOLS", "lat": 40.830876, "lon": -98.605349, "proficiency": 0.345, "schoolCount": 1}, {"name": "WYNOT PUBLIC SCHOOLS", "lat": 42.742575, "lon": -97.1705, "proficiency": 0.245, "schoolCount": 1}, {"name": "YORK PUBLIC SCHOOLS", "lat": 40.878728, "lon": -97.575788, "proficiency": 0.37, "schoolCount": 1}, {"name": "YUTAN PUBLIC SCHOOLS", "lat": 41.236856, "lon": -96.396137, "proficiency": 0.495, "schoolCount": 1}], "cities": [{"name": "DAVID CITY", "lat": 41.253149, "lon": -97.12495, "proficiency": 0.645, "schoolCount": 1}, {"name": "BRAINARD", "lat": 41.181737, "lon": -97.001969, "proficiency": 0.3, "schoolCount": 1}, {"name": "COLERIDGE", "lat": 42.504198, "lon": -97.204004, "proficiency": 0.245, "schoolCount": 1}, {"name": "WEST POINT", "lat": 41.840079, "lon": -96.694243, "proficiency": 0.545, "schoolCount": 1}, {"name": "WISNER", "lat": 41.995414, "lon": -96.924422, "proficiency": 0.245, "schoolCount": 1}, {"name": "MERNA", "lat": 41.48587, "lon": -99.767612, "proficiency": 0.245, "schoolCount": 1}, {"name": "BROKEN BOW", "lat": 41.408052, "lon": -99.639939, "proficiency": 0.445, "schoolCount": 1}, {"name": "CALLAWAY", "lat": 41.291574, "lon": -99.919079, "proficiency": 0.3, "schoolCount": 1}, {"name": "CAMBRIDGE", "lat": 40.283374, "lon": -100.173819, "proficiency": 0.495, "schoolCount": 1}, {"name": "GRAND ISLAND", "lat": 40.9263736, "lon": -98.38335500000001, "proficiency": 0.49, "schoolCount": 5}, {"name": "WAUNETA", "lat": 40.41889, "lon": -101.374553, "proficiency": 0.3, "schoolCount": 1}, {"name": "WAVERLY", "lat": 40.903514, "lon": -96.532616, "proficiency": 0.57, "schoolCount": 1}, {"name": "NORTH PLATTE", "lat": 41.123287, "lon": -100.780717, "proficiency": 0.42, "schoolCount": 1}, {"name": "MAXWELL", "lat": 41.077958, "lon": -100.519063, "proficiency": 0.3, "schoolCount": 1}, {"name": "SUTHERLAND", "lat": 41.159992, "lon": -101.125848, "proficiency": 0.035, "schoolCount": 2}, {"name": "TILDEN", "lat": 42.041615, "lon": -97.832167, "proficiency": 0.3, "schoolCount": 1}, {"name": "SUPERIOR", "lat": 40.023404, "lon": -98.078536, "proficiency": 0.1, "schoolCount": 1}, {"name": "ASHLAND", "lat": 41.045895, "lon": -96.374197, "proficiency": 0.37, "schoolCount": 1}, {"name": "STANTON", "lat": 41.951879, "lon": -97.224495, "proficiency": 0.345, "schoolCount": 1}, {"name": "HASTINGS", "lat": 40.580990666666665, "lon": -98.44086733333332, "proficiency": 0.2867, "schoolCount": 3}, {"name": "FRANKLIN", "lat": 40.095679, "lon": -98.959219, "proficiency": 0.3, "schoolCount": 1}, {"name": "ROSELAND", "lat": 40.46825, "lon": -98.558172, "proficiency": 0.1, "schoolCount": 1}, {"name": "HARRISBURG", "lat": 41.558329, "lon": -103.745483, "proficiency": 0.245, "schoolCount": 1}, {"name": "AMHERST", "lat": 40.837842, "lon": -99.265154, "proficiency": 0.3, "schoolCount": 1}, {"name": "TEKAMAH", "lat": 41.778946, "lon": -96.221707, "proficiency": 0.345, "schoolCount": 1}, {"name": "GURLEY", "lat": 41.321143, "lon": -102.968646, "proficiency": 0.245, "schoolCount": 1}, {"name": "ARNOLD", "lat": 41.42576, "lon": -100.191892, "proficiency": 0.245, "schoolCount": 1}, {"name": "SCRIBNER", "lat": 41.669978, "lon": -96.664525, "proficiency": 0.245, "schoolCount": 1}, {"name": "BENKELMAN", "lat": 40.052509, "lon": -101.538065, "proficiency": 0.1, "schoolCount": 1}, {"name": "ALMA", "lat": 40.102992, "lon": -99.361645, "proficiency": 0.3, "schoolCount": 1}, {"name": "STUART", "lat": 42.600031, "lon": -99.137933, "proficiency": 0.495, "schoolCount": 1}, {"name": "ST PAUL", "lat": 41.212805, "lon": -98.466063, "proficiency": 0.345, "schoolCount": 1}, {"name": "FIRTH", "lat": 40.564774, "lon": -96.632474, "proficiency": 0.37, "schoolCount": 1}, {"name": "PALMER", "lat": 41.223016, "lon": -98.266139, "proficiency": 0.495, "schoolCount": 1}, {"name": "BAYARD", "lat": 41.758379, "lon": -103.318396, "proficiency": 0.15, "schoolCount": 1}, {"name": "FULLERTON", "lat": 41.362901, "lon": -97.97213, "proficiency": 0.3, "schoolCount": 1}, {"name": "CRETE", "lat": 40.628584, "lon": -96.943366, "proficiency": 0.57, "schoolCount": 1}, {"name": "FRIEND", "lat": 40.650564, "lon": -97.288139, "proficiency": 0.75, "schoolCount": 1}, {"name": "MORRILL", "lat": 41.966086, "lon": -103.921696, "proficiency": 0.3, "schoolCount": 1}, {"name": "GERING", "lat": 41.826304, "lon": -103.657512, "proficiency": 0.32, "schoolCount": 1}, {"name": "UTICA", "lat": 40.888958, "lon": -97.351518, "proficiency": 0.495, "schoolCount": 1}, {"name": "BRIDGEPORT", "lat": 41.667203, "lon": -103.093298, "proficiency": 0.495, "schoolCount": 1}, {"name": "OXFORD", "lat": 40.145342, "lon": -99.642407, "proficiency": 0.695, "schoolCount": 1}, {"name": "BIG SPRINGS", "lat": 41.066784, "lon": -102.069204, "proficiency": 0.3, "schoolCount": 1}, {"name": "EUSTIS", "lat": 40.666871, "lon": -100.02676, "proficiency": 0.245, "schoolCount": 1}, {"name": "COLUMBUS", "lat": 41.469852, "lon": -97.3646765, "proficiency": 0.42, "schoolCount": 2}, {"name": "HOOPER", "lat": 41.653083, "lon": -96.503838, "proficiency": 0.345, "schoolCount": 1}, {"name": "NORTH BEND", "lat": 41.469483, "lon": -96.786428, "proficiency": 0.645, "schoolCount": 1}, {"name": "ADAMS", "lat": 40.457628, "lon": -96.511981, "proficiency": 0.745, "schoolCount": 1}, {"name": "HENDERSON", "lat": 40.782792, "lon": -97.810443, "proficiency": 0.695, "schoolCount": 1}, {"name": "FAIRMONT", "lat": 40.635711, "lon": -97.580021, "proficiency": 0.745, "schoolCount": 1}, {"name": "TRENTON", "lat": 40.175425, "lon": -101.016348, "proficiency": 0.495, "schoolCount": 1}, {"name": "DONIPHAN", "lat": 40.772324, "lon": -98.372313, "proficiency": 0.545, "schoolCount": 1}, {"name": "FAIRFIELD", "lat": 40.43312, "lon": -98.052788, "proficiency": 0.9, "schoolCount": 1}, {"name": "NELSON", "lat": 40.196417, "lon": -98.073946, "proficiency": 0.495, "schoolCount": 1}, {"name": "POLK", "lat": 41.073353, "lon": -97.781588, "proficiency": 0.695, "schoolCount": 1}, {"name": "DAVENPORT", "lat": 40.313404, "lon": -97.809943, "proficiency": 0.495, "schoolCount": 1}, {"name": "ODELL", "lat": 40.052415, "lon": -96.802191, "proficiency": 0.3, "schoolCount": 1}, {"name": "GENOA", "lat": 41.449173, "lon": -97.735708, "proficiency": 0.245, "schoolCount": 1}, {"name": "STROMSBURG", "lat": 41.078409, "lon": -97.603255, "proficiency": 0.545, "schoolCount": 1}, {"name": "HEBRON", "lat": 40.170862, "lon": -97.582591, "proficiency": 0.545, "schoolCount": 1}, {"name": "EXETER", "lat": 40.642844, "lon": -97.445525, "proficiency": 0.75, "schoolCount": 1}, {"name": "WILCOX", "lat": 40.365333, "lon": -99.165349, "proficiency": 0.495, "schoolCount": 1}, {"name": "CHAPPELL", "lat": 41.093601, "lon": -102.461997, "proficiency": 0.245, "schoolCount": 1}, {"name": "EMERSON", "lat": 42.272568, "lon": -96.72424, "proficiency": 0.245, "schoolCount": 1}, {"name": "GRANT", "lat": 40.846129, "lon": -101.730141, "proficiency": 0.345, "schoolCount": 1}, {"name": "IMPERIAL", "lat": 40.520729, "lon": -101.634291, "proficiency": 0.645, "schoolCount": 1}, {"name": "VALLEY", "lat": 41.309305, "lon": -96.343112, "proficiency": 0.42, "schoolCount": 1}, {"name": "RUSHVILLE", "lat": 42.715598, "lon": -102.459965, "proficiency": 0.645, "schoolCount": 1}, {"name": "ATKINSON", "lat": 42.540597, "lon": -98.978321, "proficiency": 0.695, "schoolCount": 1}, {"name": "COOK", "lat": 40.513789, "lon": -96.161514, "proficiency": 0.445, "schoolCount": 1}, {"name": "BARTLEY", "lat": 40.257527, "lon": -100.307572, "proficiency": 0.3, "schoolCount": 1}, {"name": "HUMBOLDT", "lat": 40.168403, "lon": -95.946783, "proficiency": 0.1, "schoolCount": 1}, {"name": "HOWELLS", "lat": 41.72414, "lon": -97.005846, "proficiency": 0.3, "schoolCount": 1}, {"name": "SPALDING", "lat": 41.68855, "lon": -98.36001, "proficiency": 0.495, "schoolCount": 1}, {"name": "GREELEY", "lat": 41.550882, "lon": -98.529926, "proficiency": 0.3, "schoolCount": 1}, {"name": "SPENCER", "lat": 42.875616, "lon": -98.70061, "proficiency": 0.1, "schoolCount": 1}, {"name": "MURDOCK", "lat": 40.926254, "lon": -96.284292, "proficiency": 0.495, "schoolCount": 1}, {"name": "AINSWORTH", "lat": 42.547374, "lon": -99.856161, "proficiency": 0.695, "schoolCount": 1}, {"name": "ALBION", "lat": 41.687848, "lon": -98.003457, "proficiency": 0.245, "schoolCount": 1}, {"name": "ALLEN", "lat": 42.412401, "lon": -96.843883, "proficiency": 0.3, "schoolCount": 1}, {"name": "ALLIANCE", "lat": 42.106113, "lon": -102.8719, "proficiency": 0.22, "schoolCount": 1}, {"name": "ANSLEY", "lat": 41.291196, "lon": -99.378778, "proficiency": 0.245, "schoolCount": 1}, {"name": "ARAPAHOE", "lat": 40.309266, "lon": -99.896414, "proficiency": 0.3, "schoolCount": 1}, {"name": "ARCADIA", "lat": 41.425771, "lon": -99.1291, "proficiency": 0.245, "schoolCount": 1}, {"name": "ARLINGTON", "lat": 41.457578, "lon": -96.360093, "proficiency": 0.645, "schoolCount": 1}, {"name": "ARTHUR", "lat": 41.568939, "lon": -101.689204, "proficiency": 0.245, "schoolCount": 1}, {"name": "AUBURN", "lat": 40.391429, "lon": -95.850832, "proficiency": 0.445, "schoolCount": 1}, {"name": "AURORA", "lat": 40.866131, "lon": -98.014478, "proficiency": 0.42, "schoolCount": 1}, {"name": "AXTELL", "lat": 40.480878, "lon": -99.125723, "proficiency": 0.495, "schoolCount": 1}, {"name": "BANCROFT", "lat": 42.009118, "lon": -96.572119, "proficiency": 0.3, "schoolCount": 1}, {"name": "BATTLE CREEK", "lat": 41.994793, "lon": -97.606189, "proficiency": 0.345, "schoolCount": 1}, {"name": "BEATRICE", "lat": 40.26786, "lon": -96.748608, "proficiency": 0.42, "schoolCount": 1}, {"name": "BELLEVUE", "lat": 41.133885, "lon": -95.92793733333333, "proficiency": 0.4867, "schoolCount": 3}, {"name": "BENNINGTON", "lat": 41.363786, "lon": -96.176532, "proficiency": 0.72, "schoolCount": 1}, {"name": "BERTRAND", "lat": 40.522401, "lon": -99.63168, "proficiency": 0.495, "schoolCount": 1}, {"name": "BLAIR", "lat": 41.546073, "lon": -96.120706, "proficiency": 0.57, "schoolCount": 1}, {"name": "BLOOMFIELD", "lat": 42.59491, "lon": -97.643085, "proficiency": 0.695, "schoolCount": 1}, {"name": "BLUE HILL", "lat": 40.326765, "lon": -98.450186, "proficiency": 0.695, "schoolCount": 1}, {"name": "BRADY", "lat": 41.024172, "lon": -100.364071, "proficiency": 0.3, "schoolCount": 1}, {"name": "BURWELL", "lat": 41.778971, "lon": -99.12748, "proficiency": 0.695, "schoolCount": 1}, {"name": "CEDAR BLUFFS", "lat": 41.397438, "lon": -96.608447, "proficiency": 0.495, "schoolCount": 1}, {"name": "CENTRAL CITY", "lat": 41.10294, "lon": -97.999894, "proficiency": 0.545, "schoolCount": 1}, {"name": "RAYMOND", "lat": 41.022805, "lon": -96.746884, "proficiency": 0.245, "schoolCount": 1}, {"name": "CHADRON", "lat": 42.824595, "lon": -102.995184, "proficiency": 0.77, "schoolCount": 1}, {"name": "CHAMBERS", "lat": 42.203379, "lon": -98.751062, "proficiency": 0.75, "schoolCount": 1}, {"name": "CLARKSON", "lat": 41.719656, "lon": -97.123818, "proficiency": 0.3, "schoolCount": 1}, {"name": "CODY", "lat": 42.938003, "lon": -101.248669, "proficiency": 0.695, "schoolCount": 1}, {"name": "COZAD", "lat": 40.868926, "lon": -99.985437, "proficiency": 0.57, "schoolCount": 1}, {"name": "CRAWFORD", "lat": 42.680476, "lon": -103.406617, "proficiency": 0.75, "schoolCount": 1}, {"name": "CREIGHTON", "lat": 42.456655, "lon": -97.905667, "proficiency": 0.695, "schoolCount": 1}, {"name": "CROFTON", "lat": 42.736785, "lon": -97.50441, "proficiency": 0.75, "schoolCount": 1}, {"name": "DESHLER", "lat": 40.134195, "lon": -97.723535, "proficiency": 0.495, "schoolCount": 1}, {"name": "DEWITT", "lat": 40.336844, "lon": -96.917549, "proficiency": 0.545, "schoolCount": 1}, {"name": "HAYES CENTER", "lat": 40.511479, "lon": -101.017824, "proficiency": 0.245, "schoolCount": 1}, {"name": "MACY", "lat": 42.113326, "lon": -96.355144, "proficiency": 0.1, "schoolCount": 1}, {"name": "CAIRO", "lat": 41.06229, "lon": -98.617079, "proficiency": 0.545, "schoolCount": 1}, {"name": "DORCHESTER", "lat": 40.649346, "lon": -97.11959, "proficiency": 0.3, "schoolCount": 1}, {"name": "ELBA", "lat": 41.283486, "lon": -98.566615, "proficiency": 0.245, "schoolCount": 1}, {"name": "ELGIN", "lat": 41.983585, "lon": -98.080395, "proficiency": 0.695, "schoolCount": 1}, {"name": "ELKHORN", "lat": 41.266712, "lon": -96.240501, "proficiency": 0.82, "schoolCount": 2}, {"name": "OMAHA", "lat": 41.255372761904766, "lon": -96.0777257142857, "proficiency": 0.3774, "schoolCount": 21}, {"name": "ELM CREEK", "lat": 40.720001, "lon": -99.370925, "proficiency": 0.495, "schoolCount": 1}, {"name": "ELWOOD", "lat": 40.588197, "lon": -99.864948, "proficiency": 0.245, "schoolCount": 1}, {"name": "FAIRBURY", "lat": 40.141383, "lon": -97.165012, "proficiency": 0.245, "schoolCount": 1}, {"name": "FALLS CITY", "lat": 40.059634, "lon": -95.59975, "proficiency": 0.445, "schoolCount": 1}, {"name": "FORT CALHOUN", "lat": 41.463706, "lon": -96.028384, "proficiency": 0.57, "schoolCount": 1}, {"name": "FREMONT", "lat": 41.433938, "lon": -96.450552, "proficiency": 0.37, "schoolCount": 1}, {"name": "OSHKOSH", "lat": 41.404572, "lon": -102.350643, "proficiency": 0.245, "schoolCount": 1}, {"name": "GIBBON", "lat": 40.738344, "lon": -98.848004, "proficiency": 0.245, "schoolCount": 1}, {"name": "GILTNER", "lat": 40.771259, "lon": -98.150925, "proficiency": 0.245, "schoolCount": 1}, {"name": "GOTHENBURG", "lat": 40.93207, "lon": -100.155311, "proficiency": 0.37, "schoolCount": 1}, {"name": "GRETNA", "lat": 41.143955000000005, "lon": -96.2278015, "proficiency": 0.67, "schoolCount": 2}, {"name": "HAMPTON", "lat": 40.882529, "lon": -97.889237, "proficiency": 0.245, "schoolCount": 1}, {"name": "HARTINGTON", "lat": 42.615304, "lon": -97.263939, "proficiency": 0.495, "schoolCount": 1}, {"name": "HARVARD", "lat": 40.622206, "lon": -98.090857, "proficiency": 0.245, "schoolCount": 1}, {"name": "HAY SPRINGS", "lat": 42.687206, "lon": -102.688135, "proficiency": 0.75, "schoolCount": 1}, {"name": "HEMINGFORD", "lat": 42.322047, "lon": -103.079305, "proficiency": 0.3, "schoolCount": 1}, {"name": "HERSHEY", "lat": 41.156103, "lon": -101.001311, "proficiency": 0.445, "schoolCount": 1}, {"name": "HOLDREGE", "lat": 40.449557, "lon": -99.372262, "proficiency": 0.42, "schoolCount": 1}, {"name": "HOMER", "lat": 42.319067, "lon": -96.494194, "proficiency": 0.495, "schoolCount": 1}, {"name": "HUMPHREY", "lat": 41.688543, "lon": -97.490278, "proficiency": 0.3, "schoolCount": 1}, {"name": "HYANNIS", "lat": 41.997586, "lon": -101.751364, "proficiency": 0.245, "schoolCount": 1}, {"name": "JOHNSON", "lat": 40.412034, "lon": -95.997128, "proficiency": 0.9, "schoolCount": 1}, {"name": "KEARNEY", "lat": 40.7154, "lon": -99.07881499999999, "proficiency": 0.62, "schoolCount": 2}, {"name": "KENESAW", "lat": 40.621282, "lon": -98.651734, "proficiency": 0.75, "schoolCount": 1}, {"name": "SPRINGVIEW", "lat": 42.826674, "lon": -99.745594, "proficiency": 0.245, "schoolCount": 1}, {"name": "KIMBALL", "lat": 41.226997, "lon": -103.655164, "proficiency": 0.1, "schoolCount": 1}, {"name": "LEIGH", "lat": 41.70821, "lon": -97.240184, "proficiency": 0.75, "schoolCount": 1}, {"name": "LEWISTON", "lat": 40.243617, "lon": -96.410209, "proficiency": 0.245, "schoolCount": 1}, {"name": "LEXINGTON", "lat": 40.7861485, "lon": -99.745491, "proficiency": 0.12, "schoolCount": 2}, {"name": "LINCOLN", "lat": 40.80411108333333, "lon": -96.66497399999999, "proficiency": 0.505, "schoolCount": 12}, {"name": "LITCHFIELD", "lat": 41.160432, "lon": -99.155491, "proficiency": 0.245, "schoolCount": 1}, {"name": "LOOMIS", "lat": 40.475433, "lon": -99.512893, "proficiency": 0.3, "schoolCount": 1}, {"name": "LOUISVILLE", "lat": 41.000127, "lon": -96.164779, "proficiency": 0.345, "schoolCount": 1}, {"name": "LOUP CITY", "lat": 41.282761, "lon": -98.967847, "proficiency": 0.1, "schoolCount": 1}, {"name": "TAYLOR", "lat": 41.767837, "lon": -99.384136, "proficiency": 0.245, "schoolCount": 1}, {"name": "LYONS", "lat": 41.933875, "lon": -96.472453, "proficiency": 0.1, "schoolCount": 1}, {"name": "MADISON", "lat": 41.824052, "lon": -97.457904, "proficiency": 0.3, "schoolCount": 1}, {"name": "MALCOLM", "lat": 40.914329, "lon": -96.868611, "proficiency": 0.645, "schoolCount": 1}, {"name": "MAYWOOD", "lat": 40.653749, "lon": -100.618873, "proficiency": 0.75, "schoolCount": 1}, {"name": "MC COOK", "lat": 40.204709, "lon": -100.63579, "proficiency": 0.57, "schoolCount": 1}, {"name": "MCCOOL JUNCTION", "lat": 40.74261, "lon": -97.596697, "proficiency": 0.1, "schoolCount": 1}, {"name": "TRYON", "lat": 41.55347, "lon": -100.958769, "proficiency": 0.75, "schoolCount": 1}, {"name": "MEAD", "lat": 41.231811, "lon": -96.487981, "proficiency": 0.245, "schoolCount": 1}, {"name": "CURTIS", "lat": 40.633095, "lon": -100.522733, "proficiency": 0.245, "schoolCount": 1}, {"name": "DAYKIN", "lat": 40.320069, "lon": -97.330052, "proficiency": 0.3, "schoolCount": 1}, {"name": "MILFORD", "lat": 40.772238, "lon": -97.059571, "proficiency": 0.445, "schoolCount": 1}, {"name": "MINATARE", "lat": 41.8128, "lon": -103.501192, "proficiency": 0.245, "schoolCount": 1}, {"name": "MINDEN", "lat": 40.49801, "lon": -98.957286, "proficiency": 0.57, "schoolCount": 1}, {"name": "MITCHELL", "lat": 41.946243, "lon": -103.812555, "proficiency": 0.645, "schoolCount": 1}, {"name": "MULLEN", "lat": 42.045276, "lon": -101.045596, "proficiency": 0.245, "schoolCount": 1}, {"name": "NEBRASKA CITY", "lat": 40.674914, "lon": -95.856821, "proficiency": 0.37, "schoolCount": 1}, {"name": "MURRAY", "lat": 40.913735, "lon": -95.980588, "proficiency": 0.345, "schoolCount": 1}, {"name": "NELIGH", "lat": 42.130936, "lon": -98.024986, "proficiency": 0.495, "schoolCount": 1}, {"name": "NEWMAN GROVE", "lat": 41.746269, "lon": -97.773933, "proficiency": 0.245, "schoolCount": 1}, {"name": "NIOBRARA", "lat": 42.795539, "lon": -97.939027, "proficiency": 0.1725, "schoolCount": 2}, {"name": "NORFOLK", "lat": 42.026662, "lon": -97.414537, "proficiency": 0.38, "schoolCount": 1}, {"name": "ST LIBORY", "lat": 41.094926, "lon": -98.36252, "proficiency": 0.245, "schoolCount": 1}, {"name": "OAKLAND", "lat": 41.836219, "lon": -96.463786, "proficiency": 0.745, "schoolCount": 1}, {"name": "OGALLALA", "lat": 41.13137, "lon": -101.699971, "proficiency": 0.32, "schoolCount": 1}, {"name": "O'NEILL", "lat": 42.465768, "lon": -98.644684, "proficiency": 0.445, "schoolCount": 1}, {"name": "ORD", "lat": 41.604507, "lon": -98.932348, "proficiency": 0.245, "schoolCount": 1}, {"name": "OSCEOLA", "lat": 41.172283, "lon": -97.544554, "proficiency": 0.495, "schoolCount": 1}, {"name": "OSMOND", "lat": 42.366498, "lon": -97.599061, "proficiency": 0.75, "schoolCount": 1}, {"name": "OVERTON", "lat": 40.741137, "lon": -99.537308, "proficiency": 0.3, "schoolCount": 1}, {"name": "PALMYRA", "lat": 40.703855, "lon": -96.393827, "proficiency": 0.445, "schoolCount": 1}, {"name": "LA VISTA", "lat": 41.178038, "lon": -96.03865, "proficiency": 0.46, "schoolCount": 1}, {"name": "PAPILLION", "lat": 41.152259, "lon": -96.0600485, "proficiency": 0.595, "schoolCount": 2}, {"name": "PAWNEE CITY", "lat": 40.110093, "lon": -96.156105, "proficiency": 0.495, "schoolCount": 1}, {"name": "PAXTON", "lat": 41.12533, "lon": -101.36239, "proficiency": 0.3, "schoolCount": 1}, {"name": "PENDER", "lat": 42.111582, "lon": -96.710678, "proficiency": 0.495, "schoolCount": 1}, {"name": "PIERCE", "lat": 42.199747, "lon": -97.539737, "proficiency": 0.745, "schoolCount": 1}, {"name": "PLAINVIEW", "lat": 42.352693, "lon": -97.791487, "proficiency": 0.695, "schoolCount": 1}, {"name": "SPRINGFIELD", "lat": 41.090426, "lon": -96.078843, "proficiency": 0.47, "schoolCount": 1}, {"name": "PLATTSMOUTH", "lat": 41.00347, "lon": -95.900345, "proficiency": 0.27, "schoolCount": 1}, {"name": "PLEASANTON", "lat": 40.97021, "lon": -99.089719, "proficiency": 0.1, "schoolCount": 1}, {"name": "PONCA", "lat": 42.5643, "lon": -96.712859, "proficiency": 0.3075, "schoolCount": 2}, {"name": "POTTER", "lat": 41.216434, "lon": -103.307049, "proficiency": 0.1, "schoolCount": 1}, {"name": "RALSTON", "lat": 41.209786, "lon": -96.040461, "proficiency": 0.22, "schoolCount": 1}, {"name": "RANDOLPH", "lat": 42.380271, "lon": -97.359426, "proficiency": 0.245, "schoolCount": 1}, {"name": "RAVENNA", "lat": 41.030198, "lon": -98.924004, "proficiency": 0.695, "schoolCount": 1}, {"name": "RED CLOUD", "lat": 40.092299, "lon": -98.519856, "proficiency": 0.75, "schoolCount": 1}, {"name": "BASSETT", "lat": 42.578183, "lon": -99.532173, "proficiency": 0.3, "schoolCount": 1}, {"name": "DUNNING", "lat": 41.826618, "lon": -100.101349, "proficiency": 0.245, "schoolCount": 1}, {"name": "SARGENT", "lat": 41.644483, "lon": -99.373597, "proficiency": 0.245, "schoolCount": 1}, {"name": "RICHLAND", "lat": 41.46628, "lon": -97.21499, "proficiency": -0.03, "schoolCount": 1}, {"name": "SCHUYLER", "lat": 41.485910000000004, "lon": -97.0604365, "proficiency": 0.17, "schoolCount": 2}, {"name": "SCOTTSBLUFF", "lat": 41.870514, "lon": -103.661373, "proficiency": 0.37, "schoolCount": 1}, {"name": "SEWARD", "lat": 40.928924, "lon": -97.086859, "proficiency": 0.72, "schoolCount": 1}, {"name": "SHELBY", "lat": 41.1987, "lon": -97.42426, "proficiency": 0.3, "schoolCount": 1}, {"name": "SHELTON", "lat": 40.770789, "lon": -98.7341, "proficiency": 0.245, "schoolCount": 1}, {"name": "SHICKLEY", "lat": 40.418536, "lon": -97.722501, "proficiency": 0.75, "schoolCount": 1}, {"name": "SIDNEY", "lat": 41.141828, "lon": -102.988445, "proficiency": 0.47, "schoolCount": 1}, {"name": "HARRISON", "lat": 42.688843, "lon": -103.884784, "proficiency": 0.75, "schoolCount": 1}, {"name": "SO SIOUX CITY", "lat": 42.455754, "lon": -96.405452, "proficiency": 0.47, "schoolCount": 1}, {"name": "ST EDWARD", "lat": 41.571456, "lon": -97.861383, "proficiency": 0.245, "schoolCount": 1}, {"name": "STAPLETON", "lat": 41.476601, "lon": -100.513461, "proficiency": 0.495, "schoolCount": 1}, {"name": "WYMORE", "lat": 40.121806, "lon": -96.668398, "proficiency": 0.15, "schoolCount": 1}, {"name": "STERLING", "lat": 40.460139, "lon": -96.375649, "proficiency": 0.245, "schoolCount": 1}, {"name": "SUMNER", "lat": 40.950132, "lon": -99.50657, "proficiency": 0.3, "schoolCount": 1}, {"name": "SUTTON", "lat": 40.61784, "lon": -97.859784, "proficiency": 0.3, "schoolCount": 1}, {"name": "SYRACUSE", "lat": 40.665395, "lon": -96.180367, "proficiency": 0.745, "schoolCount": 1}, {"name": "THEDFORD", "lat": 41.979907, "lon": -100.574763, "proficiency": 0.245, "schoolCount": 1}, {"name": "VALENTINE", "lat": 42.874129, "lon": -100.554179, "proficiency": 0.445, "schoolCount": 1}, {"name": "VERDIGRE", "lat": 42.599035, "lon": -98.035745, "proficiency": 0.245, "schoolCount": 1}, {"name": "WAHOO", "lat": 41.225862, "lon": -96.626783, "proficiency": 0.67, "schoolCount": 1}, {"name": "WAKEFIELD", "lat": 42.262751, "lon": -96.868426, "proficiency": 0.445, "schoolCount": 1}, {"name": "WALLACE", "lat": 40.840035, "lon": -101.170415, "proficiency": 0.75, "schoolCount": 1}, {"name": "WALTHILL", "lat": 42.14776, "lon": -96.49421, "proficiency": 0.1, "schoolCount": 1}, {"name": "WAUSA", "lat": 42.497198, "lon": -97.542927, "proficiency": 0.495, "schoolCount": 1}, {"name": "WAYNE", "lat": 42.234782, "lon": -97.025688, "proficiency": 0.345, "schoolCount": 1}, {"name": "WEEPING WATER", "lat": 40.865669, "lon": -96.141045, "proficiency": 0.1, "schoolCount": 1}, {"name": "BARTLETT", "lat": 41.885863, "lon": -98.555198, "proficiency": -0.03, "schoolCount": 1}, {"name": "WILBER", "lat": 40.475532, "lon": -96.968742, "proficiency": 0.245, "schoolCount": 1}, {"name": "WINNEBAGO", "lat": 42.238637, "lon": -96.473897, "proficiency": 0.15, "schoolCount": 1}, {"name": "WINSIDE", "lat": 42.178218, "lon": -97.179535, "proficiency": 0.1, "schoolCount": 1}, {"name": "WOOD RIVER", "lat": 40.830876, "lon": -98.605349, "proficiency": 0.345, "schoolCount": 1}, {"name": "WYNOT", "lat": 42.742575, "lon": -97.1705, "proficiency": 0.245, "schoolCount": 1}, {"name": "YORK", "lat": 40.878728, "lon": -97.575788, "proficiency": 0.37, "schoolCount": 1}, {"name": "YUTAN", "lat": 41.236856, "lon": -96.396137, "proficiency": 0.495, "schoolCount": 1}]}