{"state": "NH", "stateName": "New Hampshire", "year": 2020, "naep": {"text": "7 out of 10", "numerator": 7, "denominator": 10}, "schools": [{"name": "Cooperative Middle School", "lat": 42.981645, "lon": -70.900243, "proficiency": 0.37, "district": "Exeter Region Cooperative School District", "city": "Stratham", "ncessch": "330001700107"}, {"name": "Seacoast Charter School", "lat": 43.214943, "lon": -70.920513, "proficiency": 0.345, "district": "Seacoast Charter School", "city": "Dover", "ncessch": "330003100606"}, {"name": "Gorham Middle School", "lat": 44.390094, "lon": -71.178005, "proficiency": 0.445, "district": "Gorham Randolph Shelburne Cooperative School District", "city": "Gorham", "ncessch": "330003500047"}, {"name": "Surry Village Charter School", "lat": 43.014071, "lon": -72.322572, "proficiency": 0.245, "district": "Surry Village Charter School", "city": "Surry", "ncessch": "330003900617"}, {"name": "Academy for Science and Design Charter (M)", "lat": 42.790368, "lon": -71.523923, "proficiency": 0.745, "district": "Academy for Science and Design Charter School", "city": "Nashua", "ncessch": "330004000678"}, {"name": "Strong Foundations Charter School", "lat": 43.195479, "lon": -71.483889, "proficiency": 0.3, "district": "Strong Foundations Charter School", "city": "Pembroke", "ncessch": "330004200683"}, {"name": "Great Bay Charter School (M)", "lat": 42.975703, "lon": -70.956147, "proficiency": 0.245, "district": "Great Bay Charter School", "city": "Exeter", "ncessch": "330004800688"}, {"name": "Nute Junior High School", "lat": 43.408567, "lon": -70.991113, "proficiency": 0.05, "district": "Milton School District", "city": "Milton", "ncessch": "330061600296"}, {"name": "Armand R. Dupont School", "lat": 43.12755, "lon": -71.453247, "proficiency": 0.345, "district": "Allenstown School District", "city": "Allenstown", "ncessch": "330138000002"}, {"name": "Alton Central School (Elem)", "lat": 43.452925, "lon": -71.222564, "proficiency": 0.245, "district": "Alton School District", "city": "Alton", "ncessch": "330144000003"}, {"name": "Amherst Middle School", "lat": 42.824254, "lon": -71.577012, "proficiency": 0.42, "district": "Amherst School District", "city": "Amherst", "ncessch": "330147000007"}, {"name": "Andover Elementary School", "lat": 43.434864, "lon": -71.820862, "proficiency": 0.15, "district": "Andover School District", "city": "Andover", "ncessch": "330150000008"}, {"name": "Ashland Elementary School", "lat": 43.697545, "lon": -71.634821, "proficiency": 0.245, "district": "Ashland School District", "city": "Ashland", "ncessch": "330156000010"}, {"name": "Auburn Village School", "lat": 43.007379, "lon": -71.347237, "proficiency": 0.32, "district": "Auburn School District", "city": "Auburn", "ncessch": "330159000011"}, {"name": "Barnstead Elementary School", "lat": 43.348468, "lon": -71.262179, "proficiency": 0.1, "district": "Barnstead School District", "city": "Ctr. Barnstead", "ncessch": "330162000012"}, {"name": "Barrington Middle School", "lat": 43.20926, "lon": -70.987571, "proficiency": 0.42, "district": "Barrington School District", "city": "Barrington", "ncessch": "330165000014"}, {"name": "Josiah Bartlett Elementary School", "lat": 44.077414, "lon": -71.279699, "proficiency": 0.495, "district": "Bartlett School District", "city": "Bartlett", "ncessch": "330168000015"}, {"name": "Ross A. Lurgio Middle School", "lat": 42.93716, "lon": -71.519506, "proficiency": 0.64, "district": "Bedford School District", "city": "Bedford", "ncessch": "330174000681"}, {"name": "Berlin Middle School", "lat": 44.482139, "lon": -71.188207, "proficiency": 0.075, "district": "Berlin School District", "city": "Berlin", "ncessch": "330186000024"}, {"name": "Bow Memorial School", "lat": 43.150866, "lon": -71.537855, "proficiency": 0.27, "district": "Bow School District", "city": "Bow", "ncessch": "330195000029"}, {"name": "Campton Elementary School", "lat": 43.851204, "lon": -71.634148, "proficiency": 0.3, "district": "Campton School District", "city": "Campton", "ncessch": "330210000032"}, {"name": "Henry W. Moore School", "lat": 43.063053, "lon": -71.288948, "proficiency": 0.495, "district": "Candia School District", "city": "Candia", "ncessch": "330213000033"}, {"name": "Chester Academy", "lat": 42.959335, "lon": -71.25201, "proficiency": 0.17, "district": "Chester School District", "city": "Chester", "ncessch": "330225000035"}, {"name": "Chesterfield Central School", "lat": 42.886369, "lon": -72.469174, "proficiency": 0.495, "district": "Chesterfield School District", "city": "Chesterfield", "ncessch": "330228000036"}, {"name": "Chichester Central School", "lat": 43.254733, "lon": -71.378543, "proficiency": 0.495, "district": "Chichester School District", "city": "Chichester", "ncessch": "330231000037"}, {"name": "Claremont Middle School", "lat": 43.363654, "lon": -72.335818, "proficiency": 0.27, "district": "Claremont School District", "city": "Claremont", "ncessch": "330234000039"}, {"name": "Colebrook Academy and Elementary School (E)", "lat": 44.892243, "lon": -71.49916, "proficiency": 0.1, "district": "Colebrook School District", "city": "Colebrook", "ncessch": "330240000050"}, {"name": "Rundlett Middle School", "lat": 43.189478, "lon": -71.543379, "proficiency": 0.22, "district": "Concord School District", "city": "Concord", "ncessch": "330246000063"}, {"name": "Great Brook School", "lat": 43.029094, "lon": -71.943015, "proficiency": 0.22, "district": "Contoocook Valley School District", "city": "Antrim", "ncessch": "330248000066"}, {"name": "South Meadow School", "lat": 42.906214, "lon": -71.938458, "proficiency": 0.42, "district": "Contoocook Valley School District", "city": "Peterborough", "ncessch": "330248000073"}, {"name": "A. Crosby Kennett Middle School", "lat": 43.979215, "lon": -71.126359, "proficiency": 0.17, "district": "Conway School District", "city": "Conway", "ncessch": "330249000043"}, {"name": "Cornish Elementary School", "lat": 43.464335, "lon": -72.331219, "proficiency": 0.75, "district": "Cornish School District", "city": "Cornish", "ncessch": "330252000080"}, {"name": "Deerfield Community School", "lat": 43.150066, "lon": -71.237791, "proficiency": 0.245, "district": "Deerfield School District", "city": "Deerfield", "ncessch": "330258000082"}, {"name": "Gilbert H. Hood Middle School", "lat": 42.889483, "lon": -71.321952, "proficiency": 0.22, "district": "Derry Cooperative School District", "city": "Derry", "ncessch": "330261000086"}, {"name": "West Running Brook Middle School", "lat": 42.884854, "lon": -71.303679, "proficiency": 0.22, "district": "Derry Cooperative School District", "city": "Derry", "ncessch": "330261000194"}, {"name": "Dover Middle School", "lat": 43.177831, "lon": -70.884134, "proficiency": 0.42, "district": "Dover School District", "city": "Dover", "ncessch": "330264000089"}, {"name": "Frances C. Richmond School", "lat": 43.723134, "lon": -72.269621, "proficiency": 0.67, "district": "Dresden School District", "city": "Hanover", "ncessch": "330267000095"}, {"name": "Epping Middle School", "lat": 43.044581, "lon": -71.076864, "proficiency": 0.245, "district": "Epping School District", "city": "Epping", "ncessch": "330288000540"}, {"name": "Epsom Central School", "lat": 43.210228, "lon": -71.361737, "proficiency": 0.345, "district": "Epsom School District", "city": "Epsom", "ncessch": "330291000104"}, {"name": "Charlestown Middle School", "lat": 43.232637, "lon": -72.422742, "proficiency": 0.15, "district": "Fall Mountain Regional School District", "city": "Charlestown", "ncessch": "330299000114"}, {"name": "Vilas Elementary School", "lat": 43.149764, "lon": -72.354531, "proficiency": 0.1, "district": "Fall Mountain Regional School District", "city": "Alstead", "ncessch": "330299000120"}, {"name": "Walpole Elementary School", "lat": 43.08612, "lon": -72.427902, "proficiency": 0.495, "district": "Fall Mountain Regional School District", "city": "Walpole", "ncessch": "330299000122"}, {"name": "Henry Wilson Memorial School", "lat": 43.392559, "lon": -71.07024, "proficiency": 0.245, "district": "Farmington School District", "city": "Farmington", "ncessch": "330300000124"}, {"name": "Franklin Middle School", "lat": 43.453111, "lon": -71.643807, "proficiency": 0.15, "district": "Franklin School District", "city": "Franklin", "ncessch": "330309000511"}, {"name": "Ellis School", "lat": 42.985279, "lon": -71.129857, "proficiency": 0.345, "district": "Fremont School District", "city": "Fremont", "ncessch": "330315000132"}, {"name": "Gilford Middle School", "lat": 43.542624, "lon": -71.405401, "proficiency": 0.47, "district": "Gilford School District", "city": "Gilford", "ncessch": "330318000044"}, {"name": "Gilmanton Elementary School", "lat": 43.423383, "lon": -71.332256, "proficiency": 0.245, "district": "Gilmanton School District", "city": "Gilmanton IW", "ncessch": "330321000136"}, {"name": "Mountain View Middle School", "lat": 43.027885, "lon": -71.549438, "proficiency": 0.37, "district": "Goffstown School District", "city": "Goffstown", "ncessch": "330324000536"}, {"name": "Virtual Learning Academy (E)", "lat": 42.975703, "lon": -70.956147, "proficiency": 0.545, "district": "Virtual Learning Academy Charter School", "city": "Exeter", "ncessch": "330327100693"}, {"name": "The Birches Academy of Academics - Art A Public Charter Sch", "lat": 42.748749, "lon": -71.202742, "proficiency": 0.695, "district": "The Birches Academy of Academics & Art A Public Charter Sch", "city": "Salem", "ncessch": "330328600704"}, {"name": "Mountain Village Charter School", "lat": 43.770011, "lon": -71.76411, "proficiency": 0.75, "district": "Mountain Village Charter School", "city": "Plymouth", "ncessch": "330329700715"}, {"name": "The Founders Academy Charter School (E)", "lat": 42.947253, "lon": -71.436778, "proficiency": 0.345, "district": "The Founders Academy Charter School", "city": "Manchester", "ncessch": "330329800713"}, {"name": "Gate City Charter School for the Arts", "lat": 42.804614, "lon": -71.485218, "proficiency": 0.245, "district": "Gate City Charter School For the Arts", "city": "Merrimack", "ncessch": "330329900712"}, {"name": "Compass Classical Academy Charter School (E)", "lat": 43.442489, "lon": -71.647182, "proficiency": 0.245, "district": "Compass Classical Academy Charter School", "city": "Franklin", "ncessch": "330330100718"}, {"name": "MicroSociety Academy Charter School Foundation", "lat": 42.744129, "lon": -71.50681, "proficiency": 0.245, "district": "MicroSociety Academy Charter School Foundation", "city": "Nashua", "ncessch": "330330200721"}, {"name": "Lempster Community School", "lat": 43.249573, "lon": -72.165067, "proficiency": 0.245, "district": "Lempster School District", "city": "Lempster", "ncessch": "330330300719"}, {"name": "Kreiva Academy Public Charter School (M)", "lat": 42.994765, "lon": -71.459919, "proficiency": 0.245, "district": "Kreiva Academy Public Charter School", "city": "Manchester", "ncessch": "330330800726"}, {"name": "Kingswood Regional Middle School", "lat": 43.576013, "lon": -71.188186, "proficiency": 0.42, "district": "Governor Wentworth Regional School District", "city": "Wolfeboro", "ncessch": "330333000512"}, {"name": "Greenland Central School", "lat": 43.034071, "lon": -70.833647, "proficiency": 0.495, "district": "Greenland School District", "city": "Greenland", "ncessch": "330342000152"}, {"name": "Hampstead Middle School", "lat": 42.880127, "lon": -71.177348, "proficiency": 0.27, "district": "Hampstead School District", "city": "Hampstead", "ncessch": "330348000468"}, {"name": "Hampton Academy", "lat": 42.939252, "lon": -70.832358, "proficiency": 0.42, "district": "Hampton School District", "city": "Hampton", "ncessch": "330351000471"}, {"name": "Lincoln Akerman School", "lat": 42.916691, "lon": -70.866837, "proficiency": 0.495, "district": "Hampton Falls School District", "city": "Hampton Falls", "ncessch": "330354000154"}, {"name": "Haverhill Cooperative Middle School", "lat": 44.077339, "lon": -71.999713, "proficiency": 0.15, "district": "Haverhill Cooperative School District", "city": "North Haverhill", "ncessch": "330366000020"}, {"name": "Henniker Community School", "lat": 43.179309, "lon": -71.824625, "proficiency": 0.445, "district": "Henniker School District", "city": "Henniker", "ncessch": "330369000161"}, {"name": "Hillsboro-Deering Middle School", "lat": 43.116872, "lon": -71.901972, "proficiency": 0.22, "district": "Hillsboro-Deering Cooperative School District", "city": "Hillsborough", "ncessch": "330375000481"}, {"name": "Hinsdale Middle High School", "lat": 42.781968, "lon": -72.498925, "proficiency": 0.245, "district": "Hinsdale School District", "city": "Hinsdale", "ncessch": "330378000048"}, {"name": "Holderness Central School", "lat": 43.745706, "lon": -71.61877, "proficiency": 0.695, "district": "Holderness School District", "city": "Holderness", "ncessch": "330381000169"}, {"name": "Hollis-Brookline Middle School", "lat": 42.738772, "lon": -71.592192, "proficiency": 0.57, "district": "Hollis-Brookline Cooperative School District", "city": "Hollis", "ncessch": "330385000172"}, {"name": "David R. Cawley Middle School", "lat": 43.051896, "lon": -71.419466, "proficiency": 0.52, "district": "Hooksett School District", "city": "Hooksett", "ncessch": "330387000618"}, {"name": "Hopkinton Middle School", "lat": 43.230404, "lon": -71.71906, "proficiency": 0.22, "district": "Hopkinton School District", "city": "Contoocook", "ncessch": "330390000052"}, {"name": "Hudson Memorial School", "lat": 42.762867, "lon": -71.424559, "proficiency": 0.27, "district": "Hudson School District", "city": "Hudson", "ncessch": "330393000181"}, {"name": "Inter-Lakes Middle School", "lat": 43.667227, "lon": -71.490381, "proficiency": 0.22, "district": "Inter-Lakes Cooperative School District", "city": "Meredith", "ncessch": "330396000731"}, {"name": "Jaffrey-Rindge Middle School", "lat": 42.811235, "lon": -72.019213, "proficiency": 0.12, "district": "Jaffrey-Rindge Cooperative School District", "city": "Jaffrey", "ncessch": "330403000190"}, {"name": "Kearsarge Regional Middle School", "lat": 43.346329, "lon": -71.930189, "proficiency": 0.42, "district": "Kearsarge Regional School District", "city": "North Sutton", "ncessch": "330404000503"}, {"name": "Keene Middle School", "lat": 42.955108, "lon": -72.314408, "proficiency": 0.17, "district": "Keene School District", "city": "Keene", "ncessch": "330405000203"}, {"name": "Laconia Middle School", "lat": 43.53681, "lon": -71.47265, "proficiency": 0.27, "district": "Laconia School District", "city": "Laconia", "ncessch": "330414000211"}, {"name": "Lebanon Middle School", "lat": 43.636882, "lon": -72.229173, "proficiency": 0.57, "district": "Lebanon School District", "city": "Lebanon", "ncessch": "330423000219"}, {"name": "Lin-Wood Public School (Middle)", "lat": 44.043957, "lon": -71.673951, "proficiency": 0.495, "district": "Lincoln-Woodstock Cooperative School District", "city": "Lincoln", "ncessch": "330426000531"}, {"name": "Lisbon Regional School (Middle)", "lat": 44.214191, "lon": -71.916219, "proficiency": 0.495, "district": "Lisbon Regional School District", "city": "Lisbon", "ncessch": "330429000534"}, {"name": "Litchfield Middle School", "lat": 42.841147, "lon": -71.470697, "proficiency": 0.52, "district": "Litchfield School District", "city": "Litchfield", "ncessch": "330435000514"}, {"name": "Daisy Bronson Junior High School", "lat": 44.309367, "lon": -71.772341, "proficiency": 0.445, "district": "Littleton School District", "city": "Littleton", "ncessch": "330438000231"}, {"name": "Londonderry Middle School", "lat": 42.873547, "lon": -71.380315, "proficiency": 0.22, "district": "Londonderry School District", "city": "Londonderry", "ncessch": "330441000232"}, {"name": "Lyme Elementary School", "lat": 43.8103, "lon": -72.160209, "proficiency": 0.495, "district": "Lyme School District", "city": "Lyme", "ncessch": "330450000236"}, {"name": "Hillside Middle School", "lat": 42.998254, "lon": -71.443077, "proficiency": 0.17, "district": "Manchester School District", "city": "Manchester", "ncessch": "330459000251"}, {"name": "Middle School At Parkside", "lat": 42.988251, "lon": -71.479805, "proficiency": 0.12, "district": "Manchester School District", "city": "Manchester", "ncessch": "330459000255"}, {"name": "Southside Middle School", "lat": 42.968371, "lon": -71.436957, "proficiency": 0.075, "district": "Manchester School District", "city": "Manchester", "ncessch": "330459000258"}, {"name": "Henry J. McLaughlin Jr. Middle School", "lat": 42.964577, "lon": -71.416646, "proficiency": 0.12, "district": "Manchester School District", "city": "Manchester", "ncessch": "330459000576"}, {"name": "Marlborough Elementary School", "lat": 42.909826, "lon": -72.211215, "proficiency": 0.245, "district": "Marlborough School District", "city": "Marlborough", "ncessch": "330462000264"}, {"name": "Boynton Middle School", "lat": 42.75667, "lon": -71.847481, "proficiency": 0.15, "district": "Mascenic Regional School District", "city": "New Ipswich", "ncessch": "330467000515"}, {"name": "Indian River School", "lat": 43.651264, "lon": -72.099612, "proficiency": 0.37, "district": "Mascoma Valley Regional School District", "city": "Canaan", "ncessch": "330468000498"}, {"name": "Merrimack Middle School", "lat": 42.870009, "lon": -71.543072, "proficiency": 0.32, "district": "Merrimack School District", "city": "Merrimack", "ncessch": "330474000602"}, {"name": "Merrimack Valley Middle School", "lat": 43.275725, "lon": -71.590215, "proficiency": 0.22, "district": "Merrimack Valley School District", "city": "Penacook", "ncessch": "330476000506"}, {"name": "Milford Middle School", "lat": 42.826742, "lon": -71.657663, "proficiency": 0.22, "district": "Milford School District", "city": "Milford", "ncessch": "330483000293"}, {"name": "Monadnock Regional Middle School", "lat": 42.873916, "lon": -72.279112, "proficiency": 0.075, "district": "Monadnock Regional School District", "city": "E. Swanzey", "ncessch": "330489000061"}, {"name": "Monroe Consolidated School", "lat": 44.25855, "lon": -72.052147, "proficiency": 0.75, "district": "Monroe School District", "city": "Monroe", "ncessch": "330492000307"}, {"name": "Moultonborough Middle Level", "lat": 43.750823, "lon": -71.396094, "proficiency": 0.245, "district": "Moultonborough School District", "city": "Moultonborough", "ncessch": "330496000092"}, {"name": "Elm Street Middle School", "lat": 42.75281, "lon": -71.464933, "proficiency": 0.17, "district": "Nashua School District", "city": "Nashua", "ncessch": "330498000317"}, {"name": "Fairgrounds Middle School", "lat": 42.742804, "lon": -71.476128, "proficiency": 0.22, "district": "Nashua School District", "city": "Nashua", "ncessch": "330498000319"}, {"name": "Pennichuck Middle School", "lat": 42.785143, "lon": -71.478097, "proficiency": 0.15, "district": "Nashua School District", "city": "Nashua", "ncessch": "330498000325"}, {"name": "Newfound Memorial Middle School", "lat": 43.593335, "lon": -71.742178, "proficiency": 0.32, "district": "Newfound Area School District", "city": "Bristol", "ncessch": "330522000517"}, {"name": "Newmarket Jr.-Sr. High (Elem)", "lat": 43.074674, "lon": -70.945148, "proficiency": 0.32, "district": "Newmarket School District", "city": "Newmarket", "ncessch": "330528000542"}, {"name": "Newport Middle School", "lat": 43.375312, "lon": -72.178302, "proficiency": 0.05, "district": "Newport School District", "city": "Newport", "ncessch": "330531000093"}, {"name": "North Hampton School", "lat": 42.971078, "lon": -70.822945, "proficiency": 0.745, "district": "North Hampton School District", "city": "North Hampton", "ncessch": "330537000345"}, {"name": "Groveton High School (Middle)", "lat": 44.599701, "lon": -71.516504, "proficiency": 0.1, "district": "Northumberland School District", "city": "Groveton", "ncessch": "330540000529"}, {"name": "Northwood Elementary School", "lat": 43.207921, "lon": -71.176897, "proficiency": 0.245, "district": "Northwood School District", "city": "Northwood", "ncessch": "330543000348"}, {"name": "Nottingham Elementary School", "lat": 43.146494, "lon": -71.110809, "proficiency": 0.67, "district": "Nottingham School District", "city": "Nottingham", "ncessch": "330546000349"}, {"name": "Oyster River Middle School", "lat": 43.138257, "lon": -70.923787, "proficiency": 0.42, "district": "Oyster River Coop School District", "city": "Durham", "ncessch": "330552000355"}, {"name": "Pelham Memorial School", "lat": 42.727506, "lon": -71.326842, "proficiency": 0.32, "district": "Pelham School District", "city": "Pelham", "ncessch": "330555000357"}, {"name": "Three Rivers School", "lat": 43.145724, "lon": -71.451119, "proficiency": 0.27, "district": "Pembroke School District", "city": "Pembroke", "ncessch": "330558000042"}, {"name": "Piermont Village School", "lat": 43.968316, "lon": -72.081897, "proficiency": 0.75, "district": "Piermont School District", "city": "Piermont", "ncessch": "330567000362"}, {"name": "Pittsburg School (Elem)", "lat": 45.052334, "lon": -71.390503, "proficiency": 0.245, "district": "Pittsburg School District", "city": "Pittsburg", "ncessch": "330570000363"}, {"name": "Pittsfield Middle School", "lat": 43.303623, "lon": -71.316728, "proficiency": 0.05, "district": "Pittsfield School District", "city": "Pittsfield", "ncessch": "330573000539"}, {"name": "Plainfield Elementary School", "lat": 43.542382, "lon": -72.267511, "proficiency": 0.495, "district": "Plainfield School District", "city": "Meriden", "ncessch": "330576000368"}, {"name": "Plymouth Elementary School", "lat": 43.76509, "lon": -71.702957, "proficiency": 0.645, "district": "Plymouth School District", "city": "Plymouth", "ncessch": "330579000370"}, {"name": "Portsmouth Middle School", "lat": 43.073217, "lon": -70.759095, "proficiency": 0.47, "district": "Portsmouth School District", "city": "Portsmouth", "ncessch": "330582000378"}, {"name": "Profile Junior High School", "lat": 44.265568, "lon": -71.743915, "proficiency": 0.545, "district": "Profile School District", "city": "Bethlehem", "ncessch": "330583000097"}, {"name": "Iber Holmes Gove Middle School", "lat": 43.040285, "lon": -71.178539, "proficiency": 0.22, "district": "Raymond School District", "city": "Raymond", "ncessch": "330588000521"}, {"name": "Rochester Middle School", "lat": 43.293161, "lon": -70.989743, "proficiency": 0.17, "district": "Rochester School District", "city": "Rochester", "ncessch": "330594000395"}, {"name": "Russell Elementary School", "lat": 43.796303, "lon": -71.809376, "proficiency": 0.75, "district": "Rumney School District", "city": "Rumney", "ncessch": "330600000397"}, {"name": "Rye Junior High School", "lat": 43.014475, "lon": -70.770556, "proficiency": 0.645, "district": "Rye School District", "city": "Rye", "ncessch": "330603000399"}, {"name": "Woodbury School", "lat": 42.782923, "lon": -71.215496, "proficiency": 0.42, "district": "Salem School District", "city": "Salem", "ncessch": "330606000409"}, {"name": "Sanborn Regional Middle School", "lat": 42.912642, "lon": -71.072481, "proficiency": 0.17, "district": "Sanborn Regional School District", "city": "Kingston", "ncessch": "330608000476"}, {"name": "Seabrook Middle School", "lat": 42.880334, "lon": -70.846226, "proficiency": 0.17, "district": "Seabrook School District", "city": "Seabrook", "ncessch": "330615000601"}, {"name": "Belmont Middle School", "lat": 43.439757, "lon": -71.480799, "proficiency": 0.27, "district": "Shaker Regional School District", "city": "Belmont", "ncessch": "330618000413"}, {"name": "Somersworth Middle School", "lat": 43.255282, "lon": -70.874446, "proficiency": 0.22, "district": "Somersworth School District", "city": "Somersworth", "ncessch": "330624000420"}, {"name": "South Hampton Barnard School", "lat": 42.882179, "lon": -70.964038, "proficiency": 0.75, "district": "South Hampton School District", "city": "South Hampton", "ncessch": "330627000422"}, {"name": "Stewartstown Community School", "lat": 44.998864, "lon": -71.522808, "proficiency": 0.245, "district": "Stewartstown School District", "city": "W. Stewartstown", "ncessch": "330636000579"}, {"name": "Strafford School", "lat": 43.269674, "lon": -71.127825, "proficiency": 0.345, "district": "Strafford School District", "city": "Strafford", "ncessch": "330642000427"}, {"name": "Stratford Public School", "lat": 44.749619, "lon": -71.62583, "proficiency": 0.245, "district": "Stratford School District", "city": "North Stratford", "ncessch": "330645000428"}, {"name": "Sunapee Middle High School", "lat": 43.387548, "lon": -72.09705, "proficiency": 0.445, "district": "Sunapee School District", "city": "Sunapee", "ncessch": "330654000101"}, {"name": "Kenneth A. Brett School", "lat": 43.83629, "lon": -71.264982, "proficiency": 0.1, "district": "Tamworth School District", "city": "Tamworth", "ncessch": "330660000432"}, {"name": "Thornton Central School", "lat": 43.89585, "lon": -71.664027, "proficiency": 0.495, "district": "Thornton School District", "city": "Thornton", "ncessch": "330666000433"}, {"name": "Timberlane Regional Middle School", "lat": 42.842033, "lon": -71.117014, "proficiency": 0.22, "district": "Timberlane Regional School District", "city": "Plaistow", "ncessch": "330672000440"}, {"name": "Unity Elementary School", "lat": 43.294907, "lon": -72.262557, "proficiency": 0.245, "district": "Unity School District", "city": "Newport", "ncessch": "330675000441"}, {"name": "Paul Elementary School", "lat": 43.553303, "lon": -71.03723, "proficiency": 0.15, "district": "Wakefield School District", "city": "Sanbornville", "ncessch": "330678000442"}, {"name": "Weare Middle School", "lat": 43.09332, "lon": -71.729271, "proficiency": 0.37, "district": "Weare School District", "city": "Weare", "ncessch": "330693000023"}, {"name": "Wentworth Elementary School", "lat": 43.899202, "lon": -71.899312, "proficiency": 0.245, "district": "Wentworth School District", "city": "Wentworth", "ncessch": "330699000449"}, {"name": "Westmoreland School", "lat": 42.960258, "lon": -72.440322, "proficiency": 0.245, "district": "Westmoreland School District", "city": "Westmoreland", "ncessch": "330702000450"}, {"name": "Whitefield Elementary School", "lat": 44.364655, "lon": -71.602452, "proficiency": 0.3, "district": "White Mountains Regional School District", "city": "Whitefield", "ncessch": "330705000004"}, {"name": "Lancaster Elementary School", "lat": 44.499632, "lon": -71.581198, "proficiency": 0.3, "district": "White Mountains Regional School District", "city": "Lancaster", "ncessch": "330705000453"}, {"name": "Wilton-Lyndeboro Middle School", "lat": 42.847023, "lon": -71.746839, "proficiency": 0.345, "district": "Wilton-Lyndeborough Cooperative School District", "city": "Wilton", "ncessch": "330711500110"}, {"name": "Winchester School", "lat": 42.767617, "lon": -72.376447, "proficiency": 0.1, "district": "Winchester School District", "city": "Winchester", "ncessch": "330714000459"}, {"name": "Windham Middle School", "lat": 42.778107, "lon": -71.318845, "proficiency": 0.72, "district": "Windham School District", "city": "Windham", "ncessch": "330717000495"}, {"name": "Winnisquam Regional Middle School", "lat": 43.44511, "lon": -71.602473, "proficiency": 0.22, "district": "Winnisquam Regional School District", "city": "Tilton", "ncessch": "330730000466"}], "districts": [{"name": "Exeter Region Cooperative School District", "lat": 42.981645, "lon": -70.900243, "proficiency": 0.37, "schoolCount": 1}, {"name": "Seacoast Charter School", "lat": 43.214943, "lon": -70.920513, "proficiency": 0.345, "schoolCount": 1}, {"name": "Gorham Randolph Shelburne Cooperative School District", "lat": 44.390094, "lon": -71.178005, "proficiency": 0.445, "schoolCount": 1}, {"name": "Surry Village Charter School", "lat": 43.014071, "lon": -72.322572, "proficiency": 0.245, "schoolCount": 1}, {"name": "Academy for Science and Design Charter School", "lat": 42.790368, "lon": -71.523923, "proficiency": 0.745, "schoolCount": 1}, {"name": "Strong Foundations Charter School", "lat": 43.195479, "lon": -71.483889, "proficiency": 0.3, "schoolCount": 1}, {"name": "Great Bay Charter School", "lat": 42.975703, "lon": -70.956147, "proficiency": 0.245, "schoolCount": 1}, {"name": "Milton School District", "lat": 43.408567, "lon": -70.991113, "proficiency": 0.05, "schoolCount": 1}, {"name": "Allenstown School District", "lat": 43.12755, "lon": -71.453247, "proficiency": 0.345, "schoolCount": 1}, {"name": "Alton School District", "lat": 43.452925, "lon": -71.222564, "proficiency": 0.245, "schoolCount": 1}, {"name": "Amherst School District", "lat": 42.824254, "lon": -71.577012, "proficiency": 0.42, "schoolCount": 1}, {"name": "Andover School District", "lat": 43.434864, "lon": -71.820862, "proficiency": 0.15, "schoolCount": 1}, {"name": "Ashland School District", "lat": 43.697545, "lon": -71.634821, "proficiency": 0.245, "schoolCount": 1}, {"name": "Auburn School District", "lat": 43.007379, "lon": -71.347237, "proficiency": 0.32, "schoolCount": 1}, {"name": "Barnstead School District", "lat": 43.348468, "lon": -71.262179, "proficiency": 0.1, "schoolCount": 1}, {"name": "Barrington School District", "lat": 43.20926, "lon": -70.987571, "proficiency": 0.42, "schoolCount": 1}, {"name": "Bartlett School District", "lat": 44.077414, "lon": -71.279699, "proficiency": 0.495, "schoolCount": 1}, {"name": "Bedford School District", "lat": 42.93716, "lon": -71.519506, "proficiency": 0.64, "schoolCount": 1}, {"name": "Berlin School District", "lat": 44.482139, "lon": -71.188207, "proficiency": 0.075, "schoolCount": 1}, {"name": "Bow School District", "lat": 43.150866, "lon": -71.537855, "proficiency": 0.27, "schoolCount": 1}, {"name": "Campton School District", "lat": 43.851204, "lon": -71.634148, "proficiency": 0.3, "schoolCount": 1}, {"name": "Candia School District", "lat": 43.063053, "lon": -71.288948, "proficiency": 0.495, "schoolCount": 1}, {"name": "Chester School District", "lat": 42.959335, "lon": -71.25201, "proficiency": 0.17, "schoolCount": 1}, {"name": "Chesterfield School District", "lat": 42.886369, "lon": -72.469174, "proficiency": 0.495, "schoolCount": 1}, {"name": "Chichester School District", "lat": 43.254733, "lon": -71.378543, "proficiency": 0.495, "schoolCount": 1}, {"name": "Claremont School District", "lat": 43.363654, "lon": -72.335818, "proficiency": 0.27, "schoolCount": 1}, {"name": "Colebrook School District", "lat": 44.892243, "lon": -71.49916, "proficiency": 0.1, "schoolCount": 1}, {"name": "Concord School District", "lat": 43.189478, "lon": -71.543379, "proficiency": 0.22, "schoolCount": 1}, {"name": "Contoocook Valley School District", "lat": 42.967653999999996, "lon": -71.9407365, "proficiency": 0.32, "schoolCount": 2}, {"name": "Conway School District", "lat": 43.979215, "lon": -71.126359, "proficiency": 0.17, "schoolCount": 1}, {"name": "Cornish School District", "lat": 43.464335, "lon": -72.331219, "proficiency": 0.75, "schoolCount": 1}, {"name": "Deerfield School District", "lat": 43.150066, "lon": -71.237791, "proficiency": 0.245, "schoolCount": 1}, {"name": "Derry Cooperative School District", "lat": 42.8871685, "lon": -71.3128155, "proficiency": 0.22, "schoolCount": 2}, {"name": "Dover School District", "lat": 43.177831, "lon": -70.884134, "proficiency": 0.42, "schoolCount": 1}, {"name": "Dresden School District", "lat": 43.723134, "lon": -72.269621, "proficiency": 0.67, "schoolCount": 1}, {"name": "Epping School District", "lat": 43.044581, "lon": -71.076864, "proficiency": 0.245, "schoolCount": 1}, {"name": "Epsom School District", "lat": 43.210228, "lon": -71.361737, "proficiency": 0.345, "schoolCount": 1}, {"name": "Fall Mountain Regional School District", "lat": 43.15617366666667, "lon": -72.401725, "proficiency": 0.2483, "schoolCount": 3}, {"name": "Farmington School District", "lat": 43.392559, "lon": -71.07024, "proficiency": 0.245, "schoolCount": 1}, {"name": "Franklin School District", "lat": 43.453111, "lon": -71.643807, "proficiency": 0.15, "schoolCount": 1}, {"name": "Fremont School District", "lat": 42.985279, "lon": -71.129857, "proficiency": 0.345, "schoolCount": 1}, {"name": "Gilford School District", "lat": 43.542624, "lon": -71.405401, "proficiency": 0.47, "schoolCount": 1}, {"name": "Gilmanton School District", "lat": 43.423383, "lon": -71.332256, "proficiency": 0.245, "schoolCount": 1}, {"name": "Goffstown School District", "lat": 43.027885, "lon": -71.549438, "proficiency": 0.37, "schoolCount": 1}, {"name": "Virtual Learning Academy Charter School", "lat": 42.975703, "lon": -70.956147, "proficiency": 0.545, "schoolCount": 1}, {"name": "The Birches Academy of Academics & Art A Public Charter Sch", "lat": 42.748749, "lon": -71.202742, "proficiency": 0.695, "schoolCount": 1}, {"name": "Mountain Village Charter School", "lat": 43.770011, "lon": -71.76411, "proficiency": 0.75, "schoolCount": 1}, {"name": "The Founders Academy Charter School", "lat": 42.947253, "lon": -71.436778, "proficiency": 0.345, "schoolCount": 1}, {"name": "Gate City Charter School For the Arts", "lat": 42.804614, "lon": -71.485218, "proficiency": 0.245, "schoolCount": 1}, {"name": "Compass Classical Academy Charter School", "lat": 43.442489, "lon": -71.647182, "proficiency": 0.245, "schoolCount": 1}, {"name": "MicroSociety Academy Charter School Foundation", "lat": 42.744129, "lon": -71.50681, "proficiency": 0.245, "schoolCount": 1}, {"name": "Lempster School District", "lat": 43.249573, "lon": -72.165067, "proficiency": 0.245, "schoolCount": 1}, {"name": "Kreiva Academy Public Charter School", "lat": 42.994765, "lon": -71.459919, "proficiency": 0.245, "schoolCount": 1}, {"name": "Governor Wentworth Regional School District", "lat": 43.576013, "lon": -71.188186, "proficiency": 0.42, "schoolCount": 1}, {"name": "Greenland School District", "lat": 43.034071, "lon": -70.833647, "proficiency": 0.495, "schoolCount": 1}, {"name": "Hampstead School District", "lat": 42.880127, "lon": -71.177348, "proficiency": 0.27, "schoolCount": 1}, {"name": "Hampton School District", "lat": 42.939252, "lon": -70.832358, "proficiency": 0.42, "schoolCount": 1}, {"name": "Hampton Falls School District", "lat": 42.916691, "lon": -70.866837, "proficiency": 0.495, "schoolCount": 1}, {"name": "Haverhill Cooperative School District", "lat": 44.077339, "lon": -71.999713, "proficiency": 0.15, "schoolCount": 1}, {"name": "Henniker School District", "lat": 43.179309, "lon": -71.824625, "proficiency": 0.445, "schoolCount": 1}, {"name": "Hillsboro-Deering Cooperative School District", "lat": 43.116872, "lon": -71.901972, "proficiency": 0.22, "schoolCount": 1}, {"name": "Hinsdale School District", "lat": 42.781968, "lon": -72.498925, "proficiency": 0.245, "schoolCount": 1}, {"name": "Holderness School District", "lat": 43.745706, "lon": -71.61877, "proficiency": 0.695, "schoolCount": 1}, {"name": "Hollis-Brookline Cooperative School District", "lat": 42.738772, "lon": -71.592192, "proficiency": 0.57, "schoolCount": 1}, {"name": "Hooksett School District", "lat": 43.051896, "lon": -71.419466, "proficiency": 0.52, "schoolCount": 1}, {"name": "Hopkinton School District", "lat": 43.230404, "lon": -71.71906, "proficiency": 0.22, "schoolCount": 1}, {"name": "Hudson School District", "lat": 42.762867, "lon": -71.424559, "proficiency": 0.27, "schoolCount": 1}, {"name": "Inter-Lakes Cooperative School District", "lat": 43.667227, "lon": -71.490381, "proficiency": 0.22, "schoolCount": 1}, {"name": "Jaffrey-Rindge Cooperative School District", "lat": 42.811235, "lon": -72.019213, "proficiency": 0.12, "schoolCount": 1}, {"name": "Kearsarge Regional School District", "lat": 43.346329, "lon": -71.930189, "proficiency": 0.42, "schoolCount": 1}, {"name": "Keene School District", "lat": 42.955108, "lon": -72.314408, "proficiency": 0.17, "schoolCount": 1}, {"name": "Laconia School District", "lat": 43.53681, "lon": -71.47265, "proficiency": 0.27, "schoolCount": 1}, {"name": "Lebanon School District", "lat": 43.636882, "lon": -72.229173, "proficiency": 0.57, "schoolCount": 1}, {"name": "Lincoln-Woodstock Cooperative School District", "lat": 44.043957, "lon": -71.673951, "proficiency": 0.495, "schoolCount": 1}, {"name": "Lisbon Regional School District", "lat": 44.214191, "lon": -71.916219, "proficiency": 0.495, "schoolCount": 1}, {"name": "Litchfield School District", "lat": 42.841147, "lon": -71.470697, "proficiency": 0.52, "schoolCount": 1}, {"name": "Littleton School District", "lat": 44.309367, "lon": -71.772341, "proficiency": 0.445, "schoolCount": 1}, {"name": "Londonderry School District", "lat": 42.873547, "lon": -71.380315, "proficiency": 0.22, "schoolCount": 1}, {"name": "Lyme School District", "lat": 43.8103, "lon": -72.160209, "proficiency": 0.495, "schoolCount": 1}, {"name": "Manchester School District", "lat": 42.97986325, "lon": -71.44412125, "proficiency": 0.1212, "schoolCount": 4}, {"name": "Marlborough School District", "lat": 42.909826, "lon": -72.211215, "proficiency": 0.245, "schoolCount": 1}, {"name": "Mascenic Regional School District", "lat": 42.75667, "lon": -71.847481, "proficiency": 0.15, "schoolCount": 1}, {"name": "Mascoma Valley Regional School District", "lat": 43.651264, "lon": -72.099612, "proficiency": 0.37, "schoolCount": 1}, {"name": "Merrimack School District", "lat": 42.870009, "lon": -71.543072, "proficiency": 0.32, "schoolCount": 1}, {"name": "Merrimack Valley School District", "lat": 43.275725, "lon": -71.590215, "proficiency": 0.22, "schoolCount": 1}, {"name": "Milford School District", "lat": 42.826742, "lon": -71.657663, "proficiency": 0.22, "schoolCount": 1}, {"name": "Monadnock Regional School District", "lat": 42.873916, "lon": -72.279112, "proficiency": 0.075, "schoolCount": 1}, {"name": "Monroe School District", "lat": 44.25855, "lon": -72.052147, "proficiency": 0.75, "schoolCount": 1}, {"name": "Moultonborough School District", "lat": 43.750823, "lon": -71.396094, "proficiency": 0.245, "schoolCount": 1}, {"name": "Nashua School District", "lat": 42.760252333333334, "lon": -71.47305266666667, "proficiency": 0.18, "schoolCount": 3}, {"name": "Newfound Area School District", "lat": 43.593335, "lon": -71.742178, "proficiency": 0.32, "schoolCount": 1}, {"name": "Newmarket School District", "lat": 43.074674, "lon": -70.945148, "proficiency": 0.32, "schoolCount": 1}, {"name": "Newport School District", "lat": 43.375312, "lon": -72.178302, "proficiency": 0.05, "schoolCount": 1}, {"name": "North Hampton School District", "lat": 42.971078, "lon": -70.822945, "proficiency": 0.745, "schoolCount": 1}, {"name": "Northumberland School District", "lat": 44.599701, "lon": -71.516504, "proficiency": 0.1, "schoolCount": 1}, {"name": "Northwood School District", "lat": 43.207921, "lon": -71.176897, "proficiency": 0.245, "schoolCount": 1}, {"name": "Nottingham School District", "lat": 43.146494, "lon": -71.110809, "proficiency": 0.67, "schoolCount": 1}, {"name": "Oyster River Coop School District", "lat": 43.138257, "lon": -70.923787, "proficiency": 0.42, "schoolCount": 1}, {"name": "Pelham School District", "lat": 42.727506, "lon": -71.326842, "proficiency": 0.32, "schoolCount": 1}, {"name": "Pembroke School District", "lat": 43.145724, "lon": -71.451119, "proficiency": 0.27, "schoolCount": 1}, {"name": "Piermont School District", "lat": 43.968316, "lon": -72.081897, "proficiency": 0.75, "schoolCount": 1}, {"name": "Pittsburg School District", "lat": 45.052334, "lon": -71.390503, "proficiency": 0.245, "schoolCount": 1}, {"name": "Pittsfield School District", "lat": 43.303623, "lon": -71.316728, "proficiency": 0.05, "schoolCount": 1}, {"name": "Plainfield School District", "lat": 43.542382, "lon": -72.267511, "proficiency": 0.495, "schoolCount": 1}, {"name": "Plymouth School District", "lat": 43.76509, "lon": -71.702957, "proficiency": 0.645, "schoolCount": 1}, {"name": "Portsmouth School District", "lat": 43.073217, "lon": -70.759095, "proficiency": 0.47, "schoolCount": 1}, {"name": "Profile School District", "lat": 44.265568, "lon": -71.743915, "proficiency": 0.545, "schoolCount": 1}, {"name": "Raymond School District", "lat": 43.040285, "lon": -71.178539, "proficiency": 0.22, "schoolCount": 1}, {"name": "Rochester School District", "lat": 43.293161, "lon": -70.989743, "proficiency": 0.17, "schoolCount": 1}, {"name": "Rumney School District", "lat": 43.796303, "lon": -71.809376, "proficiency": 0.75, "schoolCount": 1}, {"name": "Rye School District", "lat": 43.014475, "lon": -70.770556, "proficiency": 0.645, "schoolCount": 1}, {"name": "Salem School District", "lat": 42.782923, "lon": -71.215496, "proficiency": 0.42, "schoolCount": 1}, {"name": "Sanborn Regional School District", "lat": 42.912642, "lon": -71.072481, "proficiency": 0.17, "schoolCount": 1}, {"name": "Seabrook School District", "lat": 42.880334, "lon": -70.846226, "proficiency": 0.17, "schoolCount": 1}, {"name": "Shaker Regional School District", "lat": 43.439757, "lon": -71.480799, "proficiency": 0.27, "schoolCount": 1}, {"name": "Somersworth School District", "lat": 43.255282, "lon": -70.874446, "proficiency": 0.22, "schoolCount": 1}, {"name": "South Hampton School District", "lat": 42.882179, "lon": -70.964038, "proficiency": 0.75, "schoolCount": 1}, {"name": "Stewartstown School District", "lat": 44.998864, "lon": -71.522808, "proficiency": 0.245, "schoolCount": 1}, {"name": "Strafford School District", "lat": 43.269674, "lon": -71.127825, "proficiency": 0.345, "schoolCount": 1}, {"name": "Stratford School District", "lat": 44.749619, "lon": -71.62583, "proficiency": 0.245, "schoolCount": 1}, {"name": "Sunapee School District", "lat": 43.387548, "lon": -72.09705, "proficiency": 0.445, "schoolCount": 1}, {"name": "Tamworth School District", "lat": 43.83629, "lon": -71.264982, "proficiency": 0.1, "schoolCount": 1}, {"name": "Thornton School District", "lat": 43.89585, "lon": -71.664027, "proficiency": 0.495, "schoolCount": 1}, {"name": "Timberlane Regional School District", "lat": 42.842033, "lon": -71.117014, "proficiency": 0.22, "schoolCount": 1}, {"name": "Unity School District", "lat": 43.294907, "lon": -72.262557, "proficiency": 0.245, "schoolCount": 1}, {"name": "Wakefield School District", "lat": 43.553303, "lon": -71.03723, "proficiency": 0.15, "schoolCount": 1}, {"name": "Weare School District", "lat": 43.09332, "lon": -71.729271, "proficiency": 0.37, "schoolCount": 1}, {"name": "Wentworth School District", "lat": 43.899202, "lon": -71.899312, "proficiency": 0.245, "schoolCount": 1}, {"name": "Westmoreland School District", "lat": 42.960258, "lon": -72.440322, "proficiency": 0.245, "schoolCount": 1}, {"name": "White Mountains Regional School District", "lat": 44.432143499999995, "lon": -71.591825, "proficiency": 0.3, "schoolCount": 2}, {"name": "Wilton-Lyndeborough Cooperative School District", "lat": 42.847023, "lon": -71.746839, "proficiency": 0.345, "schoolCount": 1}, {"name": "Winchester School District", "lat": 42.767617, "lon": -72.376447, "proficiency": 0.1, "schoolCount": 1}, {"name": "Windham School District", "lat": 42.778107, "lon": -71.318845, "proficiency": 0.72, "schoolCount": 1}, {"name": "Winnisquam Regional School District", "lat": 43.44511, "lon": -71.602473, "proficiency": 0.22, "schoolCount": 1}], "cities": [{"name": "Stratham", "lat": 42.981645, "lon": -70.900243, "proficiency": 0.37, "schoolCount": 1}, {"name": "Dover", "lat": 43.196387, "lon": -70.9023235, "proficiency": 0.3825, "schoolCount": 2}, {"name": "Gorham", "lat": 44.390094, "lon": -71.178005, "proficiency": 0.445, "schoolCount": 1}, {"name": "Surry", "lat": 43.014071, "lon": -72.322572, "proficiency": 0.245, "schoolCount": 1}, {"name": "Nashua", "lat": 42.763050799999995, "lon": -71.4899782, "proficiency": 0.306, "schoolCount": 5}, {"name": "Pembroke", "lat": 43.170601500000004, "lon": -71.467504, "proficiency": 0.285, "schoolCount": 2}, {"name": "Exeter", "lat": 42.975703, "lon": -70.956147, "proficiency": 0.395, "schoolCount": 2}, {"name": "Milton", "lat": 43.408567, "lon": -70.991113, "proficiency": 0.05, "schoolCount": 1}, {"name": "Allenstown", "lat": 43.12755, "lon": -71.453247, "proficiency": 0.345, "schoolCount": 1}, {"name": "Alton", "lat": 43.452925, "lon": -71.222564, "proficiency": 0.245, "schoolCount": 1}, {"name": "Amherst", "lat": 42.824254, "lon": -71.577012, "proficiency": 0.42, "schoolCount": 1}, {"name": "Andover", "lat": 43.434864, "lon": -71.820862, "proficiency": 0.15, "schoolCount": 1}, {"name": "Ashland", "lat": 43.697545, "lon": -71.634821, "proficiency": 0.245, "schoolCount": 1}, {"name": "Auburn", "lat": 43.007379, "lon": -71.347237, "proficiency": 0.32, "schoolCount": 1}, {"name": "Ctr. Barnstead", "lat": 43.348468, "lon": -71.262179, "proficiency": 0.1, "schoolCount": 1}, {"name": "Barrington", "lat": 43.20926, "lon": -70.987571, "proficiency": 0.42, "schoolCount": 1}, {"name": "Bartlett", "lat": 44.077414, "lon": -71.279699, "proficiency": 0.495, "schoolCount": 1}, {"name": "Bedford", "lat": 42.93716, "lon": -71.519506, "proficiency": 0.64, "schoolCount": 1}, {"name": "Berlin", "lat": 44.482139, "lon": -71.188207, "proficiency": 0.075, "schoolCount": 1}, {"name": "Bow", "lat": 43.150866, "lon": -71.537855, "proficiency": 0.27, "schoolCount": 1}, {"name": "Campton", "lat": 43.851204, "lon": -71.634148, "proficiency": 0.3, "schoolCount": 1}, {"name": "Candia", "lat": 43.063053, "lon": -71.288948, "proficiency": 0.495, "schoolCount": 1}, {"name": "Chester", "lat": 42.959335, "lon": -71.25201, "proficiency": 0.17, "schoolCount": 1}, {"name": "Chesterfield", "lat": 42.886369, "lon": -72.469174, "proficiency": 0.495, "schoolCount": 1}, {"name": "Chichester", "lat": 43.254733, "lon": -71.378543, "proficiency": 0.495, "schoolCount": 1}, {"name": "Claremont", "lat": 43.363654, "lon": -72.335818, "proficiency": 0.27, "schoolCount": 1}, {"name": "Colebrook", "lat": 44.892243, "lon": -71.49916, "proficiency": 0.1, "schoolCount": 1}, {"name": "Concord", "lat": 43.189478, "lon": -71.543379, "proficiency": 0.22, "schoolCount": 1}, {"name": "Antrim", "lat": 43.029094, "lon": -71.943015, "proficiency": 0.22, "schoolCount": 1}, {"name": "Peterborough", "lat": 42.906214, "lon": -71.938458, "proficiency": 0.42, "schoolCount": 1}, {"name": "Conway", "lat": 43.979215, "lon": -71.126359, "proficiency": 0.17, "schoolCount": 1}, {"name": "Cornish", "lat": 43.464335, "lon": -72.331219, "proficiency": 0.75, "schoolCount": 1}, {"name": "Deerfield", "lat": 43.150066, "lon": -71.237791, "proficiency": 0.245, "schoolCount": 1}, {"name": "Derry", "lat": 42.8871685, "lon": -71.3128155, "proficiency": 0.22, "schoolCount": 2}, {"name": "Hanover", "lat": 43.723134, "lon": -72.269621, "proficiency": 0.67, "schoolCount": 1}, {"name": "Epping", "lat": 43.044581, "lon": -71.076864, "proficiency": 0.245, "schoolCount": 1}, {"name": "Epsom", "lat": 43.210228, "lon": -71.361737, "proficiency": 0.345, "schoolCount": 1}, {"name": "Charlestown", "lat": 43.232637, "lon": -72.422742, "proficiency": 0.15, "schoolCount": 1}, {"name": "Alstead", "lat": 43.149764, "lon": -72.354531, "proficiency": 0.1, "schoolCount": 1}, {"name": "Walpole", "lat": 43.08612, "lon": -72.427902, "proficiency": 0.495, "schoolCount": 1}, {"name": "Farmington", "lat": 43.392559, "lon": -71.07024, "proficiency": 0.245, "schoolCount": 1}, {"name": "Franklin", "lat": 43.4478, "lon": -71.6454945, "proficiency": 0.1975, "schoolCount": 2}, {"name": "Fremont", "lat": 42.985279, "lon": -71.129857, "proficiency": 0.345, "schoolCount": 1}, {"name": "Gilford", "lat": 43.542624, "lon": -71.405401, "proficiency": 0.47, "schoolCount": 1}, {"name": "Gilmanton IW", "lat": 43.423383, "lon": -71.332256, "proficiency": 0.245, "schoolCount": 1}, {"name": "Goffstown", "lat": 43.027885, "lon": -71.549438, "proficiency": 0.37, "schoolCount": 1}, {"name": "Salem", "lat": 42.76583599999999, "lon": -71.209119, "proficiency": 0.5575, "schoolCount": 2}, {"name": "Plymouth", "lat": 43.7675505, "lon": -71.7335335, "proficiency": 0.6975, "schoolCount": 2}, {"name": "Manchester", "lat": 42.97691183333333, "lon": -71.44553033333334, "proficiency": 0.1792, "schoolCount": 6}, {"name": "Merrimack", "lat": 42.8373115, "lon": -71.514145, "proficiency": 0.2825, "schoolCount": 2}, {"name": "Lempster", "lat": 43.249573, "lon": -72.165067, "proficiency": 0.245, "schoolCount": 1}, {"name": "Wolfeboro", "lat": 43.576013, "lon": -71.188186, "proficiency": 0.42, "schoolCount": 1}, {"name": "Greenland", "lat": 43.034071, "lon": -70.833647, "proficiency": 0.495, "schoolCount": 1}, {"name": "Hampstead", "lat": 42.880127, "lon": -71.177348, "proficiency": 0.27, "schoolCount": 1}, {"name": "Hampton", "lat": 42.939252, "lon": -70.832358, "proficiency": 0.42, "schoolCount": 1}, {"name": "Hampton Falls", "lat": 42.916691, "lon": -70.866837, "proficiency": 0.495, "schoolCount": 1}, {"name": "North Haverhill", "lat": 44.077339, "lon": -71.999713, "proficiency": 0.15, "schoolCount": 1}, {"name": "Henniker", "lat": 43.179309, "lon": -71.824625, "proficiency": 0.445, "schoolCount": 1}, {"name": "Hillsborough", "lat": 43.116872, "lon": -71.901972, "proficiency": 0.22, "schoolCount": 1}, {"name": "Hinsdale", "lat": 42.781968, "lon": -72.498925, "proficiency": 0.245, "schoolCount": 1}, {"name": "Holderness", "lat": 43.745706, "lon": -71.61877, "proficiency": 0.695, "schoolCount": 1}, {"name": "Hollis", "lat": 42.738772, "lon": -71.592192, "proficiency": 0.57, "schoolCount": 1}, {"name": "Hooksett", "lat": 43.051896, "lon": -71.419466, "proficiency": 0.52, "schoolCount": 1}, {"name": "Contoocook", "lat": 43.230404, "lon": -71.71906, "proficiency": 0.22, "schoolCount": 1}, {"name": "Hudson", "lat": 42.762867, "lon": -71.424559, "proficiency": 0.27, "schoolCount": 1}, {"name": "Meredith", "lat": 43.667227, "lon": -71.490381, "proficiency": 0.22, "schoolCount": 1}, {"name": "Jaffrey", "lat": 42.811235, "lon": -72.019213, "proficiency": 0.12, "schoolCount": 1}, {"name": "North Sutton", "lat": 43.346329, "lon": -71.930189, "proficiency": 0.42, "schoolCount": 1}, {"name": "Keene", "lat": 42.955108, "lon": -72.314408, "proficiency": 0.17, "schoolCount": 1}, {"name": "Laconia", "lat": 43.53681, "lon": -71.47265, "proficiency": 0.27, "schoolCount": 1}, {"name": "Lebanon", "lat": 43.636882, "lon": -72.229173, "proficiency": 0.57, "schoolCount": 1}, {"name": "Lincoln", "lat": 44.043957, "lon": -71.673951, "proficiency": 0.495, "schoolCount": 1}, {"name": "Lisbon", "lat": 44.214191, "lon": -71.916219, "proficiency": 0.495, "schoolCount": 1}, {"name": "Litchfield", "lat": 42.841147, "lon": -71.470697, "proficiency": 0.52, "schoolCount": 1}, {"name": "Littleton", "lat": 44.309367, "lon": -71.772341, "proficiency": 0.445, "schoolCount": 1}, {"name": "Londonderry", "lat": 42.873547, "lon": -71.380315, "proficiency": 0.22, "schoolCount": 1}, {"name": "Lyme", "lat": 43.8103, "lon": -72.160209, "proficiency": 0.495, "schoolCount": 1}, {"name": "Marlborough", "lat": 42.909826, "lon": -72.211215, "proficiency": 0.245, "schoolCount": 1}, {"name": "New Ipswich", "lat": 42.75667, "lon": -71.847481, "proficiency": 0.15, "schoolCount": 1}, {"name": "Canaan", "lat": 43.651264, "lon": -72.099612, "proficiency": 0.37, "schoolCount": 1}, {"name": "Penacook", "lat": 43.275725, "lon": -71.590215, "proficiency": 0.22, "schoolCount": 1}, {"name": "Milford", "lat": 42.826742, "lon": -71.657663, "proficiency": 0.22, "schoolCount": 1}, {"name": "E. Swanzey", "lat": 42.873916, "lon": -72.279112, "proficiency": 0.075, "schoolCount": 1}, {"name": "Monroe", "lat": 44.25855, "lon": -72.052147, "proficiency": 0.75, "schoolCount": 1}, {"name": "Moultonborough", "lat": 43.750823, "lon": -71.396094, "proficiency": 0.245, "schoolCount": 1}, {"name": "Bristol", "lat": 43.593335, "lon": -71.742178, "proficiency": 0.32, "schoolCount": 1}, {"name": "Newmarket", "lat": 43.074674, "lon": -70.945148, "proficiency": 0.32, "schoolCount": 1}, {"name": "Newport", "lat": 43.3351095, "lon": -72.2204295, "proficiency": 0.1475, "schoolCount": 2}, {"name": "North Hampton", "lat": 42.971078, "lon": -70.822945, "proficiency": 0.745, "schoolCount": 1}, {"name": "Groveton", "lat": 44.599701, "lon": -71.516504, "proficiency": 0.1, "schoolCount": 1}, {"name": "Northwood", "lat": 43.207921, "lon": -71.176897, "proficiency": 0.245, "schoolCount": 1}, {"name": "Nottingham", "lat": 43.146494, "lon": -71.110809, "proficiency": 0.67, "schoolCount": 1}, {"name": "Durham", "lat": 43.138257, "lon": -70.923787, "proficiency": 0.42, "schoolCount": 1}, {"name": "Pelham", "lat": 42.727506, "lon": -71.326842, "proficiency": 0.32, "schoolCount": 1}, {"name": "Piermont", "lat": 43.968316, "lon": -72.081897, "proficiency": 0.75, "schoolCount": 1}, {"name": "Pittsburg", "lat": 45.052334, "lon": -71.390503, "proficiency": 0.245, "schoolCount": 1}, {"name": "Pittsfield", "lat": 43.303623, "lon": -71.316728, "proficiency": 0.05, "schoolCount": 1}, {"name": "Meriden", "lat": 43.542382, "lon": -72.267511, "proficiency": 0.495, "schoolCount": 1}, {"name": "Portsmouth", "lat": 43.073217, "lon": -70.759095, "proficiency": 0.47, "schoolCount": 1}, {"name": "Bethlehem", "lat": 44.265568, "lon": -71.743915, "proficiency": 0.545, "schoolCount": 1}, {"name": "Raymond", "lat": 43.040285, "lon": -71.178539, "proficiency": 0.22, "schoolCount": 1}, {"name": "Rochester", "lat": 43.293161, "lon": -70.989743, "proficiency": 0.17, "schoolCount": 1}, {"name": "Rumney", "lat": 43.796303, "lon": -71.809376, "proficiency": 0.75, "schoolCount": 1}, {"name": "Rye", "lat": 43.014475, "lon": -70.770556, "proficiency": 0.645, "schoolCount": 1}, {"name": "Kingston", "lat": 42.912642, "lon": -71.072481, "proficiency": 0.17, "schoolCount": 1}, {"name": "Seabrook", "lat": 42.880334, "lon": -70.846226, "proficiency": 0.17, "schoolCount": 1}, {"name": "Belmont", "lat": 43.439757, "lon": -71.480799, "proficiency": 0.27, "schoolCount": 1}, {"name": "Somersworth", "lat": 43.255282, "lon": -70.874446, "proficiency": 0.22, "schoolCount": 1}, {"name": "South Hampton", "lat": 42.882179, "lon": -70.964038, "proficiency": 0.75, "schoolCount": 1}, {"name": "W. Stewartstown", "lat": 44.998864, "lon": -71.522808, "proficiency": 0.245, "schoolCount": 1}, {"name": "Strafford", "lat": 43.269674, "lon": -71.127825, "proficiency": 0.345, "schoolCount": 1}, {"name": "North Stratford", "lat": 44.749619, "lon": -71.62583, "proficiency": 0.245, "schoolCount": 1}, {"name": "Sunapee", "lat": 43.387548, "lon": -72.09705, "proficiency": 0.445, "schoolCount": 1}, {"name": "Tamworth", "lat": 43.83629, "lon": -71.264982, "proficiency": 0.1, "schoolCount": 1}, {"name": "Thornton", "lat": 43.89585, "lon": -71.664027, "proficiency": 0.495, "schoolCount": 1}, {"name": "Plaistow", "lat": 42.842033, "lon": -71.117014, "proficiency": 0.22, "schoolCount": 1}, {"name": "Sanbornville", "lat": 43.553303, "lon": -71.03723, "proficiency": 0.15, "schoolCount": 1}, {"name": "Weare", "lat": 43.09332, "lon": -71.729271, "proficiency": 0.37, "schoolCount": 1}, {"name": "Wentworth", "lat": 43.899202, "lon": -71.899312, "proficiency": 0.245, "schoolCount": 1}, {"name": "Westmoreland", "lat": 42.960258, "lon": -72.440322, "proficiency": 0.245, "schoolCount": 1}, {"name": "Whitefield", "lat": 44.364655, "lon": -71.602452, "proficiency": 0.3, "schoolCount": 1}, {"name": "Lancaster", "lat": 44.499632, "lon": -71.581198, "proficiency": 0.3, "schoolCount": 1}, {"name": "Wilton", "lat": 42.847023, "lon": -71.746839, "proficiency": 0.345, "schoolCount": 1}, {"name": "Winchester", "lat": 42.767617, "lon": -72.376447, "proficiency": 0.1, "schoolCount": 1}, {"name": "Windham", "lat": 42.778107, "lon": -71.318845, "proficiency": 0.72, "schoolCount": 1}, {"name": "Tilton", "lat": 43.44511, "lon": -71.602473, "proficiency": 0.22, "schoolCount": 1}]}