{"state": "NV", "stateName": "Nevada", "year": 2020, "naep": {"text": "8 out of 10", "numerator": 8, "denominator": 10}, "schools": [{"name": "Nevada Virtual Academy", "lat": 36.032685, "lon": -115.120183, "proficiency": 0.13, "district": "STATE-SPONSORED CHARTER SCHOOLS", "city": "Las Vegas", "ncessch": "320000100734"}, {"name": "Coral Academy Sandy Ridge", "lat": 35.99174, "lon": -115.093301, "proficiency": 0.52, "district": "STATE-SPONSORED CHARTER SCHOOLS", "city": "Henderson", "ncessch": "320000100742"}, {"name": "Quest Academy Northwest", "lat": 36.233164, "lon": -115.228562, "proficiency": 0.05, "district": "STATE-SPONSORED CHARTER SCHOOLS", "city": "Las Vegas", "ncessch": "320000100759"}, {"name": "Silver Sands Montessori", "lat": 36.077061, "lon": -115.066379, "proficiency": 0.3, "district": "STATE-SPONSORED CHARTER SCHOOLS", "city": "Henderson", "ncessch": "320000100781"}, {"name": "Elko Institute for Academic Achievement", "lat": 40.83629, "lon": -115.757738, "proficiency": 0.495, "district": "STATE-SPONSORED CHARTER SCHOOLS", "city": "Elko", "ncessch": "320000100784"}, {"name": "Oasis Academy", "lat": 39.477236, "lon": -118.788766, "proficiency": 0.545, "district": "STATE-SPONSORED CHARTER SCHOOLS", "city": "Fallon", "ncessch": "320000100817"}, {"name": "Discovery Charter School HillPointe", "lat": 36.198028, "lon": -115.2905, "proficiency": 0.1, "district": "STATE-SPONSORED CHARTER SCHOOLS", "city": "Las Vegas", "ncessch": "320000100818"}, {"name": "Somerset Academy Sky Pointe", "lat": 36.288539, "lon": -115.275203, "proficiency": 0.42, "district": "STATE-SPONSORED CHARTER SCHOOLS", "city": "Las Vegas", "ncessch": "320000100820"}, {"name": "Pinecrest Academy of Nevada Cadence", "lat": 36.045494, "lon": -114.980201, "proficiency": 0.37, "district": "STATE-SPONSORED CHARTER SCHOOLS", "city": "Henderson", "ncessch": "320000100825"}, {"name": "Honors Academy of Literature", "lat": 39.52547, "lon": -119.817361, "proficiency": 0.495, "district": "STATE-SPONSORED CHARTER SCHOOLS", "city": "Reno", "ncessch": "320000100826"}, {"name": "Doral Academy Red Rock", "lat": 36.168151, "lon": -115.369979, "proficiency": 0.27, "district": "STATE-SPONSORED CHARTER SCHOOLS", "city": "Las Vegas", "ncessch": "320000100830"}, {"name": "Learning Bridge", "lat": 39.250783, "lon": -114.859508, "proficiency": 0.1, "district": "STATE-SPONSORED CHARTER SCHOOLS", "city": "Ely", "ncessch": "320000100833"}, {"name": "Freedom Classical Academy K-8", "lat": 36.260636, "lon": -115.13138, "proficiency": 0.27, "district": "STATE-SPONSORED CHARTER SCHOOLS", "city": "North Las Vegas", "ncessch": "320000100842"}, {"name": "Founders Academy of Las Vegas", "lat": 36.232595, "lon": -115.222292, "proficiency": 0.05, "district": "STATE-SPONSORED CHARTER SCHOOLS", "city": "Las Vegas", "ncessch": "320000100843"}, {"name": "Amplus Durango", "lat": 36.076905, "lon": -115.274184, "proficiency": 0.42, "district": "STATE-SPONSORED CHARTER SCHOOLS", "city": "Las Vegas", "ncessch": "320000100848"}, {"name": "Mater Mountain Vista", "lat": 36.127177, "lon": -115.074673, "proficiency": 0.22, "district": "STATE-SPONSORED CHARTER SCHOOLS", "city": "Las Vegas", "ncessch": "320000100851"}, {"name": "Equipo Academy", "lat": 36.172896, "lon": -115.086731, "proficiency": 0.075, "district": "STATE-SPONSORED CHARTER SCHOOLS", "city": "Las Vegas", "ncessch": "320000100856"}, {"name": "Sports Leadership and Management Academy", "lat": 36.081743, "lon": -115.042105, "proficiency": 0.12, "district": "STATE-SPONSORED CHARTER SCHOOLS", "city": "Henderson", "ncessch": "320000100870"}, {"name": "Democracy Prep at Agassi Middle", "lat": 36.195055, "lon": -115.15699, "proficiency": 0.05, "district": "STATE-SPONSORED CHARTER SCHOOLS", "city": "Las Vegas", "ncessch": "320000100884"}, {"name": "Leadership Academy of Nevada", "lat": 36.274513, "lon": -115.259471, "proficiency": 0.345, "district": "STATE-SPONSORED CHARTER SCHOOLS", "city": "Las Vegas", "ncessch": "320000100886"}, {"name": "Doral Academy Cactus", "lat": 35.99719, "lon": -115.289767, "proficiency": 0.47, "district": "STATE-SPONSORED CHARTER SCHOOLS", "city": "Las Vegas", "ncessch": "320000100888"}, {"name": "Doral Academy of Northern Nevada", "lat": 39.390735, "lon": -119.779402, "proficiency": 0.47, "district": "STATE-SPONSORED CHARTER SCHOOLS", "city": "Reno", "ncessch": "320000100891"}, {"name": "Doral Academy West Pebble", "lat": 36.026231, "lon": -115.232692, "proficiency": 0.27, "district": "STATE-SPONSORED CHARTER SCHOOLS", "city": "Las Vegas", "ncessch": "320000100892"}, {"name": "Doral Academy Fire Mesa", "lat": 36.207017, "lon": -115.257083, "proficiency": 0.32, "district": "STATE-SPONSORED CHARTER SCHOOLS", "city": "Las Vegas", "ncessch": "320000100893"}, {"name": "Legacy Traditional School North Valley", "lat": 36.251327, "lon": -115.197337, "proficiency": 0.22, "district": "STATE-SPONSORED CHARTER SCHOOLS", "city": "North Las Vegas", "ncessch": "320000100895"}, {"name": "Mater Academy of Northern Nevada", "lat": 39.538002, "lon": -119.780977, "proficiency": 0.1, "district": "STATE-SPONSORED CHARTER SCHOOLS", "city": "Reno", "ncessch": "320000100896"}, {"name": "Somerset Academy Losee", "lat": 36.24428, "lon": -115.115011, "proficiency": 0.12, "district": "STATE-SPONSORED CHARTER SCHOOLS", "city": "North Las Vegas", "ncessch": "320000100898"}, {"name": "Pinecrest Academy of Nevada St Rose", "lat": 35.998693, "lon": -115.133708, "proficiency": 0.37, "district": "STATE-SPONSORED CHARTER SCHOOLS", "city": "Las Vegas", "ncessch": "320000100899"}, {"name": "Somerset Academy Lone Mountain", "lat": 36.242974, "lon": -115.243418, "proficiency": 0.37, "district": "STATE-SPONSORED CHARTER SCHOOLS", "city": "Las Vegas", "ncessch": "320000100901"}, {"name": "Mater Bonanza", "lat": 36.174514, "lon": -115.07031, "proficiency": 0.17, "district": "STATE-SPONSORED CHARTER SCHOOLS", "city": "Las Vegas", "ncessch": "320000100902"}, {"name": "Somerset Academy North Las Vegas", "lat": 36.275172, "lon": -115.146038, "proficiency": 0.12, "district": "STATE-SPONSORED CHARTER SCHOOLS", "city": "North Las Vegas", "ncessch": "320000100904"}, {"name": "Doral Academy Saddle", "lat": 36.116161, "lon": -115.301971, "proficiency": 0.27, "district": "STATE-SPONSORED CHARTER SCHOOLS", "city": "Las Vegas", "ncessch": "320000100906"}, {"name": "Coral Academy Nellis AFB", "lat": 36.246567, "lon": -115.062151, "proficiency": 0.245, "district": "STATE-SPONSORED CHARTER SCHOOLS", "city": "Las Vegas", "ncessch": "320000100907"}, {"name": "Coral Academy Centennial Hills", "lat": 36.283552, "lon": -115.268696, "proficiency": 0.545, "district": "STATE-SPONSORED CHARTER SCHOOLS", "city": "Las Vegas", "ncessch": "320000100908"}, {"name": "Pinecrest Academy of Nevada Inspirada", "lat": 35.930604, "lon": -115.113362, "proficiency": 0.77, "district": "STATE-SPONSORED CHARTER SCHOOLS", "city": "Henderson", "ncessch": "320000100909"}, {"name": "Somerset Academy Stephanie", "lat": 36.032438, "lon": -115.0442, "proficiency": 0.27, "district": "STATE-SPONSORED CHARTER SCHOOLS", "city": "Henderson", "ncessch": "320000100910"}, {"name": "Somerset Academy Skye Canyon", "lat": 36.308205, "lon": -115.329929, "proficiency": 0.37, "district": "STATE-SPONSORED CHARTER SCHOOLS", "city": "Las Vegas", "ncessch": "320000100911"}, {"name": "Legacy Traditional School Cadence", "lat": 36.060772, "lon": -114.967017, "proficiency": 0.32, "district": "STATE-SPONSORED CHARTER SCHOOLS", "city": "Henderson", "ncessch": "320000100912"}, {"name": "Somerset Academy Aliante", "lat": 36.277697, "lon": -115.198617, "proficiency": 0.22, "district": "STATE-SPONSORED CHARTER SCHOOLS", "city": "North Las Vegas", "ncessch": "320000100921"}, {"name": "Nevada Prep Charter School", "lat": 36.192023, "lon": -115.056877, "proficiency": 0.245, "district": "STATE-SPONSORED CHARTER SCHOOLS", "city": "Las Vegas", "ncessch": "320000100929"}, {"name": "Legacy Traditional School Southwest Las Vegas", "lat": 36.033218, "lon": -115.24601, "proficiency": 0.27, "district": "STATE-SPONSORED CHARTER SCHOOLS", "city": "Las Vegas", "ncessch": "320000100934"}, {"name": "Signature Preparatory", "lat": 36.034001, "lon": -114.974611, "proficiency": 0.1, "district": "STATE-SPONSORED CHARTER SCHOOLS", "city": "Henderson", "ncessch": "320000100938"}, {"name": "Pinecrest Academy of Nevada Sloan Canyon", "lat": 35.961323, "lon": -115.148468, "proficiency": 0.37, "district": "STATE-SPONSORED CHARTER SCHOOLS", "city": "Henderson", "ncessch": "320000100941"}, {"name": "Explore Academy", "lat": 36.244534, "lon": -115.236556, "proficiency": 0.245, "district": "STATE-SPONSORED CHARTER SCHOOLS", "city": "Las Vegas", "ncessch": "320000100952"}, {"name": "Mater Academy East", "lat": 36.174152, "lon": -115.091699, "proficiency": 0.12, "district": "STATE-SPONSORED CHARTER SCHOOLS", "city": "Las Vegas", "ncessch": "320000100955"}, {"name": "Davidson Academy", "lat": 39.538754, "lon": -119.816216, "proficiency": 0.9, "district": "DAVIDSON ACADEMY  SCHOOL DISTRICT", "city": "Reno", "ncessch": "320002100680"}, {"name": "Churchill County Middle School", "lat": 39.46897, "lon": -118.777999, "proficiency": 0.12, "district": "CHURCHILL COUNTY SCHOOL DISTRICT", "city": "Fallon", "ncessch": "320003000003"}, {"name": "Woodbury  C W MS", "lat": 36.106829, "lon": -115.090433, "proficiency": 0.075, "district": "CLARK COUNTY SCHOOL DISTRICT", "city": "Las Vegas", "ncessch": "320006000017"}, {"name": "Robison  Dell H MS", "lat": 36.178542, "lon": -115.070186, "proficiency": 0.025, "district": "CLARK COUNTY SCHOOL DISTRICT", "city": "Las Vegas", "ncessch": "320006000025"}, {"name": "Von Tobel  Ed MS", "lat": 36.20418, "lon": -115.097412, "proficiency": 0.12, "district": "CLARK COUNTY SCHOOL DISTRICT", "city": "Las Vegas", "ncessch": "320006000029"}, {"name": "Garside  Frank F JHS", "lat": 36.169084, "lon": -115.23415, "proficiency": 0.075, "district": "CLARK COUNTY SCHOOL DISTRICT", "city": "Las Vegas", "ncessch": "320006000034"}, {"name": "Cannon  Helen C JHS", "lat": 36.083449, "lon": -115.11559, "proficiency": 0.025, "district": "CLARK COUNTY SCHOOL DISTRICT", "city": "Las Vegas", "ncessch": "320006000042"}, {"name": "Hyde Park MS", "lat": 36.161493, "lon": -115.194167, "proficiency": 0.42, "district": "CLARK COUNTY SCHOOL DISTRICT", "city": "Las Vegas", "ncessch": "320006000047"}, {"name": "Brinley  J Harold MS", "lat": 36.20487, "lon": -115.227696, "proficiency": 0.06, "district": "CLARK COUNTY SCHOOL DISTRICT", "city": "Las Vegas", "ncessch": "320006000053"}, {"name": "Cashman  James MS", "lat": 36.130927, "lon": -115.204562, "proficiency": 0.12, "district": "CLARK COUNTY SCHOOL DISTRICT", "city": "Las Vegas", "ncessch": "320006000056"}, {"name": "Bridger  Jim MS", "lat": 36.204877, "lon": -115.126118, "proficiency": 0.075, "district": "CLARK COUNTY SCHOOL DISTRICT", "city": "N  Las Vegas", "ncessch": "320006000057"}, {"name": "Fremont  John C Professional Dev MS", "lat": 36.147266, "lon": -115.139357, "proficiency": 0.05, "district": "CLARK COUNTY SCHOOL DISTRICT", "city": "Las Vegas", "ncessch": "320006000059"}, {"name": "Knudson  K O Academy of the Arts", "lat": 36.145307, "lon": -115.11539, "proficiency": 0.12, "district": "CLARK COUNTY SCHOOL DISTRICT", "city": "Las Vegas", "ncessch": "320006000062"}, {"name": "Swainston  Theron L MS", "lat": 36.229214, "lon": -115.185881, "proficiency": 0.075, "district": "CLARK COUNTY SCHOOL DISTRICT", "city": "N  Las Vegas", "ncessch": "320006000084"}, {"name": "Gibson  Robert O MS Leadership Academy", "lat": 36.182006, "lon": -115.197462, "proficiency": 0.12, "district": "CLARK COUNTY SCHOOL DISTRICT", "city": "Las Vegas", "ncessch": "320006000094"}, {"name": "Variety J-SHS", "lat": 36.166115, "lon": -115.111007, "proficiency": 0.245, "district": "CLARK COUNTY SCHOOL DISTRICT", "city": "Las Vegas", "ncessch": "320006000108"}, {"name": "Orr  William E MS", "lat": 36.121296, "lon": -115.131653, "proficiency": 0.025, "district": "CLARK COUNTY SCHOOL DISTRICT", "city": "Las Vegas", "ncessch": "320006000117"}, {"name": "White  Thurman Academy of the Arts MS", "lat": 36.079269, "lon": -115.060202, "proficiency": 0.22, "district": "CLARK COUNTY SCHOOL DISTRICT", "city": "Henderson", "ncessch": "320006000127"}, {"name": "Becker  Ernest MS", "lat": 36.20073, "lon": -115.294123, "proficiency": 0.17, "district": "CLARK COUNTY SCHOOL DISTRICT", "city": "Las Vegas", "ncessch": "320006000273"}, {"name": "Sawyer  Grant MS", "lat": 36.089516, "lon": -115.23766, "proficiency": 0.12, "district": "CLARK COUNTY SCHOOL DISTRICT", "city": "Las Vegas", "ncessch": "320006000274"}, {"name": "Lyon  Mack MS", "lat": 36.541734, "lon": -114.448435, "proficiency": 0.47, "district": "CLARK COUNTY SCHOOL DISTRICT", "city": "Overton", "ncessch": "320006000275"}, {"name": "Guinn  Kenny C MS", "lat": 36.113641, "lon": -115.2328, "proficiency": 0.27, "district": "CLARK COUNTY SCHOOL DISTRICT", "city": "Las Vegas", "ncessch": "320006000289"}, {"name": "Garrett  Elton M JHS", "lat": 35.969715, "lon": -114.832705, "proficiency": 0.22, "district": "CLARK COUNTY SCHOOL DISTRICT", "city": "Boulder City", "ncessch": "320006000291"}, {"name": "Brown  B Mahlon JHS", "lat": 36.051723, "lon": -114.955207, "proficiency": 0.17, "district": "CLARK COUNTY SCHOOL DISTRICT", "city": "Henderson", "ncessch": "320006000301"}, {"name": "Sandy Valley J-SHS", "lat": 35.813294, "lon": -115.610032, "proficiency": 0.1, "district": "CLARK COUNTY SCHOOL DISTRICT", "city": "Sandy Valley", "ncessch": "320006000304"}, {"name": "Greenspun  Barbara & Hank JHS", "lat": 36.035372, "lon": -115.065448, "proficiency": 0.32, "district": "CLARK COUNTY SCHOOL DISTRICT", "city": "Henderson", "ncessch": "320006000402"}, {"name": "Johnson  Walter JHS Academy of Int'l Studies", "lat": 36.169167, "lon": -115.262127, "proficiency": 0.32, "district": "CLARK COUNTY SCHOOL DISTRICT", "city": "Las Vegas", "ncessch": "320006000403"}, {"name": "O'Callaghan  Mike MS i3 Learn Academy", "lat": 36.184714, "lon": -115.020433, "proficiency": 0.32, "district": "CLARK COUNTY SCHOOL DISTRICT", "city": "Las Vegas", "ncessch": "320006000404"}, {"name": "Laughlin J-SHS", "lat": 35.163729, "lon": -114.614471, "proficiency": 0.05, "district": "CLARK COUNTY SCHOOL DISTRICT", "city": "Laughlin", "ncessch": "320006000408"}, {"name": "West Preparatory Institute J-SHS", "lat": 36.194116, "lon": -115.167043, "proficiency": 0.05, "district": "CLARK COUNTY SCHOOL DISTRICT", "city": "Las Vegas", "ncessch": "320006000460"}, {"name": "Lied STEM Academy MS", "lat": 36.269303, "lon": -115.215079, "proficiency": 0.33, "district": "CLARK COUNTY SCHOOL DISTRICT", "city": "Las Vegas", "ncessch": "320006000461"}, {"name": "Keller  Duane D MS", "lat": 36.166253, "lon": -115.036357, "proficiency": 0.025, "district": "CLARK COUNTY SCHOOL DISTRICT", "city": "Las Vegas", "ncessch": "320006000462"}, {"name": "Molasky  Irwin & Susan JHS", "lat": 36.228603, "lon": -115.265411, "proficiency": 0.075, "district": "CLARK COUNTY SCHOOL DISTRICT", "city": "Las Vegas", "ncessch": "320006000474"}, {"name": "Silvestri  Charles JHS", "lat": 36.012626, "lon": -115.141238, "proficiency": 0.17, "district": "CLARK COUNTY SCHOOL DISTRICT", "city": "Las Vegas", "ncessch": "320006000475"}, {"name": "Cortney  Francis H JHS", "lat": 36.092118, "lon": -115.058056, "proficiency": 0.075, "district": "CLARK COUNTY SCHOOL DISTRICT", "city": "Las Vegas", "ncessch": "320006000476"}, {"name": "Lawrence  Clifford J JHS", "lat": 36.108185, "lon": -115.284691, "proficiency": 0.12, "district": "CLARK COUNTY SCHOOL DISTRICT", "city": "Las Vegas", "ncessch": "320006000490"}, {"name": "Miller  Bob MS", "lat": 36.013116, "lon": -115.093381, "proficiency": 0.42, "district": "CLARK COUNTY SCHOOL DISTRICT", "city": "Henderson", "ncessch": "320006000514"}, {"name": "Rogich  Sig MS", "lat": 36.175896, "lon": -115.33455, "proficiency": 0.37, "district": "CLARK COUNTY SCHOOL DISTRICT", "city": "Las Vegas", "ncessch": "320006000515"}, {"name": "Leavitt  Justice Myron E MS", "lat": 36.245344, "lon": -115.263925, "proficiency": 0.22, "district": "CLARK COUNTY SCHOOL DISTRICT", "city": "Las Vegas", "ncessch": "320006000534"}, {"name": "Cram  Brian & Teri MS", "lat": 36.285137, "lon": -115.16977, "proficiency": 0.22, "district": "CLARK COUNTY SCHOOL DISTRICT", "city": "N  Las Vegas", "ncessch": "320006000535"}, {"name": "Monaco  Mario C & JoAnne MS", "lat": 36.193379, "lon": -115.065249, "proficiency": 0.025, "district": "CLARK COUNTY SCHOOL DISTRICT", "city": "Las Vegas", "ncessch": "320006000536"}, {"name": "Schofield  Jack Lund MS", "lat": 36.032519, "lon": -115.128636, "proficiency": 0.12, "district": "CLARK COUNTY SCHOOL DISTRICT", "city": "Las Vegas", "ncessch": "320006000537"}, {"name": "Sedway  Marvin M MS", "lat": 36.222427, "lon": -115.148976, "proficiency": 0.075, "district": "CLARK COUNTY SCHOOL DISTRICT", "city": "N  Las Vegas", "ncessch": "320006000538"}, {"name": "Harney  Kathleen & Tim MS", "lat": 36.154428, "lon": -115.021241, "proficiency": 0.17, "district": "CLARK COUNTY SCHOOL DISTRICT", "city": "Las Vegas", "ncessch": "320006000553"}, {"name": "Fertitta  Victoria MS", "lat": 36.089855, "lon": -115.309998, "proficiency": 0.27, "district": "CLARK COUNTY SCHOOL DISTRICT", "city": "Las Vegas", "ncessch": "320006000554"}, {"name": "Saville  Anthony MS", "lat": 36.306155, "lon": -115.234626, "proficiency": 0.22, "district": "CLARK COUNTY SCHOOL DISTRICT", "city": "Las Vegas", "ncessch": "320006000565"}, {"name": "Findlay  Clifford O MS", "lat": 36.267945, "lon": -115.145483, "proficiency": 0.075, "district": "CLARK COUNTY SCHOOL DISTRICT", "city": "N  Las Vegas", "ncessch": "320006000570"}, {"name": "Mannion  Jack & Terry MS", "lat": 35.989893, "lon": -114.980039, "proficiency": 0.32, "district": "CLARK COUNTY SCHOOL DISTRICT", "city": "Henderson", "ncessch": "320006000578"}, {"name": "Cadwallader  Ralph MS", "lat": 36.2897, "lon": -115.263739, "proficiency": 0.32, "district": "CLARK COUNTY SCHOOL DISTRICT", "city": "Las Vegas", "ncessch": "320006000590"}, {"name": "Canarelli  Lawrence & Heidi MS", "lat": 36.046425, "lon": -115.233228, "proficiency": 0.27, "district": "CLARK COUNTY SCHOOL DISTRICT", "city": "Las Vegas", "ncessch": "320006000591"}, {"name": "Hughes  Charles Arthur MS", "lat": 36.795645, "lon": -114.082861, "proficiency": 0.22, "district": "CLARK COUNTY SCHOOL DISTRICT", "city": "Mesquite", "ncessch": "320006000592"}, {"name": "Webb  Del E MS", "lat": 35.980876, "lon": -115.084848, "proficiency": 0.47, "district": "CLARK COUNTY SCHOOL DISTRICT", "city": "Henderson", "ncessch": "320006000659"}, {"name": "Mack  Jerome MS", "lat": 36.141521, "lon": -115.081508, "proficiency": 0.05, "district": "CLARK COUNTY SCHOOL DISTRICT", "city": "Las Vegas", "ncessch": "320006000660"}, {"name": "Bailey  Dr William H MS", "lat": 36.205246, "lon": -115.025635, "proficiency": 0.025, "district": "CLARK COUNTY SCHOOL DISTRICT", "city": "Las Vegas", "ncessch": "320006000663"}, {"name": "Johnston  Carroll M MS", "lat": 36.266208, "lon": -115.122615, "proficiency": 0.075, "district": "CLARK COUNTY SCHOOL DISTRICT", "city": "N  Las Vegas", "ncessch": "320006000672"}, {"name": "Odyssey Charter Schools 6-8 MS", "lat": 36.146949, "lon": -115.226415, "proficiency": 0.22, "district": "CLARK COUNTY SCHOOL DISTRICT", "city": "Las Vegas", "ncessch": "320006000698"}, {"name": "Indian Springs MS", "lat": 36.574247, "lon": -115.676645, "proficiency": 0.1, "district": "CLARK COUNTY SCHOOL DISTRICT", "city": "Indian Springs", "ncessch": "320006000699"}, {"name": "Tarkanian  Lois & Jerry MS", "lat": 36.006992, "lon": -115.221214, "proficiency": 0.37, "district": "CLARK COUNTY SCHOOL DISTRICT", "city": "Las Vegas", "ncessch": "320006000700"}, {"name": "Explore Knowledge Academy J-SHS", "lat": 36.08226, "lon": -115.073761, "proficiency": 0.345, "district": "CLARK COUNTY SCHOOL DISTRICT", "city": "Las Vegas", "ncessch": "320006000707"}, {"name": "Faiss  Wilbur & Theresa MS", "lat": 36.062078, "lon": -115.300982, "proficiency": 0.12, "district": "CLARK COUNTY SCHOOL DISTRICT", "city": "Las Vegas", "ncessch": "320006000730"}, {"name": "Burkholder  Lyal MS", "lat": 36.029358, "lon": -114.992483, "proficiency": 0.12, "district": "CLARK COUNTY SCHOOL DISTRICT", "city": "Henderson", "ncessch": "320006000738"}, {"name": "Escobedo  Edmundo Eddie Sr MS", "lat": 36.282046, "lon": -115.303921, "proficiency": 0.16, "district": "CLARK COUNTY SCHOOL DISTRICT", "city": "Las Vegas", "ncessch": "320006000739"}, {"name": "The Delta Academy J-SHS", "lat": 36.214673, "lon": -115.152421, "proficiency": 0.075, "district": "CLARK COUNTY SCHOOL DISTRICT", "city": "North Las Vegas", "ncessch": "320006000745"}, {"name": "Innovations Int'l Charter J-SHS", "lat": 36.144524, "lon": -115.141544, "proficiency": 0.025, "district": "CLARK COUNTY SCHOOL DISTRICT", "city": "Las Vegas", "ncessch": "320006000749"}, {"name": "100 Academy of Engineering and Technology MS", "lat": 36.20172, "lon": -115.165992, "proficiency": 0.05, "district": "CLARK COUNTY SCHOOL DISTRICT", "city": "N  Las Vegas", "ncessch": "320006000756"}, {"name": "Stewart  Helen J", "lat": 36.117695, "lon": -115.120857, "proficiency": 0.245, "district": "CLARK COUNTY SCHOOL DISTRICT", "city": "Las Vegas", "ncessch": "320006000774"}, {"name": "NV Learning Academy J-SHS", "lat": 36.115832, "lon": -115.109201, "proficiency": 0.245, "district": "CLARK COUNTY SCHOOL DISTRICT", "city": "Las Vegas", "ncessch": "320006000845"}, {"name": "Carson Valley Middle School", "lat": 38.944285, "lon": -119.751141, "proficiency": 0.32, "district": "DOUGLAS COUNTY SCHOOL DISTRICT", "city": "Gardnerville", "ncessch": "320009000119"}, {"name": "George Whittell High School", "lat": 39.013978, "lon": -119.942119, "proficiency": 0.3, "district": "DOUGLAS COUNTY SCHOOL DISTRICT", "city": "Zephyr Cove", "ncessch": "320009000122"}, {"name": "Pau Wa Lu Middle School", "lat": 38.887487, "lon": -119.723693, "proficiency": 0.22, "district": "DOUGLAS COUNTY SCHOOL DISTRICT", "city": "Gardnerville", "ncessch": "320009000422"}, {"name": "Douglas Nevada Online", "lat": 38.959323, "lon": -119.730078, "proficiency": 0.3, "district": "DOUGLAS COUNTY SCHOOL DISTRICT", "city": "Minden", "ncessch": "320009000951"}, {"name": "Adobe Middle School", "lat": 40.844806, "lon": -115.802304, "proficiency": 0.13, "district": "ELKO COUNTY SCHOOL DISTRICT", "city": "Elko", "ncessch": "320012000326"}, {"name": "Spring Creek Middle School", "lat": 40.777136, "lon": -115.645719, "proficiency": 0.17, "district": "ELKO COUNTY SCHOOL DISTRICT", "city": "Spring Creek", "ncessch": "320012000464"}, {"name": "Carlin Jr High School", "lat": 40.716797, "lon": -116.110229, "proficiency": 0.1, "district": "ELKO COUNTY SCHOOL DISTRICT", "city": "Carlin", "ncessch": "320012000674"}, {"name": "Owyhee Jr High School", "lat": 41.943123, "lon": -116.097321, "proficiency": 0.1, "district": "ELKO COUNTY SCHOOL DISTRICT", "city": "Owyhee", "ncessch": "320012000684"}, {"name": "Wells Jr High School", "lat": 41.108354, "lon": -114.970202, "proficiency": 0.1, "district": "ELKO COUNTY SCHOOL DISTRICT", "city": "Wells", "ncessch": "320012000685"}, {"name": "Jackpot Jr High School", "lat": 41.982371, "lon": -114.668852, "proficiency": 0.245, "district": "ELKO COUNTY SCHOOL DISTRICT", "city": "Jackpot", "ncessch": "320012000692"}, {"name": "West Wendover Middle School", "lat": 40.732983, "lon": -114.081116, "proficiency": 0.075, "district": "ELKO COUNTY SCHOOL DISTRICT", "city": "West Wendover", "ncessch": "320012000728"}, {"name": "Northeastern Nevada Virtual Academy", "lat": 40.84013, "lon": -115.766751, "proficiency": 0.1, "district": "ELKO COUNTY SCHOOL DISTRICT", "city": "Elko", "ncessch": "320012000839"}, {"name": "Dyer Elementary School", "lat": 37.704854, "lon": -118.086476, "proficiency": 0.245, "district": "ESMERALDA COUNTY SCHOOL DISTRICT", "city": "Dyer", "ncessch": "320015000143"}, {"name": "Eureka County High School", "lat": 39.514075, "lon": -115.96722, "proficiency": 0.1, "district": "EUREKA COUNTY SCHOOL DISTRICT", "city": "Eureka", "ncessch": "320018000148"}, {"name": "Winnemucca Junior High School", "lat": 40.974813, "lon": -117.729321, "proficiency": 0.32, "district": "HUMBOLDT COUNTY SCHOOL DISTRICT", "city": "Winnemucca", "ncessch": "320021000159"}, {"name": "Eleanor Lemaire Junior High School", "lat": 40.640967, "lon": -116.954873, "proficiency": 0.17, "district": "LANDER COUNTY SCHOOL DISTRICT", "city": "Battle Mountain", "ncessch": "320024000866"}, {"name": "Meadow Valley Middle School", "lat": 37.791361, "lon": -114.387746, "proficiency": 0.245, "district": "LINCOLN COUNTY SCHOOL DISTRICT", "city": "Panaca", "ncessch": "320027000410"}, {"name": "Pahranagat Valley Middle School", "lat": 37.361766, "lon": -115.165017, "proficiency": 0.3, "district": "LINCOLN COUNTY SCHOOL DISTRICT", "city": "Alamo", "ncessch": "320027000423"}, {"name": "Smith Valley Schools", "lat": 38.80267, "lon": -119.327526, "proficiency": 0.1, "district": "LYON COUNTY SCHOOL DISTRICT", "city": "Smith", "ncessch": "320030000178"}, {"name": "Yerington Intermediate School", "lat": 38.990073, "lon": -119.159565, "proficiency": 0.17, "district": "LYON COUNTY SCHOOL DISTRICT", "city": "Yerington", "ncessch": "320030000312"}, {"name": "Dayton Intermediate School", "lat": 39.239366, "lon": -119.576423, "proficiency": 0.17, "district": "LYON COUNTY SCHOOL DISTRICT", "city": "Dayton", "ncessch": "320030000386"}, {"name": "Silver Stage Middle School", "lat": 39.390878, "lon": -119.283588, "proficiency": 0.17, "district": "LYON COUNTY SCHOOL DISTRICT", "city": "Silver Springs", "ncessch": "320030000424"}, {"name": "Silverland Middle School", "lat": 39.590958, "lon": -119.195562, "proficiency": 0.12, "district": "LYON COUNTY SCHOOL DISTRICT", "city": "Fernley", "ncessch": "320030000810"}, {"name": "Hawthorne Junior High", "lat": 38.526407, "lon": -118.629443, "proficiency": 0.05, "district": "MINERAL COUNTY SCHOOL DISTRICT", "city": "Hawthorne", "ncessch": "320033000479"}, {"name": "Rosemary Clarke Middle School", "lat": 36.282012, "lon": -116.013257, "proficiency": 0.17, "district": "NYE COUNTY SCHOOL DISTRICT", "city": "Pahrump", "ncessch": "320036000412"}, {"name": "Pathways Middle School", "lat": 36.189705, "lon": -116.003092, "proficiency": 0.1, "district": "NYE COUNTY SCHOOL DISTRICT", "city": "Pahrump", "ncessch": "320036000556"}, {"name": "Amargosa Valley Middle School", "lat": 36.569404, "lon": -116.461016, "proficiency": 0.245, "district": "NYE COUNTY SCHOOL DISTRICT", "city": "Amargosa", "ncessch": "320036000564"}, {"name": "Beatty Middle School", "lat": 36.907381, "lon": -116.762877, "proficiency": 0.245, "district": "NYE COUNTY SCHOOL DISTRICT", "city": "Beatty", "ncessch": "320036000566"}, {"name": "Tonopah Middle School", "lat": 38.061129, "lon": -117.232703, "proficiency": 0.1, "district": "NYE COUNTY SCHOOL DISTRICT", "city": "Tonopah", "ncessch": "320036000618"}, {"name": "Carson Middle School", "lat": 39.16489, "lon": -119.777217, "proficiency": 0.19, "district": "CARSON CITY SCHOOL DISTRICT", "city": "Carson City", "ncessch": "320039000281"}, {"name": "Eagle Valley Middle School", "lat": 39.158859, "lon": -119.72001, "proficiency": 0.17, "district": "CARSON CITY SCHOOL DISTRICT", "city": "Carson City", "ncessch": "320039000315"}, {"name": "Pershing County Middle School", "lat": 40.183187, "lon": -118.478465, "proficiency": 0.245, "district": "PERSHING COUNTY SCHOOL DISTRICT", "city": "Lovelock", "ncessch": "320042000167"}, {"name": "Virginia City Middle School", "lat": 39.309015, "lon": -119.649175, "proficiency": 0.15, "district": "STOREY COUNTY SCHOOL DISTRICT", "city": "Virginia City", "ncessch": "320045000365"}, {"name": "ARCHIE CLAYTON PRE-A.P. ACADEMY", "lat": 39.536596, "lon": -119.84712, "proficiency": 0.32, "district": "WASHOE COUNTY SCHOOL DISTRICT", "city": "RENO", "ncessch": "320048000204"}, {"name": "DARREL SWOPE MIDDLE SCHOOL", "lat": 39.51007, "lon": -119.847053, "proficiency": 0.32, "district": "WASHOE COUNTY SCHOOL DISTRICT", "city": "RENO", "ncessch": "320048000206"}, {"name": "E. OTIS VAUGHN MIDDLE SCHOOL", "lat": 39.514125, "lon": -119.792125, "proficiency": 0.025, "district": "WASHOE COUNTY SCHOOL DISTRICT", "city": "RENO", "ncessch": "320048000207"}, {"name": "EDWARD L. PINE MIDDLE SCHOOL", "lat": 39.479921, "lon": -119.780691, "proficiency": 0.15, "district": "WASHOE COUNTY SCHOOL DISTRICT", "city": "RENO", "ncessch": "320048000211"}, {"name": "FRED W. TRANER MIDDLE SCHOOL", "lat": 39.541394, "lon": -119.792507, "proficiency": 0.075, "district": "WASHOE COUNTY SCHOOL DISTRICT", "city": "RENO", "ncessch": "320048000215"}, {"name": "GEORGE L. DILWORTH S.T.E.M ACADEMY", "lat": 39.540964, "lon": -119.74557, "proficiency": 0.12, "district": "WASHOE COUNTY SCHOOL DISTRICT", "city": "SPARKS", "ncessch": "320048000216"}, {"name": "WILLIAM OBRIEN MIDDLE SCHOOL", "lat": 39.622622, "lon": -119.879244, "proficiency": 0.075, "district": "WASHOE COUNTY SCHOOL DISTRICT", "city": "RENO", "ncessch": "320048000235"}, {"name": "SPARKS MIDDLE SCHOOL", "lat": 39.551923, "lon": -119.768564, "proficiency": 0.12, "district": "WASHOE COUNTY SCHOOL DISTRICT", "city": "SPARKS", "ncessch": "320048000247"}, {"name": "INCLINE MIDDLE SCHOOL", "lat": 39.246856, "lon": -119.946913, "proficiency": 0.245, "district": "WASHOE COUNTY SCHOOL DISTRICT", "city": "INCLINE VILLAGE", "ncessch": "320048000318"}, {"name": "MOUNT ROSE K-8 ACADEMY OF LANGUAGES", "lat": 39.515273, "lon": -119.81579, "proficiency": 0.845, "district": "WASHOE COUNTY SCHOOL DISTRICT", "city": "RENO", "ncessch": "320048000321"}, {"name": "BILLINGHURST MIDDLE SCHOOL", "lat": 39.521776, "lon": -119.894305, "proficiency": 0.26, "district": "WASHOE COUNTY SCHOOL DISTRICT", "city": "RENO", "ncessch": "320048000391"}, {"name": "LOU MENDIVE MIDDLE SCHOOL", "lat": 39.551525, "lon": -119.70705, "proficiency": 0.22, "district": "WASHOE COUNTY SCHOOL DISTRICT", "city": "SPARKS", "ncessch": "320048000433"}, {"name": "Sierra Nevada Academy Charter", "lat": 39.641668, "lon": -119.88022, "proficiency": 0.05, "district": "WASHOE COUNTY SCHOOL DISTRICT", "city": "RENO", "ncessch": "320048000503"}, {"name": "High Desert Montessori", "lat": 39.548975, "lon": -119.781474, "proficiency": 0.1, "district": "WASHOE COUNTY SCHOOL DISTRICT", "city": "RENO", "ncessch": "320048000561"}, {"name": "YVONNE SHAW MIDDLE SCHOOL", "lat": 39.647609, "lon": -119.72318, "proficiency": 0.32, "district": "WASHOE COUNTY SCHOOL DISTRICT", "city": "SPARKS", "ncessch": "320048000624"}, {"name": "COLD SPRINGS MIDDLE SCHOOL", "lat": 39.692494, "lon": -119.962765, "proficiency": 0.12, "district": "WASHOE COUNTY SCHOOL DISTRICT", "city": "RENO", "ncessch": "320048000673"}, {"name": "KENDYL DEPOALI MIDDLE SCHOOL", "lat": 39.44853, "lon": -119.73473, "proficiency": 0.39, "district": "WASHOE COUNTY SCHOOL DISTRICT", "city": "RENO", "ncessch": "320048000678"}, {"name": "NORTH STAR ONLINE SCHOOL", "lat": 39.473814, "lon": -119.775522, "proficiency": 0.545, "district": "WASHOE COUNTY SCHOOL DISTRICT", "city": "RENO", "ncessch": "320048000844"}, {"name": "Coral Academy Middle School", "lat": 39.538214, "lon": -119.79657, "proficiency": 0.37, "district": "WASHOE COUNTY SCHOOL DISTRICT", "city": "RENO", "ncessch": "320048000880"}, {"name": "SKY RANCH MIDDLE SCHOOL", "lat": 39.61006, "lon": -119.722463, "proficiency": 0.36, "district": "WASHOE COUNTY SCHOOL DISTRICT", "city": "SPARKS", "ncessch": "320048000913"}, {"name": "DESERT SKIES MIDDLE SCHOOL", "lat": 39.622181, "lon": -119.764915, "proficiency": 0.11, "district": "WASHOE COUNTY SCHOOL DISTRICT", "city": "SUN VALLEY", "ncessch": "320048000932"}, {"name": "MARCE HERZ MIDDLE SCHOOL", "lat": 39.406396, "lon": -119.793847, "proficiency": 0.47, "district": "WASHOE COUNTY SCHOOL DISTRICT", "city": "RENO", "ncessch": "320048000939"}, {"name": "White Pine Middle School", "lat": 39.248989, "lon": -114.889666, "proficiency": 0.17, "district": "WHITE PINE COUNTY SCHOOL DISTRICT", "city": "Ely", "ncessch": "320051000256"}, {"name": "Lund High School", "lat": 38.862055, "lon": -114.999657, "proficiency": 0.245, "district": "WHITE PINE COUNTY SCHOOL DISTRICT", "city": "Lund", "ncessch": "320051000606"}], "districts": [{"name": "STATE-SPONSORED CHARTER SCHOOLS", "lat": 36.617500955555556, "lon": -115.55958697777777, "proficiency": 0.2823, "schoolCount": 45}, {"name": "DAVIDSON ACADEMY  SCHOOL DISTRICT", "lat": 39.538754, "lon": -119.816216, "proficiency": 0.9, "schoolCount": 1}, {"name": "CHURCHILL COUNTY SCHOOL DISTRICT", "lat": 39.46897, "lon": -118.777999, "proficiency": 0.12, "schoolCount": 1}, {"name": "CLARK COUNTY SCHOOL DISTRICT", "lat": 36.14768233846154, "lon": -115.12797424615384, "proficiency": 0.1728, "schoolCount": 65}, {"name": "DOUGLAS COUNTY SCHOOL DISTRICT", "lat": 38.95126825, "lon": -119.78675775, "proficiency": 0.285, "schoolCount": 4}, {"name": "ELKO COUNTY SCHOOL DISTRICT", "lat": 41.1182125, "lon": -115.39281174999999, "proficiency": 0.1275, "schoolCount": 8}, {"name": "ESMERALDA COUNTY SCHOOL DISTRICT", "lat": 37.704854, "lon": -118.086476, "proficiency": 0.245, "schoolCount": 1}, {"name": "EUREKA COUNTY SCHOOL DISTRICT", "lat": 39.514075, "lon": -115.96722, "proficiency": 0.1, "schoolCount": 1}, {"name": "HUMBOLDT COUNTY SCHOOL DISTRICT", "lat": 40.974813, "lon": -117.729321, "proficiency": 0.32, "schoolCount": 1}, {"name": "LANDER COUNTY SCHOOL DISTRICT", "lat": 40.640967, "lon": -116.954873, "proficiency": 0.17, "schoolCount": 1}, {"name": "LINCOLN COUNTY SCHOOL DISTRICT", "lat": 37.576563500000006, "lon": -114.77638150000001, "proficiency": 0.2725, "schoolCount": 2}, {"name": "LYON COUNTY SCHOOL DISTRICT", "lat": 39.202789, "lon": -119.30853280000001, "proficiency": 0.146, "schoolCount": 5}, {"name": "MINERAL COUNTY SCHOOL DISTRICT", "lat": 38.526407, "lon": -118.629443, "proficiency": 0.05, "schoolCount": 1}, {"name": "NYE COUNTY SCHOOL DISTRICT", "lat": 36.801926200000004, "lon": -116.49458899999999, "proficiency": 0.172, "schoolCount": 5}, {"name": "CARSON CITY SCHOOL DISTRICT", "lat": 39.161874499999996, "lon": -119.7486135, "proficiency": 0.18, "schoolCount": 2}, {"name": "PERSHING COUNTY SCHOOL DISTRICT", "lat": 40.183187, "lon": -118.478465, "proficiency": 0.245, "schoolCount": 1}, {"name": "STOREY COUNTY SCHOOL DISTRICT", "lat": 39.309015, "lon": -119.649175, "proficiency": 0.15, "schoolCount": 1}, {"name": "WASHOE COUNTY SCHOOL DISTRICT", "lat": 39.53468118181818, "lon": -119.80693718181818, "proficiency": 0.255, "schoolCount": 22}, {"name": "WHITE PINE COUNTY SCHOOL DISTRICT", "lat": 39.055521999999996, "lon": -114.9446615, "proficiency": 0.2075, "schoolCount": 2}], "cities": [{"name": "Las Vegas", "lat": 36.158172739130436, "lon": -115.18527460869565, "proficiency": 0.1989, "schoolCount": 69}, {"name": "Henderson", "lat": 36.0246739375, "lon": -115.04132824999999, "proficiency": 0.3237, "schoolCount": 16}, {"name": "Elko", "lat": 40.84040866666667, "lon": -115.77559766666667, "proficiency": 0.2417, "schoolCount": 3}, {"name": "Fallon", "lat": 39.473102999999995, "lon": -118.78338249999999, "proficiency": 0.3325, "schoolCount": 2}, {"name": "Reno", "lat": 39.498240249999995, "lon": -119.798489, "proficiency": 0.4913, "schoolCount": 4}, {"name": "Ely", "lat": 39.249886000000004, "lon": -114.874587, "proficiency": 0.135, "schoolCount": 2}, {"name": "North Las Vegas", "lat": 36.25396416666667, "lon": -115.15680066666665, "proficiency": 0.1708, "schoolCount": 6}, {"name": "N  Las Vegas", "lat": 36.23964685714286, "lon": -115.15211928571429, "proficiency": 0.0921, "schoolCount": 7}, {"name": "Overton", "lat": 36.541734, "lon": -114.448435, "proficiency": 0.47, "schoolCount": 1}, {"name": "Boulder City", "lat": 35.969715, "lon": -114.832705, "proficiency": 0.22, "schoolCount": 1}, {"name": "Sandy Valley", "lat": 35.813294, "lon": -115.610032, "proficiency": 0.1, "schoolCount": 1}, {"name": "Laughlin", "lat": 35.163729, "lon": -114.614471, "proficiency": 0.05, "schoolCount": 1}, {"name": "Mesquite", "lat": 36.795645, "lon": -114.082861, "proficiency": 0.22, "schoolCount": 1}, {"name": "Indian Springs", "lat": 36.574247, "lon": -115.676645, "proficiency": 0.1, "schoolCount": 1}, {"name": "Gardnerville", "lat": 38.915886, "lon": -119.737417, "proficiency": 0.27, "schoolCount": 2}, {"name": "Zephyr Cove", "lat": 39.013978, "lon": -119.942119, "proficiency": 0.3, "schoolCount": 1}, {"name": "Minden", "lat": 38.959323, "lon": -119.730078, "proficiency": 0.3, "schoolCount": 1}, {"name": "Spring Creek", "lat": 40.777136, "lon": -115.645719, "proficiency": 0.17, "schoolCount": 1}, {"name": "Carlin", "lat": 40.716797, "lon": -116.110229, "proficiency": 0.1, "schoolCount": 1}, {"name": "Owyhee", "lat": 41.943123, "lon": -116.097321, "proficiency": 0.1, "schoolCount": 1}, {"name": "Wells", "lat": 41.108354, "lon": -114.970202, "proficiency": 0.1, "schoolCount": 1}, {"name": "Jackpot", "lat": 41.982371, "lon": -114.668852, "proficiency": 0.245, "schoolCount": 1}, {"name": "West Wendover", "lat": 40.732983, "lon": -114.081116, "proficiency": 0.075, "schoolCount": 1}, {"name": "Dyer", "lat": 37.704854, "lon": -118.086476, "proficiency": 0.245, "schoolCount": 1}, {"name": "Eureka", "lat": 39.514075, "lon": -115.96722, "proficiency": 0.1, "schoolCount": 1}, {"name": "Winnemucca", "lat": 40.974813, "lon": -117.729321, "proficiency": 0.32, "schoolCount": 1}, {"name": "Battle Mountain", "lat": 40.640967, "lon": -116.954873, "proficiency": 0.17, "schoolCount": 1}, {"name": "Panaca", "lat": 37.791361, "lon": -114.387746, "proficiency": 0.245, "schoolCount": 1}, {"name": "Alamo", "lat": 37.361766, "lon": -115.165017, "proficiency": 0.3, "schoolCount": 1}, {"name": "Smith", "lat": 38.80267, "lon": -119.327526, "proficiency": 0.1, "schoolCount": 1}, {"name": "Yerington", "lat": 38.990073, "lon": -119.159565, "proficiency": 0.17, "schoolCount": 1}, {"name": "Dayton", "lat": 39.239366, "lon": -119.576423, "proficiency": 0.17, "schoolCount": 1}, {"name": "Silver Springs", "lat": 39.390878, "lon": -119.283588, "proficiency": 0.17, "schoolCount": 1}, {"name": "Fernley", "lat": 39.590958, "lon": -119.195562, "proficiency": 0.12, "schoolCount": 1}, {"name": "Hawthorne", "lat": 38.526407, "lon": -118.629443, "proficiency": 0.05, "schoolCount": 1}, {"name": "Pahrump", "lat": 36.2358585, "lon": -116.0081745, "proficiency": 0.135, "schoolCount": 2}, {"name": "Amargosa", "lat": 36.569404, "lon": -116.461016, "proficiency": 0.245, "schoolCount": 1}, {"name": "Beatty", "lat": 36.907381, "lon": -116.762877, "proficiency": 0.245, "schoolCount": 1}, {"name": "Tonopah", "lat": 38.061129, "lon": -117.232703, "proficiency": 0.1, "schoolCount": 1}, {"name": "Carson City", "lat": 39.161874499999996, "lon": -119.7486135, "proficiency": 0.18, "schoolCount": 2}, {"name": "Lovelock", "lat": 40.183187, "lon": -118.478465, "proficiency": 0.245, "schoolCount": 1}, {"name": "Virginia City", "lat": 39.309015, "lon": -119.649175, "proficiency": 0.15, "schoolCount": 1}, {"name": "RENO", "lat": 39.5327912, "lon": -119.82493086666666, "proficiency": 0.2743, "schoolCount": 15}, {"name": "SPARKS", "lat": 39.5804162, "lon": -119.7333654, "proficiency": 0.228, "schoolCount": 5}, {"name": "INCLINE VILLAGE", "lat": 39.246856, "lon": -119.946913, "proficiency": 0.245, "schoolCount": 1}, {"name": "SUN VALLEY", "lat": 39.622181, "lon": -119.764915, "proficiency": 0.11, "schoolCount": 1}, {"name": "Lund", "lat": 38.862055, "lon": -114.999657, "proficiency": 0.245, "schoolCount": 1}]}