{"state": "OK", "stateName": "Oklahoma", "year": 2020, "naep": {"text": "9 out of 10", "numerator": 9, "denominator": 10}, "schools": [{"name": "TIMBERLAKE ES", "lat": 36.668516, "lon": -98.178684, "proficiency": 0.1, "district": "TIMBERLAKE", "city": "Jet", "ncessch": "400001301028"}, {"name": "WILL ROGERS ES", "lat": 35.360745, "lon": -99.171248, "proficiency": 0.05, "district": "BURNS FLAT-DILL CITY", "city": "Burns Flat", "ncessch": "400001401566"}, {"name": "THOMAS-FAY-CUSTER UNIFIED JHS", "lat": 35.75234, "lon": -98.747365, "proficiency": 0.1, "district": "THOMAS-FAY-CUSTER UNIFIED DIST", "city": "Thomas", "ncessch": "400001501641"}, {"name": "FRONTIER ES", "lat": 36.4617, "lon": -97.1587, "proficiency": 0.1, "district": "FRONTIER", "city": "Red Rock", "ncessch": "400002025620"}, {"name": "OKLAHOMA UNION MS", "lat": 36.921029, "lon": -95.63143, "proficiency": 0.15, "district": "OKLAHOMA UNION", "city": "South Coffeyville", "ncessch": "400002102290"}, {"name": "HYDRO-EAKLY MS", "lat": 35.552202, "lon": -98.571969, "proficiency": 0.245, "district": "HYDRO-EAKLY", "city": "Hydro", "ncessch": "400003202357"}, {"name": "KEYS ES", "lat": 35.7972, "lon": -94.9637, "proficiency": 0.345, "district": "KEYS", "city": "Park Hill", "ncessch": "400003302299"}, {"name": "DOVE SCH OF DISCOVERY TULSA", "lat": 36.10392, "lon": -95.86527, "proficiency": 0.1, "district": "DOVE SCHOOLS OF TULSA", "city": "Tulsa", "ncessch": "400075302694"}, {"name": "DOVE SCIENCE ACADEMY TULSA", "lat": 36.155705, "lon": -95.887247, "proficiency": 0.075, "district": "DOVE SCHOOLS OF TULSA", "city": "Tulsa", "ncessch": "400075302890"}, {"name": "CHEROKEE IMMERSION CHARTER SCH", "lat": 35.845735, "lon": -95.004315, "proficiency": 0.245, "district": "CHEROKEE IMMERSION CHARTER SCH", "city": "Tahlequah", "ncessch": "400075502720"}, {"name": "KIPP OKC COLLEGE PREP", "lat": 35.556126, "lon": -97.514978, "proficiency": 0.245, "district": "KIPP REACH COLL (CHARTER)", "city": "Oklahoma Cit", "ncessch": "400076602900"}, {"name": "TULSA LEGACY CHARTER SCHL INC", "lat": 36.2456, "lon": -95.9947, "proficiency": 0.05, "district": "LIGHTHOUSE ACADEMY (CHARTER)", "city": "Tulsa", "ncessch": "400076902742"}, {"name": "TULSA SCHL ARTS SCIENCES MS", "lat": 36.158624, "lon": -96.005551, "proficiency": 0.025, "district": "SCHL ARTS/SCI (CHARTER)", "city": "Tulsa", "ncessch": "400077402860"}, {"name": "EPIC ONE ON ONE CHARTER MS", "lat": 35.522075, "lon": -97.545516, "proficiency": 0.07, "district": "EPIC VIRTUAL CHARTER", "city": "Oklahoma City", "ncessch": "400077702797"}, {"name": "OKLA. VIRTUAL CHARTER ACAD MS", "lat": 35.453977, "lon": -97.371838, "proficiency": 0.075, "district": "OKLAHOMA VIRTUAL CHARTER ACAD", "city": "Midwest City", "ncessch": "400077802784"}, {"name": "KIPP TULSA ACAD. COLLEGE PREP.", "lat": 36.184858, "lon": -95.967851, "proficiency": 0.025, "district": "KIPP (CHARTER)", "city": "Tulsa", "ncessch": "400078002744"}, {"name": "Graham-Dustin Elementary", "lat": 35.272522, "lon": -96.037827, "proficiency": 0.245, "district": "GRAHAM-DUSTIN", "city": "DUSTIN", "ncessch": "400078200608"}, {"name": "ASTEC CHARTER MS", "lat": 35.494227, "lon": -97.552317, "proficiency": 0.025, "district": "ASTEC CHARTERS", "city": "Oklahoma City", "ncessch": "400078302308"}, {"name": "INSIGHT SCHOOL OF OKLAHOMA MS", "lat": 35.453977, "lon": -97.371838, "proficiency": 0.05, "district": "INSIGHT SCHOOL OF OKLAHOMA", "city": "Midwest City", "ncessch": "400078502799"}, {"name": "OKLAHOMA CONNECTIONS ACAD MS", "lat": 36.72886, "lon": -95.950251, "proficiency": 0.05, "district": "OKLAHOMA CONNECTIONS ACADEMY", "city": "Bartlesville", "ncessch": "400078602800"}, {"name": "JOHN W REX CHARTER ELEMENTARY", "lat": 35.466189, "lon": -97.521631, "proficiency": 0.245, "district": "JOHN W REX CHARTER", "city": "Oklahoma City", "ncessch": "400078702787"}, {"name": "TULSA HONOR ACADEMY CHARTER", "lat": 36.158457, "lon": -95.908581, "proficiency": 0.12, "district": "HONOR ACADEMY(CHARTER)", "city": "Tulsa", "ncessch": "400079202822"}, {"name": "COLLEGIATE HALL CHARTER SCHOOL", "lat": 36.09766, "lon": -95.978247, "proficiency": 0.05, "district": "COLLEGIATE HALL(CHARTER)", "city": "Tulsa", "ncessch": "400079302818"}, {"name": "SANTA FE SOUTH MS", "lat": 35.396079, "lon": -97.487765, "proficiency": 0.025, "district": "SANTA FE SOUTH (CHARTER)", "city": "Oklahoma City", "ncessch": "400079602829"}, {"name": "OLUSTEE-ELDORADO ES", "lat": 34.546935, "lon": -99.418401, "proficiency": 0.245, "district": "OLUSTEE-ELDORADO", "city": "Olustee", "ncessch": "400079702845"}, {"name": "DOVE SCIENCE ACADEMY MS", "lat": 35.547655, "lon": -97.610557, "proficiency": 0.22, "district": "DOVE SCHOOLS OF OKC", "city": "Oklahoma City", "ncessch": "400079902856"}, {"name": "DOVE SCIENCE ACADEMY SOUTH OKC", "lat": 35.393654, "lon": -97.493873, "proficiency": 0.12, "district": "DOVE SCHOOLS OF OKC", "city": "Oklahoma City", "ncessch": "400079902903"}, {"name": "EPIC BLENDED CHARTER TULSA MS", "lat": 36.108303, "lon": -95.862242, "proficiency": 0.12, "district": "EPIC BLENDED LEARNING CHARTER", "city": "Oklahoma City", "ncessch": "400080002865"}, {"name": "EPIC BLENDED CHARTER OKC MS", "lat": 35.449186, "lon": -97.411848, "proficiency": 0.07, "district": "EPIC BLENDED LEARNING CHARTER", "city": "Oklahoma City", "ncessch": "400080002867"}, {"name": "NORTH ROCK CREEK MS", "lat": 35.406145, "lon": -96.902764, "proficiency": 0.025, "district": "NORTH ROCK CREEK", "city": "Shawnee", "ncessch": "400080202878"}, {"name": "ACADEMY OF SEMINOLE CHARTER ES", "lat": 35.231734, "lon": -96.664774, "proficiency": 0.1, "district": "ACADEMY OF SEMINOLE", "city": "Seminole", "ncessch": "400080302907"}, {"name": "eSCHOOL VIRTUAL CHARTER MS", "lat": 35.854396, "lon": -97.42582, "proficiency": 0.15, "district": "E-SCHOOL VIRTUAL ACADEMY", "city": "Guthrie", "ncessch": "400080402904"}, {"name": "SOVEREIGN COMMUNITY SCHL MS", "lat": 35.598052, "lon": -97.494366, "proficiency": 0.245, "district": "SOVEREIGN COMMUNITY SCHOOL", "city": "Oklahoma City", "ncessch": "400080502886"}, {"name": "ACHILLE ES", "lat": 33.836828, "lon": -96.393209, "proficiency": 0.1, "district": "ACHILLE", "city": "Achille", "ncessch": "400237000001"}, {"name": "ADA JHS", "lat": 34.766585, "lon": -96.681779, "proficiency": 0.075, "district": "ADA", "city": "Ada", "ncessch": "400243000725"}, {"name": "ADAIR MS", "lat": 36.435, "lon": -95.2684, "proficiency": 0.075, "district": "ADAIR", "city": "Adair", "ncessch": "400246000010"}, {"name": "AFTON ES", "lat": 36.688663, "lon": -94.958645, "proficiency": 0.05, "district": "AFTON", "city": "Afton", "ncessch": "400252000013"}, {"name": "AGRA JHS", "lat": 35.896186, "lon": -96.870027, "proficiency": 0.1, "district": "AGRA", "city": "Agra", "ncessch": "400255002852"}, {"name": "ALEX ES", "lat": 34.91539, "lon": -97.776422, "proficiency": 0.3, "district": "ALEX", "city": "Alex", "ncessch": "400267000019"}, {"name": "ALINE-CLEO ES", "lat": 36.403514, "lon": -98.44191, "proficiency": 0.245, "district": "ALINE-CLEO", "city": "Cleo Springs", "ncessch": "400272000022"}, {"name": "ALLEN ES", "lat": 34.880163, "lon": -96.41343, "proficiency": 0.05, "district": "ALLEN", "city": "Allen", "ncessch": "400276000024"}, {"name": "ALLEN-BOWDEN PUBLIC SCHOOL", "lat": 36.060683, "lon": -96.086768, "proficiency": 0.1, "district": "ALLEN-BOWDEN", "city": "Tulsa", "ncessch": "400279000027"}, {"name": "ALTUS JHS", "lat": 34.6225, "lon": -99.3172, "proficiency": 0.27, "district": "ALTUS", "city": "Altus", "ncessch": "400285000036"}, {"name": "ALVA MS", "lat": 36.8055, "lon": -98.6708, "proficiency": 0.12, "district": "ALVA", "city": "Alva", "ncessch": "400288000041"}, {"name": "AMBER-POCASSET MS", "lat": 35.159539, "lon": -97.875036, "proficiency": 0.345, "district": "AMBER-POCASSET", "city": "Amber", "ncessch": "400291000047"}, {"name": "ANADARKO MS", "lat": 35.0613, "lon": -98.255866, "proficiency": 0.075, "district": "ANADARKO", "city": "Anadarko", "ncessch": "400300002101"}, {"name": "ANDERSON PUBLIC SCHOOL", "lat": 36.1735, "lon": -96.1851, "proficiency": 0.1, "district": "ANDERSON", "city": "Sand Springs", "ncessch": "400301000056"}, {"name": "OBUCH MS", "lat": 34.2345, "lon": -95.6179, "proficiency": 0.27, "district": "ANTLERS", "city": "Antlers", "ncessch": "400306000762"}, {"name": "ARAPAHO-BUTLER ES", "lat": 35.580216, "lon": -98.966893, "proficiency": 0.245, "district": "ARAPAHO-BUTLER", "city": "Arapaho", "ncessch": "400312000063"}, {"name": "ARDMORE MS", "lat": 34.205382, "lon": -97.129054, "proficiency": 0.075, "district": "ARDMORE", "city": "Ardmore", "ncessch": "400318029636"}, {"name": "ARKOMA MS", "lat": 35.355015, "lon": -94.433435, "proficiency": 0.1, "district": "ARKOMA", "city": "Arkoma", "ncessch": "400321002798"}, {"name": "ARNETT ES", "lat": 36.138443, "lon": -99.77326, "proficiency": 0.245, "district": "ARNETT", "city": "Arnett", "ncessch": "400324000077"}, {"name": "ASHER ES", "lat": 34.9895, "lon": -96.9225, "proficiency": 0.1, "district": "ASHER", "city": "Asher", "ncessch": "400330000082"}, {"name": "ATOKA ES", "lat": 34.381184, "lon": -96.144415, "proficiency": 0.15, "district": "ATOKA", "city": "Atoka", "ncessch": "400336002110"}, {"name": "BALKO ES", "lat": 36.617308, "lon": -100.731123, "proficiency": 0.245, "district": "BALKO", "city": "Balko", "ncessch": "400351000089"}, {"name": "BANNER PUBLIC SCHOOL", "lat": 35.4941, "lon": -97.8493, "proficiency": 0.1, "district": "BANNER", "city": "El Reno", "ncessch": "400354000091"}, {"name": "BARNSDALL JHS", "lat": 36.560104, "lon": -96.166596, "proficiency": 0.05, "district": "BARNSDALL", "city": "Barnsdall", "ncessch": "400357000093"}, {"name": "CENTRAL MS", "lat": 36.744415, "lon": -95.974147, "proficiency": 0.12, "district": "BARTLESVILLE", "city": "Bartlesville", "ncessch": "400363029824"}, {"name": "MADISON MS", "lat": 36.748402, "lon": -95.910482, "proficiency": 0.12, "district": "BARTLESVILLE", "city": "Bartlesville", "ncessch": "400363029825"}, {"name": "BATTIEST ES", "lat": 34.394554, "lon": -94.928253, "proficiency": 0.1, "district": "BATTIEST", "city": "Battiest", "ncessch": "400366000112"}, {"name": "BEARDEN PUBLIC SCHOOL", "lat": 35.348689, "lon": -96.387733, "proficiency": 0.245, "district": "BEARDEN", "city": "Okemah", "ncessch": "400369000114"}, {"name": "BEAVER ES", "lat": 36.810082, "lon": -100.524679, "proficiency": 0.1, "district": "BEAVER", "city": "Beaver", "ncessch": "400375000115"}, {"name": "BEGGS MS", "lat": 35.749427, "lon": -96.082806, "proficiency": 0.025, "district": "BEGGS", "city": "Beggs", "ncessch": "400381000120"}, {"name": "BELFONTE PUBLIC SCHOOL", "lat": 35.570369, "lon": -94.545112, "proficiency": 0.245, "district": "BELFONTE", "city": "Muldrow", "ncessch": "400384000121"}, {"name": "BELFONTE BELL ES (ADAIR CNTY)", "lat": 35.725904, "lon": -94.576814, "proficiency": 0.245, "district": "BELFONTE", "city": "Stilwell", "ncessch": "400384002750"}, {"name": "BENNINGTON ES", "lat": 34.007214, "lon": -96.037314, "proficiency": 0.1, "district": "BENNINGTON", "city": "Bennington", "ncessch": "400393000123"}, {"name": "BERRYHILL MS", "lat": 36.12078, "lon": -96.064148, "proficiency": 0.17, "district": "BERRYHILL", "city": "Tulsa", "ncessch": "400402000128"}, {"name": "BETHANY MS", "lat": 35.516, "lon": -97.6315, "proficiency": 0.47, "district": "BETHANY", "city": "Bethany", "ncessch": "400411029723"}, {"name": "BETHEL MS", "lat": 35.3191, "lon": -97.016946, "proficiency": 0.27, "district": "BETHEL", "city": "Shawnee", "ncessch": "400423001417"}, {"name": "BIG PASTURE ES", "lat": 34.178972, "lon": -98.470803, "proficiency": 0.245, "district": "BIG PASTURE", "city": "Randlett", "ncessch": "400435000138"}, {"name": "BIXBY MS", "lat": 35.939863, "lon": -95.870948, "proficiency": 0.34, "district": "BIXBY", "city": "Bixby", "ncessch": "400450002097"}, {"name": "BLACKWELL MS", "lat": 36.794136, "lon": -97.284679, "proficiency": 0.075, "district": "BLACKWELL", "city": "Blackwell", "ncessch": "400463000152"}, {"name": "BLAIR ES", "lat": 34.778112, "lon": -99.334952, "proficiency": 0.245, "district": "BLAIR", "city": "Blair", "ncessch": "400465000157"}, {"name": "BLANCHARD MS", "lat": 35.14238, "lon": -97.651705, "proficiency": 0.17, "district": "BLANCHARD", "city": "Blanchard", "ncessch": "400468002240"}, {"name": "BLUEJACKET MS", "lat": 36.802307, "lon": -95.071015, "proficiency": 0.245, "district": "BLUEJACKET", "city": "Bluejacket", "ncessch": "400483002082"}, {"name": "BOISE CITY JHS", "lat": 36.72837, "lon": -102.50497, "proficiency": 0.1, "district": "BOISE CITY", "city": "Boise City", "ncessch": "400486002779"}, {"name": "BOKOSHE ES", "lat": 35.190096, "lon": -94.791911, "proficiency": 0.245, "district": "BOKOSHE", "city": "Bokoshe", "ncessch": "400495000170"}, {"name": "APACHE MS", "lat": 34.899466, "lon": -98.358776, "proficiency": 0.1, "district": "BOONE-APACHE", "city": "Apache", "ncessch": "400501005012"}, {"name": "BOSWELL MS", "lat": 34.029616, "lon": -95.86762, "proficiency": 0.1, "district": "BOSWELL", "city": "Boswell", "ncessch": "400504002369"}, {"name": "BOWLEGS ES", "lat": 35.146601, "lon": -96.667807, "proficiency": 0.1, "district": "BOWLEGS", "city": "Bowlegs", "ncessch": "400513000179"}, {"name": "BOWRING PUBLIC SCHOOL", "lat": 36.877983, "lon": -96.117321, "proficiency": 0.245, "district": "BOWRING", "city": "Pawhuska", "ncessch": "400516000181"}, {"name": "BRAGGS ES", "lat": 35.66721, "lon": -95.197775, "proficiency": 0.245, "district": "BRAGGS", "city": "Braggs", "ncessch": "400528000185"}, {"name": "BRAY-DOYLE ES", "lat": 34.633376, "lon": -97.81809, "proficiency": 0.245, "district": "BRAY-DOYLE", "city": "Marlow", "ncessch": "400534000189"}, {"name": "BRIDGE CREEK MS", "lat": 35.235566, "lon": -97.720717, "proficiency": 0.42, "district": "BRIDGE CREEK", "city": "Blanchard", "ncessch": "400540001674"}, {"name": "BRIGGS PUBLIC SCHOOL", "lat": 35.923458, "lon": -94.872791, "proficiency": 0.15, "district": "BRIGGS", "city": "Tahlequah", "ncessch": "400543000192"}, {"name": "BRISTOW MS", "lat": 35.841818, "lon": -96.399962, "proficiency": 0.12, "district": "BRISTOW", "city": "Bristow", "ncessch": "400546002083"}, {"name": "CENTENNIAL MS", "lat": 36.0874, "lon": -95.7921, "proficiency": 0.14, "district": "BROKEN ARROW", "city": "Broken Arrow", "ncessch": "400549000200"}, {"name": "SEQUOYAH MS", "lat": 36.024, "lon": -95.7966, "proficiency": 0.075, "district": "BROKEN ARROW", "city": "Broken Arrow", "ncessch": "400549000205"}, {"name": "OLIVER MS", "lat": 36.018702, "lon": -95.827, "proficiency": 0.12, "district": "BROKEN ARROW", "city": "Broken Arrow", "ncessch": "400549002095"}, {"name": "ONETA RIDGE MS", "lat": 36.037275, "lon": -95.704789, "proficiency": 0.12, "district": "BROKEN ARROW", "city": "Broken Arrow", "ncessch": "400549002770"}, {"name": "CHILDERS MS", "lat": 35.9875, "lon": -95.7854, "proficiency": 0.075, "district": "BROKEN ARROW", "city": "Broken Arrow", "ncessch": "400549029807"}, {"name": "RECTOR JOHNSON MS", "lat": 34.016375, "lon": -94.736357, "proficiency": 0.075, "district": "BROKEN BOW", "city": "Broken Bow", "ncessch": "400552000211"}, {"name": "BRUSHY PUBLIC SCHOOL", "lat": 35.55201, "lon": -94.74408, "proficiency": 0.05, "district": "BRUSHY", "city": "Sallisaw", "ncessch": "400558000214"}, {"name": "BUFFALO ES", "lat": 36.8298, "lon": -99.6275, "proficiency": 0.1, "district": "BUFFALO", "city": "Buffalo", "ncessch": "400576000215"}, {"name": "BUFFALO VALLEY ES", "lat": 34.7325, "lon": -95.2456, "proficiency": 0.245, "district": "BUFFALO VALLEY", "city": "Talihina", "ncessch": "400582000217"}, {"name": "BURLINGTON ES", "lat": 36.9016, "lon": -98.4227, "proficiency": 0.245, "district": "BURLINGTON", "city": "Burlington", "ncessch": "400591000220"}, {"name": "BUTNER ES", "lat": 35.338279, "lon": -96.458034, "proficiency": 0.245, "district": "BUTNER", "city": "Cromwell", "ncessch": "400600000227"}, {"name": "BYNG JHS", "lat": 34.861662, "lon": -96.665524, "proficiency": 0.12, "district": "BYNG", "city": "Ada", "ncessch": "400606029751"}, {"name": "CACHE MS", "lat": 34.6226, "lon": -98.6279, "proficiency": 0.17, "district": "CACHE", "city": "Cache", "ncessch": "400612029646"}, {"name": "CADDO ES", "lat": 34.121841, "lon": -96.270571, "proficiency": 0.15, "district": "CADDO", "city": "Caddo", "ncessch": "400615000237"}, {"name": "CALERA ES", "lat": 33.935664, "lon": -96.430236, "proficiency": 0.05, "district": "CALERA", "city": "Calera", "ncessch": "400618000239"}, {"name": "CALUMET ES", "lat": 35.6015, "lon": -98.1219, "proficiency": 0.245, "district": "CALUMET", "city": "Calumet", "ncessch": "400624000241"}, {"name": "CALVIN ES", "lat": 34.966173, "lon": -96.246193, "proficiency": 0.245, "district": "CALVIN", "city": "Calvin", "ncessch": "400627000243"}, {"name": "CAMERON ES", "lat": 35.1354, "lon": -94.5394, "proficiency": 0.1, "district": "CAMERON", "city": "Cameron", "ncessch": "400633000246"}, {"name": "CANADIAN ES", "lat": 35.171686, "lon": -95.656779, "proficiency": 0.1, "district": "CANADIAN", "city": "Canadian", "ncessch": "400639000248"}, {"name": "CANEY ES", "lat": 34.235552, "lon": -96.211662, "proficiency": 0.1, "district": "CANEY", "city": "Caney", "ncessch": "400642000250"}, {"name": "CANTON ES", "lat": 36.048262, "lon": -98.586638, "proficiency": 0.1, "district": "CANTON", "city": "Canton", "ncessch": "400648000253"}, {"name": "CANUTE ES", "lat": 35.417241, "lon": -99.28238, "proficiency": 0.3, "district": "CANUTE", "city": "Canute", "ncessch": "400651000255"}, {"name": "CARNEGIE MS", "lat": 35.098546, "lon": -98.608098, "proficiency": 0.15, "district": "CARNEGIE", "city": "Carnegie", "ncessch": "400663002676"}, {"name": "CARNEY ES", "lat": 35.805, "lon": -97.012764, "proficiency": 0.1, "district": "CARNEY", "city": "Carney", "ncessch": "400669000261"}, {"name": "CASHION MS", "lat": 35.801108, "lon": -97.676519, "proficiency": 0.15, "district": "CASHION", "city": "Cashion", "ncessch": "400681002816"}, {"name": "OKEMAH MS", "lat": 35.42724, "lon": -96.302348, "proficiency": 0.05, "district": "OKEMAH", "city": "Okemah", "ncessch": "400685001901"}, {"name": "WELLS MS", "lat": 36.167486, "lon": -95.754072, "proficiency": 0.17, "district": "CATOOSA", "city": "Catoosa", "ncessch": "400687000811"}, {"name": "CEMENT ES", "lat": 34.930751, "lon": -98.139625, "proficiency": 0.245, "district": "CEMENT", "city": "Cement", "ncessch": "400696000276"}, {"name": "CENTRAL ES", "lat": 35.4485, "lon": -94.7071, "proficiency": 0.05, "district": "CENTRAL", "city": "Sallisaw", "ncessch": "400714000279"}, {"name": "CHANDLER JHS", "lat": 35.700511, "lon": -96.900173, "proficiency": 0.17, "district": "CHANDLER", "city": "Chandler", "ncessch": "400729002375"}, {"name": "CHATTANOOGA ES", "lat": 34.422699, "lon": -98.657939, "proficiency": 0.1, "district": "CHATTANOOGA", "city": "Chattanooga", "ncessch": "400732000286"}, {"name": "CHECOTAH MS", "lat": 35.467862, "lon": -95.524048, "proficiency": 0.075, "district": "CHECOTAH", "city": "Checotah", "ncessch": "400735001859"}, {"name": "CHELSEA MS", "lat": 36.539843, "lon": -95.439243, "proficiency": 0.15, "district": "CHELSEA", "city": "Chelsea", "ncessch": "400738002310"}, {"name": "CHEROKEE MS", "lat": 36.753, "lon": -98.3525, "proficiency": 0.1, "district": "CHEROKEE", "city": "CHEROKEE", "ncessch": "400741002745"}, {"name": "CHEYENNE ES", "lat": 35.60829, "lon": -99.66614, "proficiency": 0.3, "district": "CHEYENNE", "city": "Cheyenne", "ncessch": "400750000299"}, {"name": "CHICKASHA MS", "lat": 35.040626, "lon": -97.944886, "proficiency": 0.025, "district": "CHICKASHA", "city": "Chickasha", "ncessch": "400756002342"}, {"name": "NICOMA PARK MS", "lat": 35.481575, "lon": -97.328062, "proficiency": 0.27, "district": "CHOCTAW-NICOMA PARK", "city": "Choctaw", "ncessch": "400762002691"}, {"name": "CHOCTAW MS", "lat": 35.500445, "lon": -97.271361, "proficiency": 0.075, "district": "CHOCTAW-NICOMA PARK", "city": "Choctaw", "ncessch": "400762002698"}, {"name": "CHOUTEAU-MAZIE MS", "lat": 36.193303, "lon": -95.348113, "proficiency": 0.15, "district": "CHOUTEAU-MAZIE", "city": "Chouteau", "ncessch": "400767000318"}, {"name": "MAZIE ES", "lat": 36.105817, "lon": -95.366056, "proficiency": 0.245, "district": "CHOUTEAU-MAZIE", "city": "Chouteau", "ncessch": "400767000319"}, {"name": "CIMARRON ES", "lat": 36.386901, "lon": -98.08975, "proficiency": 0.245, "district": "CIMARRON", "city": "Lahoma", "ncessch": "400771000508"}, {"name": "WILL ROGERS JHS", "lat": 36.328019, "lon": -95.605074, "proficiency": 0.27, "district": "CLAREMORE", "city": "Claremore", "ncessch": "400774002197"}, {"name": "CRAIN ES", "lat": 34.589042, "lon": -95.355127, "proficiency": 0.245, "district": "CLAYTON", "city": "Clayton", "ncessch": "400780000327"}, {"name": "CLEORA PUBLIC SCHOOL", "lat": 36.590663, "lon": -94.966087, "proficiency": 0.245, "district": "CLEORA", "city": "Afton", "ncessch": "400801000330"}, {"name": "CLEVELAND MS", "lat": 36.3138, "lon": -96.4773, "proficiency": 0.12, "district": "CLEVELAND", "city": "Cleveland", "ncessch": "400804000333"}, {"name": "CLINTON MS", "lat": 35.517027, "lon": -98.972402, "proficiency": 0.27, "district": "CLINTON", "city": "Clinton", "ncessch": "400807000339"}, {"name": "WALLACE BYRD MS", "lat": 34.5349, "lon": -96.22, "proficiency": 0.05, "district": "COALGATE", "city": "Coalgate", "ncessch": "400813001958"}, {"name": "COLBERT MS", "lat": 33.8591, "lon": -96.5055, "proficiency": 0.05, "district": "COLBERT", "city": "Colbert", "ncessch": "400822000343"}, {"name": "COLCORD ES", "lat": 36.2608, "lon": -94.6945, "proficiency": 0.15, "district": "COLCORD", "city": "Colcord", "ncessch": "400825000345"}, {"name": "COLEMAN ES", "lat": 34.272, "lon": -96.4215, "proficiency": 0.245, "district": "COLEMAN", "city": "Coleman", "ncessch": "400831000347"}, {"name": "COLLINSVILLE MS", "lat": 36.3631, "lon": -95.8424, "proficiency": 0.12, "district": "COLLINSVILLE", "city": "Collinsville", "ncessch": "400837000350"}, {"name": "COMANCHE MS", "lat": 34.3624, "lon": -97.9746, "proficiency": 0.05, "district": "COMANCHE", "city": "Comanche", "ncessch": "400846002279"}, {"name": "COMMERCE MS", "lat": 36.932675, "lon": -94.872655, "proficiency": 0.15, "district": "COMMERCE", "city": "COMMERCE", "ncessch": "400849000360"}, {"name": "COPAN ES", "lat": 36.899841, "lon": -95.920524, "proficiency": 0.245, "district": "COPAN", "city": "Copan", "ncessch": "400861000362"}, {"name": "CORDELL JHS", "lat": 35.2938, "lon": -98.9822, "proficiency": 0.345, "district": "CORDELL", "city": "Cordell", "ncessch": "400864000365"}, {"name": "COTTONWOOD PUBLIC SCHOOL", "lat": 34.555725, "lon": -96.199651, "proficiency": 0.245, "district": "COTTONWOOD", "city": "Coalgate", "ncessch": "400873000369"}, {"name": "COVINGTON-DOUGLAS ES", "lat": 36.305892, "lon": -97.582267, "proficiency": 0.1, "district": "COVINGTON-DOUGLAS", "city": "Covington", "ncessch": "400879000370"}, {"name": "DONALD P SLOAT JHS", "lat": 35.950939, "lon": -95.642208, "proficiency": 0.17, "district": "COWETA", "city": "Coweta", "ncessch": "400885000374"}, {"name": "COYLE ES", "lat": 35.950579, "lon": -97.235579, "proficiency": 0.1, "district": "COYLE", "city": "Coyle", "ncessch": "400894000375"}, {"name": "CRESCENT MS", "lat": 35.953683, "lon": -97.58882, "proficiency": 0.05, "district": "CRESCENT", "city": "Crescent", "ncessch": "400900000379"}, {"name": "CROOKED OAK MS", "lat": 35.450269, "lon": -97.479606, "proficiency": 0.075, "district": "CROOKED OAK", "city": "Oklahoma City", "ncessch": "400906000382"}, {"name": "CROWDER ES", "lat": 35.124044, "lon": -95.669663, "proficiency": 0.245, "district": "CROWDER", "city": "CROWDER", "ncessch": "400909000384"}, {"name": "CRUTCHO PUBLIC SCHOOL", "lat": 35.4939, "lon": -97.4071, "proficiency": 0.1, "district": "CRUTCHO", "city": "Oklahoma City", "ncessch": "400915000386"}, {"name": "CUSHING MS", "lat": 35.977658, "lon": -96.737626, "proficiency": 0.27, "district": "CUSHING", "city": "Cushing", "ncessch": "400924000388"}, {"name": "CYRIL JHS", "lat": 34.899102, "lon": -98.203354, "proficiency": 0.1, "district": "CYRIL", "city": "Cyril", "ncessch": "400930002776"}, {"name": "DAHLONEGAH PUBLIC SCHOOL", "lat": 35.748234, "lon": -94.670075, "proficiency": 0.245, "district": "DAHLONEGAH", "city": "Stilwell", "ncessch": "400936000401"}, {"name": "DALE MS", "lat": 35.387543, "lon": -97.0463, "proficiency": 0.245, "district": "DALE", "city": "Dale", "ncessch": "400939002681"}, {"name": "DARLINGTON PUBLIC SCHOOL", "lat": 35.5725, "lon": -97.9577, "proficiency": 0.1, "district": "DARLINGTON", "city": "El Reno", "ncessch": "400942000404"}, {"name": "DAVENPORT ES", "lat": 35.7085, "lon": -96.7669, "proficiency": 0.1, "district": "DAVENPORT", "city": "Davenport", "ncessch": "400945000405"}, {"name": "DAVIS MS", "lat": 34.501001, "lon": -97.115904, "proficiency": 0.025, "district": "DAVIS", "city": "Davis", "ncessch": "400951000411"}, {"name": "DEER CREEK MS", "lat": 35.712182, "lon": -97.560929, "proficiency": 0.31, "district": "DEER CREEK", "city": "Edmond", "ncessch": "400957000414"}, {"name": "DENISON PUBLIC SCHOOL", "lat": 33.896273, "lon": -94.783597, "proficiency": 0.1, "district": "DENISON", "city": "Idabel", "ncessch": "400972000417"}, {"name": "DEPEW ES", "lat": 35.80021, "lon": -96.507761, "proficiency": 0.1, "district": "DEPEW", "city": "Depew", "ncessch": "400975000418"}, {"name": "DEWAR MS", "lat": 35.458841, "lon": -95.938041, "proficiency": 0.05, "district": "DEWAR", "city": "Dewar", "ncessch": "400978002785"}, {"name": "DEWEY MS", "lat": 36.803622, "lon": -95.937143, "proficiency": 0.17, "district": "DEWEY", "city": "Dewey", "ncessch": "400981001910"}, {"name": "DIBBLE MS", "lat": 35.032103, "lon": -97.629566, "proficiency": 0.05, "district": "DIBBLE", "city": "Dibble", "ncessch": "400987002409"}, {"name": "DICKSON MS", "lat": 34.189898, "lon": -96.983002, "proficiency": 0.025, "district": "DICKSON", "city": "Ardmore", "ncessch": "400991002667"}, {"name": "DOVER ES", "lat": 35.982554, "lon": -97.908096, "proficiency": 0.245, "district": "DOVER", "city": "Dover", "ncessch": "401005000436"}, {"name": "DRUMMOND ES", "lat": 36.297146, "lon": -98.033511, "proficiency": 0.1, "district": "DRUMMOND", "city": "Drummond", "ncessch": "401017000438"}, {"name": "VIRGIL COOPER MS", "lat": 35.983407, "lon": -96.612527, "proficiency": 0.05, "district": "DRUMRIGHT", "city": "Drumright", "ncessch": "401020002709"}, {"name": "DUKE ES", "lat": 34.663398, "lon": -99.565987, "proficiency": 0.245, "district": "DUKE", "city": "Duke", "ncessch": "401026000444"}, {"name": "DUNCAN MS", "lat": 34.513284, "lon": -97.985889, "proficiency": 0.22, "district": "DUNCAN", "city": "Duncan", "ncessch": "401029000921"}, {"name": "DURANT MS", "lat": 34.00209, "lon": -96.381313, "proficiency": 0.32, "district": "DURANT", "city": "Durant", "ncessch": "401035000457"}, {"name": "EAGLETOWN ES", "lat": 34.041945, "lon": -94.574951, "proficiency": 0.1, "district": "EAGLETOWN", "city": "Eagletown", "ncessch": "401044000464"}, {"name": "EARLSBORO ES", "lat": 35.268267, "lon": -96.798606, "proficiency": 0.1, "district": "EARLSBORO", "city": "Earlsboro", "ncessch": "401050000469"}, {"name": "PEAVINE PUBLIC SCHOOL", "lat": 35.887493, "lon": -94.638134, "proficiency": 0.245, "district": "PEAVINE", "city": "Stilwell", "ncessch": "401056000470"}, {"name": "CIMARRON MS", "lat": 35.619405, "lon": -97.461554, "proficiency": 0.17, "district": "EDMOND", "city": "Edmond", "ncessch": "401059000475"}, {"name": "SEQUOYAH MS", "lat": 35.668196, "lon": -97.465404, "proficiency": 0.27, "district": "EDMOND", "city": "Edmond", "ncessch": "401059000481"}, {"name": "CENTRAL MS", "lat": 35.6445, "lon": -97.472551, "proficiency": 0.22, "district": "EDMOND", "city": "Edmond", "ncessch": "401059001326"}, {"name": "CHEYENNE MS", "lat": 35.683173, "lon": -97.499079, "proficiency": 0.27, "district": "EDMOND", "city": "Edmond", "ncessch": "401059002303"}, {"name": "HEARTLAND MS", "lat": 35.676129, "lon": -97.548093, "proficiency": 0.23, "district": "EDMOND", "city": "Edmond", "ncessch": "401059002835"}, {"name": "SUMMIT MS", "lat": 35.625381, "lon": -97.541512, "proficiency": 0.12, "district": "EDMOND", "city": "Edmond", "ncessch": "401059029716"}, {"name": "ETTA DALE JHS", "lat": 35.5282, "lon": -97.9546, "proficiency": 0.025, "district": "EL RENO", "city": "El Reno", "ncessch": "401065000485"}, {"name": "ELGIN MS", "lat": 34.7822, "lon": -98.288, "proficiency": 0.17, "district": "ELGIN", "city": "Elgin", "ncessch": "401071001980"}, {"name": "ELK CITY MS", "lat": 35.414346, "lon": -99.412472, "proficiency": 0.025, "district": "ELK CITY", "city": "Elk City", "ncessch": "401074000496"}, {"name": "ELMORE CITY JHS", "lat": 34.6237, "lon": -97.394711, "proficiency": 0.05, "district": "ELMORE CITY-PERNELL", "city": "Elmore City", "ncessch": "401086002746"}, {"name": "EMPIRE MS", "lat": 34.463432, "lon": -98.054999, "proficiency": 0.15, "district": "EMPIRE", "city": "Duncan", "ncessch": "401089002718"}, {"name": "DEWITT WALLER MS", "lat": 36.398995, "lon": -97.911448, "proficiency": 0.12, "district": "ENID", "city": "Enid", "ncessch": "401092000510"}, {"name": "LONGFELLOW MS", "lat": 36.397444, "lon": -97.864473, "proficiency": 0.075, "district": "ENID", "city": "Enid", "ncessch": "401092002686"}, {"name": "EMERSON MS", "lat": 36.40043, "lon": -97.886609, "proficiency": 0.075, "district": "ENID", "city": "Enid", "ncessch": "401092002700"}, {"name": "ERICK ES", "lat": 35.213573, "lon": -99.8732, "proficiency": 0.695, "district": "ERICK", "city": "Erick", "ncessch": "401104000525"}, {"name": "EUFAULA MS", "lat": 35.288445, "lon": -95.608911, "proficiency": 0.22, "district": "EUFAULA", "city": "Eufaula", "ncessch": "401116002346"}, {"name": "FAIRLAND MS", "lat": 36.7516, "lon": -94.8523, "proficiency": 0.05, "district": "FAIRLAND", "city": "Fairland", "ncessch": "401125002721"}, {"name": "CHAMBERLAIN MS", "lat": 36.271397, "lon": -98.468518, "proficiency": 0.345, "district": "FAIRVIEW", "city": "Fairview", "ncessch": "401128000537"}, {"name": "FANSHAWE PUBLIC SCHOOL", "lat": 34.952674, "lon": -94.914053, "proficiency": 0.1, "district": "FANSHAWE", "city": "Fanshawe", "ncessch": "401140000541"}, {"name": "FARGO ES", "lat": 36.371343, "lon": -99.625166, "proficiency": 0.1, "district": "FARGO", "city": "Fargo", "ncessch": "401143000542"}, {"name": "FLETCHER JHS", "lat": 34.822354, "lon": -98.239948, "proficiency": 0.05, "district": "FLETCHER", "city": "Fletcher", "ncessch": "401170000550"}, {"name": "FOREST GROVE PUBLIC SCHOOL", "lat": 33.926287, "lon": -94.929228, "proficiency": 0.245, "district": "FOREST GROVE", "city": "Garvin", "ncessch": "401185000552"}, {"name": "FORGAN ES", "lat": 36.9072, "lon": -100.5413, "proficiency": 0.245, "district": "FORGAN", "city": "Forgan", "ncessch": "401188000553"}, {"name": "FORT SUPPLY ES", "lat": 36.571933, "lon": -99.569889, "proficiency": 0.75, "district": "FORT SUPPLY", "city": "Fort Supply", "ncessch": "401200000560"}, {"name": "FOX ES", "lat": 34.36255, "lon": -97.491234, "proficiency": 0.245, "district": "FOX", "city": "Fox", "ncessch": "401206000562"}, {"name": "FOYIL JHS", "lat": 36.433735, "lon": -95.524926, "proficiency": 0.05, "district": "FOYIL", "city": "Foyil", "ncessch": "401209000847"}, {"name": "FREDERICK MS", "lat": 34.389219, "lon": -99.013906, "proficiency": 0.17, "district": "FREDERICK", "city": "Frederick", "ncessch": "401215000570"}, {"name": "FRIEND PUBLIC SCHOOL", "lat": 35.0582, "lon": -97.8806, "proficiency": 0.1, "district": "FRIEND", "city": "Chickasha", "ncessch": "401221000575"}, {"name": "FRINK-CHAMBERS PUBLIC SCHOOL", "lat": 34.877128, "lon": -95.788507, "proficiency": 0.15, "district": "FRINK-CHAMBERS", "city": "McAlester", "ncessch": "401224000576"}, {"name": "FORT TOWSON JHS", "lat": 34.021551, "lon": -95.269705, "proficiency": 0.1, "district": "FORT TOWSON", "city": "Fort Towson", "ncessch": "401230002790"}, {"name": "GANS ES", "lat": 35.390316, "lon": -94.688896, "proficiency": 0.1, "district": "GANS", "city": "Gans", "ncessch": "401239000581"}, {"name": "GARBER ES", "lat": 36.4331, "lon": -97.5823, "proficiency": 0.3, "district": "GARBER", "city": "Garber", "ncessch": "401242000583"}, {"name": "GEARY MS", "lat": 35.628148, "lon": -98.318703, "proficiency": 0.1, "district": "GEARY", "city": "GEARY", "ncessch": "401257000588"}, {"name": "GERONIMO MS", "lat": 34.485829, "lon": -98.397409, "proficiency": 0.1, "district": "GERONIMO", "city": "Geronimo", "ncessch": "401263002732"}, {"name": "GLENCOE ES", "lat": 36.230542, "lon": -96.925307, "proficiency": 0.15, "district": "GLENCOE", "city": "Glencoe", "ncessch": "401269000591"}, {"name": "GLENPOOL MS", "lat": 35.954691, "lon": -96.00602, "proficiency": 0.17, "district": "GLENPOOL", "city": "Glenpool", "ncessch": "401272001981"}, {"name": "GOODWELL ES", "lat": 36.596231, "lon": -101.631749, "proficiency": 0.245, "district": "GOODWELL", "city": "Goodwell", "ncessch": "401287000597"}, {"name": "GORE UPPER ES", "lat": 35.541881, "lon": -95.124755, "proficiency": 0.05, "district": "GORE", "city": "Gore", "ncessch": "401290002294"}, {"name": "GRACEMONT ES", "lat": 35.189886, "lon": -98.256067, "proficiency": 0.245, "district": "GRACEMONT", "city": "Gracemont", "ncessch": "401308000606"}, {"name": "GRANDFIELD ES", "lat": 34.2282, "lon": -98.6839, "proficiency": 0.245, "district": "GRANDFIELD", "city": "Grandfield", "ncessch": "401320000612"}, {"name": "GRAND VIEW PUBLIC SCHOOL", "lat": 35.95228, "lon": -94.994127, "proficiency": 0.05, "district": "GRAND VIEW", "city": "Tahlequah", "ncessch": "401323000614"}, {"name": "GRANDVIEW PUBLIC SCHOOL", "lat": 34.34829, "lon": -98.050709, "proficiency": 0.245, "district": "GRANDVIEW", "city": "Comanche", "ncessch": "401326000615"}, {"name": "GRANITE ES", "lat": 34.963723, "lon": -99.386437, "proficiency": 0.1, "district": "GRANITE", "city": "Granite", "ncessch": "401329000616"}, {"name": "GROVE PUBLIC SCHOOL", "lat": 35.3625, "lon": -96.8952, "proficiency": 0.445, "district": "GROVE", "city": "Shawnee", "ncessch": "401350000624"}, {"name": "GROVE MS", "lat": 36.5879, "lon": -94.7762, "proficiency": 0.32, "district": "GROVE", "city": "Grove", "ncessch": "401353000627"}, {"name": "GUTHRIE JHS", "lat": 35.877768, "lon": -97.417016, "proficiency": 0.22, "district": "GUTHRIE", "city": "Guthrie", "ncessch": "401356000634"}, {"name": "CENTRAL JHS", "lat": 36.6855, "lon": -101.4876, "proficiency": 0.075, "district": "GUYMON", "city": "Guymon", "ncessch": "401359000637"}, {"name": "HAILEYVILLE ES", "lat": 34.8522, "lon": -95.5789, "proficiency": 0.245, "district": "HAILEYVILLE", "city": "Haileyville", "ncessch": "401362000644"}, {"name": "HAMMON ES", "lat": 35.6301, "lon": -99.3821, "proficiency": 0.495, "district": "HAMMON", "city": "Hammon", "ncessch": "401365000646"}, {"name": "HARDESTY ES", "lat": 36.61375, "lon": -101.195, "proficiency": 0.245, "district": "HARDESTY", "city": "Hardesty", "ncessch": "401374000651"}, {"name": "HARMONY PUBLIC SCHOOL", "lat": 34.317306, "lon": -96.074122, "proficiency": 0.245, "district": "HARMONY", "city": "Atoka", "ncessch": "401383000653"}, {"name": "HARRAH MS", "lat": 35.482562, "lon": -97.175813, "proficiency": 0.12, "district": "HARRAH", "city": "Harrah", "ncessch": "401389000656"}, {"name": "HARTSHORNE MS", "lat": 34.842165, "lon": -95.568116, "proficiency": 0.025, "district": "HARTSHORNE", "city": "Hartshorne", "ncessch": "401392000675"}, {"name": "HASKELL MS", "lat": 35.8258, "lon": -95.6847, "proficiency": 0.05, "district": "HASKELL", "city": "Haskell", "ncessch": "401395000572"}, {"name": "HAWORTH MS", "lat": 33.848336, "lon": -94.653549, "proficiency": 0.05, "district": "HAWORTH", "city": "Haworth", "ncessch": "401408000664"}, {"name": "HAYWOOD PUBLIC SCHOOL", "lat": 34.8851, "lon": -95.9471, "proficiency": 0.245, "district": "HAYWOOD", "city": "McAlester", "ncessch": "401410000665"}, {"name": "HEALDTON MS", "lat": 34.2304, "lon": -97.4935, "proficiency": 0.05, "district": "HEALDTON", "city": "Healdton", "ncessch": "401413001863"}, {"name": "HEAVENER ES", "lat": 34.885465, "lon": -94.597879, "proficiency": 0.17, "district": "HEAVENER", "city": "Heavener", "ncessch": "401416000670"}, {"name": "HENNESSEY UPPER ES", "lat": 36.1109, "lon": -97.8908, "proficiency": 0.245, "district": "HENNESSEY", "city": "Hennessey", "ncessch": "401434001917"}, {"name": "HENRYETTA MS", "lat": 35.444803, "lon": -96.005799, "proficiency": 0.075, "district": "HENRYETTA", "city": "Henryetta", "ncessch": "401437001896"}, {"name": "HILLDALE MS", "lat": 35.6974, "lon": -95.3678, "proficiency": 0.17, "district": "HILLDALE", "city": "Muskogee", "ncessch": "401452000683"}, {"name": "HINTON MS", "lat": 35.4747, "lon": -98.3567, "proficiency": 0.025, "district": "HINTON", "city": "Hinton", "ncessch": "401461000096"}, {"name": "MIDWAY ES", "lat": 35.55421, "lon": -95.653029, "proficiency": 0.1, "district": "MIDWAY", "city": "COUNCIL HILL", "ncessch": "401467000687"}, {"name": "HOBART MS", "lat": 35.032655, "lon": -99.090415, "proficiency": 0.15, "district": "HOBART", "city": "Hobart", "ncessch": "401470000692"}, {"name": "HODGEN PUBLIC SCHOOL", "lat": 34.841351, "lon": -94.631671, "proficiency": 0.1, "district": "HODGEN", "city": "Hodgen", "ncessch": "401473000693"}, {"name": "THOMAS IES", "lat": 35.078903, "lon": -96.387916, "proficiency": 0.025, "district": "HOLDENVILLE", "city": "Holdenville", "ncessch": "401479002673"}, {"name": "HOLLIS MS", "lat": 34.685589, "lon": -99.918057, "proficiency": 0.05, "district": "HOLLIS", "city": "Hollis", "ncessch": "401485000701"}, {"name": "HOLLY CREEK PUBLIC SCHOOL", "lat": 33.983435, "lon": -94.819257, "proficiency": 0.1, "district": "HOLLY CREEK", "city": "Broken Bow", "ncessch": "401489000702"}, {"name": "HOMINY MS", "lat": 36.41374, "lon": -96.390402, "proficiency": 0.05, "district": "HOMINY", "city": "Hominy", "ncessch": "401497000704"}, {"name": "HOOKER ES", "lat": 36.8626, "lon": -101.2168, "proficiency": 0.15, "district": "HOOKER", "city": "Hooker", "ncessch": "401509000706"}, {"name": "HOWE ES", "lat": 34.9544, "lon": -94.6367, "proficiency": 0.05, "district": "HOWE", "city": "Howe", "ncessch": "401512000708"}, {"name": "HUGO MS", "lat": 34.012746, "lon": -95.517159, "proficiency": 0.025, "district": "HUGO", "city": "Hugo", "ncessch": "401521002670"}, {"name": "HULBERT MS", "lat": 35.93131, "lon": -95.145386, "proficiency": 0.05, "district": "HULBERT", "city": "Hulbert", "ncessch": "401524000101"}, {"name": "IDABEL MS", "lat": 33.8974, "lon": -94.8236, "proficiency": 0.17, "district": "IDABEL", "city": "Idabel", "ncessch": "401537000724"}, {"name": "INDIAHOMA ES", "lat": 34.619385, "lon": -98.754624, "proficiency": 0.245, "district": "INDIAHOMA", "city": "Indiahoma", "ncessch": "401542000729"}, {"name": "INDIANOLA ES", "lat": 35.159252, "lon": -95.772588, "proficiency": 0.1, "district": "INDIANOLA", "city": "Indianola", "ncessch": "401545000731"}, {"name": "INOLA MS", "lat": 36.159839, "lon": -95.504595, "proficiency": 0.075, "district": "INOLA", "city": "Inola", "ncessch": "401548000734"}, {"name": "JAY MS", "lat": 36.429203, "lon": -94.785828, "proficiency": 0.17, "district": "JAY", "city": "Jay", "ncessch": "401569000737"}, {"name": "JENKS MS", "lat": 36.018809, "lon": -95.942746, "proficiency": 0.16, "district": "JENKS", "city": "Jenks", "ncessch": "401572000740"}, {"name": "JENNINGS PUBLIC SCHOOL", "lat": 36.181928, "lon": -96.568844, "proficiency": 0.245, "district": "JENNINGS", "city": "Jennings", "ncessch": "401575000741"}, {"name": "JONES MS", "lat": 35.5515, "lon": -97.2461, "proficiency": 0.17, "district": "JONES", "city": "Jones", "ncessch": "401584000745"}, {"name": "JUSTICE PUBLIC SCHOOL", "lat": 35.1165, "lon": -96.5096, "proficiency": 0.245, "district": "JUSTICE", "city": "Wewoka", "ncessch": "401590000748"}, {"name": "JUSTUS-TIAWAH PUBLIC SCHOOL", "lat": 36.308094, "lon": -95.561618, "proficiency": 0.27, "district": "JUSTUS-TIAWAH", "city": "Claremore", "ncessch": "401593000749"}, {"name": "KANSAS MS", "lat": 36.2136, "lon": -94.8037, "proficiency": 0.245, "district": "KANSAS", "city": "Kansas", "ncessch": "401599002269"}, {"name": "KELLYVILLE MS", "lat": 35.945548, "lon": -96.207061, "proficiency": 0.15, "district": "KELLYVILLE", "city": "Kellyville", "ncessch": "401617000154"}, {"name": "KENWOOD PUBLIC SCHOOL", "lat": 36.3133, "lon": -94.9862, "proficiency": 0.245, "district": "KENWOOD", "city": "Salina", "ncessch": "401632000756"}, {"name": "KEOTA ES", "lat": 35.2592, "lon": -94.9206, "proficiency": 0.1, "district": "KEOTA", "city": "Keota", "ncessch": "401635000757"}, {"name": "KETCHUM MS", "lat": 36.52479, "lon": -95.022836, "proficiency": 0.15, "district": "KETCHUM", "city": "Ketchum", "ncessch": "401638002359"}, {"name": "KEYSTONE PUBLIC SCHOOL", "lat": 36.129194, "lon": -96.256886, "proficiency": 0.3, "district": "KEYSTONE", "city": "Sand Springs", "ncessch": "401647000766"}, {"name": "RONGEY MS", "lat": 35.943766, "lon": -96.043633, "proficiency": 0.345, "district": "KIEFER", "city": "Kiefer", "ncessch": "401650002371"}, {"name": "KINGFISHER MS", "lat": 35.855378, "lon": -97.940455, "proficiency": 0.37, "district": "KINGFISHER", "city": "Kingfisher", "ncessch": "401656001879"}, {"name": "KINGSTON MS", "lat": 34.0016, "lon": -96.7146, "proficiency": 0.025, "district": "KINGSTON", "city": "Kingston", "ncessch": "401659001948"}, {"name": "KINTA ES", "lat": 35.117754, "lon": -95.238387, "proficiency": 0.1, "district": "KINTA", "city": "Kinta", "ncessch": "401662000775"}, {"name": "KIOWA ES", "lat": 34.717781, "lon": -95.894898, "proficiency": 0.1, "district": "KIOWA", "city": "Kiowa", "ncessch": "401665000777"}, {"name": "KREBS PUBLIC SCHOOL", "lat": 34.9269, "lon": -95.7214, "proficiency": 0.15, "district": "KREBS", "city": "Krebs", "ncessch": "401672000782"}, {"name": "KREMLIN-HILLSDALE ES", "lat": 36.5445, "lon": -97.8301, "proficiency": 0.1, "district": "KREMLIN-HILLSDALE", "city": "Kremlin", "ncessch": "401674000784"}, {"name": "DEER CREEK-LAMONT ES", "lat": 36.8103, "lon": -97.5199, "proficiency": 0.245, "district": "DEER CREEK-LAMONT", "city": "Deer Creek", "ncessch": "401702000788"}, {"name": "LANE PUBLIC SCHOOL", "lat": 34.3015, "lon": -95.9884, "proficiency": 0.1, "district": "LANE", "city": "Lane", "ncessch": "401704000790"}, {"name": "LATTA MS", "lat": 34.7521, "lon": -96.7056, "proficiency": 0.15, "district": "LATTA", "city": "Ada", "ncessch": "401719000794"}, {"name": "LAVERNE ES", "lat": 36.709212, "lon": -99.900652, "proficiency": 0.15, "district": "LAVERNE", "city": "Laverne", "ncessch": "401722000795"}, {"name": "MACARTHUR MS", "lat": 34.6144, "lon": -98.3362, "proficiency": 0.12, "district": "LAWTON", "city": "Lawton", "ncessch": "401725002364"}, {"name": "CENTRAL MS", "lat": 34.6214, "lon": -98.4032, "proficiency": 0.075, "district": "LAWTON", "city": "Lawton", "ncessch": "401725002393"}, {"name": "EISENHOWER MS", "lat": 34.608, "lon": -98.4618, "proficiency": 0.12, "district": "LAWTON", "city": "Lawton", "ncessch": "401725002679"}, {"name": "LEFLORE ES", "lat": 34.8962, "lon": -94.9793, "proficiency": 0.1, "district": "LE FLORE", "city": "Leflore", "ncessch": "401728000840"}, {"name": "LEACH PUBLIC SCHOOL", "lat": 36.205385, "lon": -94.941391, "proficiency": 0.245, "district": "LEACH", "city": "Rose", "ncessch": "401731000843"}, {"name": "LEEDEY ES", "lat": 35.868315, "lon": -99.342002, "proficiency": 0.245, "district": "LEEDEY", "city": "Leedey", "ncessch": "401737000844"}, {"name": "LEXINGTON MS", "lat": 35.0186, "lon": -97.329, "proficiency": 0.025, "district": "LEXINGTON", "city": "Lexington", "ncessch": "401758002678"}, {"name": "LIBERTY PUBLIC SCHOOL", "lat": 35.476932, "lon": -94.540786, "proficiency": 0.1, "district": "LIBERTY", "city": "Roland", "ncessch": "401770000857"}, {"name": "LIBERTY JHS", "lat": 35.872338, "lon": -95.9548, "proficiency": 0.05, "district": "LIBERTY", "city": "Mounds", "ncessch": "401776002927"}, {"name": "LINDSAY MS", "lat": 34.833446, "lon": -97.613575, "proficiency": 0.22, "district": "LINDSAY", "city": "Lindsay", "ncessch": "401785017850"}, {"name": "LITTLE AXE MS", "lat": 35.232929, "lon": -97.195188, "proficiency": 0.075, "district": "LITTLE AXE", "city": "Norman", "ncessch": "401788000103"}, {"name": "LOCUST GROVE MS", "lat": 36.2038, "lon": -95.1572, "proficiency": 0.22, "district": "LOCUST GROVE", "city": "Locust Grove", "ncessch": "401800000868"}, {"name": "LONE GROVE MS", "lat": 34.1782, "lon": -97.2467, "proficiency": 0.075, "district": "LONE GROVE", "city": "Lone Grove", "ncessch": "401809000869"}, {"name": "LONE STAR PUBLIC SCHOOL", "lat": 35.9608, "lon": -96.1168, "proficiency": 0.075, "district": "LONE STAR", "city": "Sapulpa", "ncessch": "401824000872"}, {"name": "LONE WOLF ES", "lat": 34.9879, "lon": -99.2487, "proficiency": 0.245, "district": "LONE WOLF", "city": "Lone Wolf", "ncessch": "401827000873"}, {"name": "LOOKEBA-SICKLES ES", "lat": 35.361, "lon": -98.3685, "proficiency": 0.245, "district": "LOOKEBA SICKLES", "city": "Lookeba", "ncessch": "401839000876"}, {"name": "LOWREY PUBLIC SCHOOL", "lat": 36.089709, "lon": -94.920622, "proficiency": 0.245, "district": "LOWREY", "city": "Tahlequah", "ncessch": "401848000880"}, {"name": "LUKFATA PUBLIC SCHOOL", "lat": 34.0194, "lon": -94.7838, "proficiency": 0.15, "district": "LUKFATA", "city": "Broken Bow", "ncessch": "401857000881"}, {"name": "LUTHER MS", "lat": 35.660812, "lon": -97.192081, "proficiency": 0.12, "district": "LUTHER", "city": "Luther", "ncessch": "401863001949"}, {"name": "MACOMB ES", "lat": 35.144711, "lon": -97.009408, "proficiency": 0.1, "district": "MACOMB", "city": "Macomb", "ncessch": "401866000884"}, {"name": "MADILL MS", "lat": 34.085994, "lon": -96.778428, "proficiency": 0.075, "district": "MADILL", "city": "Madill", "ncessch": "401870000888"}, {"name": "MANGUM MS", "lat": 34.878139, "lon": -99.505712, "proficiency": 0.245, "district": "MANGUM", "city": "Mangum", "ncessch": "401878002321"}, {"name": "MANNFORD MS", "lat": 36.122796, "lon": -96.345781, "proficiency": 0.37, "district": "MANNFORD", "city": "MANNFORD", "ncessch": "401884000895"}, {"name": "MANNSVILLE PUBLIC SCHOOL", "lat": 34.1915, "lon": -96.8749, "proficiency": 0.245, "district": "MANNSVILLE", "city": "Mannsville", "ncessch": "401887000896"}, {"name": "MAPLE PUBLIC SCHOOL", "lat": 35.5287, "lon": -98.1681, "proficiency": 0.695, "district": "MAPLE", "city": "Calumet", "ncessch": "401890000897"}, {"name": "MARBLE CITY PUBLIC SCHOOL", "lat": 35.62536, "lon": -94.815255, "proficiency": 0.245, "district": "MARBLE CITY", "city": "Marble City", "ncessch": "401896000898"}, {"name": "MARIETTA MS", "lat": 33.929221, "lon": -97.124561, "proficiency": 0.12, "district": "MARIETTA", "city": "Marietta", "ncessch": "401899000901"}, {"name": "MARLOW MS", "lat": 34.6459, "lon": -97.9675, "proficiency": 0.27, "district": "MARLOW", "city": "Marlow", "ncessch": "401908000906"}, {"name": "MARYETTA PUBLIC SCHOOL", "lat": 35.841738, "lon": -94.634757, "proficiency": 0.025, "district": "MARYETTA", "city": "Stilwell", "ncessch": "401920000908"}, {"name": "MASON ES", "lat": 35.567084, "lon": -96.351157, "proficiency": 0.245, "district": "MASON", "city": "Mason", "ncessch": "401926000909"}, {"name": "MAUD ES", "lat": 35.1337, "lon": -96.7805, "proficiency": 0.1, "district": "MAUD", "city": "Maud", "ncessch": "401929000911"}, {"name": "MAYSVILLE ES", "lat": 34.813996, "lon": -97.40932, "proficiency": 0.1, "district": "MAYSVILLE", "city": "Maysville", "ncessch": "401938000913"}, {"name": "MCCURTAIN ES", "lat": 35.151723, "lon": -94.973412, "proficiency": 0.245, "district": "MCCURTAIN", "city": "McCurtain", "ncessch": "401941000915"}, {"name": "PUTERBAUGH MS", "lat": 34.9161, "lon": -95.759, "proficiency": 0.32, "district": "MCALESTER", "city": "McAlester", "ncessch": "401944000924"}, {"name": "MCLOUD JHS", "lat": 35.4251, "lon": -97.101065, "proficiency": 0.025, "district": "MCLOUD", "city": "McLoud", "ncessch": "401956000933"}, {"name": "MEDFORD ES", "lat": 36.809738, "lon": -97.735305, "proficiency": 0.1, "district": "MEDFORD", "city": "Medford", "ncessch": "401962000934"}, {"name": "MEEKER MS", "lat": 35.5043, "lon": -96.8924, "proficiency": 0.05, "district": "MEEKER", "city": "Meeker", "ncessch": "401968000939"}, {"name": "MERRITT ES", "lat": 35.378949, "lon": -99.471677, "proficiency": 0.345, "district": "MERRITT", "city": "Elk City", "ncessch": "401980000940"}, {"name": "MIDDLEBERG PUBLIC SCHOOL", "lat": 35.1066, "lon": -97.7362, "proficiency": 0.3, "district": "MIDDLEBERG", "city": "Blanchard", "ncessch": "401989000949"}, {"name": "MIDWEST CITY MS", "lat": 35.4637, "lon": -97.3937, "proficiency": 0.04, "district": "MIDWEST CITY-DEL CITY", "city": "Midwest City", "ncessch": "401995002655"}, {"name": "CARL ALBERT MS", "lat": 35.4397, "lon": -97.3547, "proficiency": 0.075, "district": "MIDWEST CITY-DEL CITY", "city": "Oklahoma City", "ncessch": "401995002659"}, {"name": "DEL CITY MS", "lat": 35.4412, "lon": -97.4283, "proficiency": 0.025, "district": "MIDWEST CITY-DEL CITY", "city": "Del City", "ncessch": "401995002671"}, {"name": "MILBURN ES", "lat": 34.2418, "lon": -96.553, "proficiency": 0.245, "district": "MILBURN", "city": "Milburn", "ncessch": "401998000976"}, {"name": "MILL CREEK ES", "lat": 34.398295, "lon": -96.826039, "proficiency": 0.245, "district": "MILL CREEK", "city": "Mill Creek", "ncessch": "402004000979"}, {"name": "MILLWOOD ARTS ACADEMY MS", "lat": 35.538848, "lon": -97.475868, "proficiency": 0.025, "district": "MILLWOOD", "city": "Oklahoma City", "ncessch": "402008002888"}, {"name": "MINCO MS", "lat": 35.306147, "lon": -97.951085, "proficiency": 0.245, "district": "MINCO", "city": "Minco", "ncessch": "402010001668"}, {"name": "MOFFETT PUBLIC SCHOOL", "lat": 35.3898, "lon": -94.4496, "proficiency": 0.1, "district": "MOFFETT", "city": "Moffett", "ncessch": "402016000986"}, {"name": "MONROE PUBLIC SCHOOL", "lat": 34.9896, "lon": -94.5175, "proficiency": 0.1, "district": "MONROE", "city": "Monroe", "ncessch": "402019000987"}, {"name": "HIGHLAND EAST JHS", "lat": 35.3333, "lon": -97.4688, "proficiency": 0.23, "district": "MOORE", "city": "Moore", "ncessch": "402025000993"}, {"name": "WEST JHS", "lat": 35.373, "lon": -97.5465, "proficiency": 0.08, "district": "MOORE", "city": "Oklahoma City", "ncessch": "402025001004"}, {"name": "CENTRAL JHS", "lat": 35.342638, "lon": -97.487893, "proficiency": 0.07, "district": "MOORE", "city": "Moore", "ncessch": "402025001606"}, {"name": "BRINK JHS", "lat": 35.3534, "lon": -97.5286, "proficiency": 0.41, "district": "MOORE", "city": "Oklahoma City", "ncessch": "402025002214"}, {"name": "HIGHLAND WEST JHS", "lat": 35.3452, "lon": -97.513086, "proficiency": 0.075, "district": "MOORE", "city": "Moore", "ncessch": "402025002215"}, {"name": "SOUTHRIDGE JHS", "lat": 35.32771, "lon": -97.549487, "proficiency": 0.37, "district": "MOORE", "city": "Oklahoma City", "ncessch": "402025002821"}, {"name": "MOORELAND ES", "lat": 36.44291, "lon": -99.206702, "proficiency": 0.15, "district": "MOORELAND", "city": "Mooreland", "ncessch": "402028001005"}, {"name": "MORRIS MS", "lat": 35.607235, "lon": -95.853767, "proficiency": 0.075, "district": "MORRIS", "city": "Morris", "ncessch": "402031001009"}, {"name": "MORRISON MS", "lat": 36.29995, "lon": -97.006764, "proficiency": 0.05, "district": "MORRISON", "city": "Morrison", "ncessch": "402034002657"}, {"name": "MOSELEY PUBLIC SCHOOL", "lat": 36.1891, "lon": -94.6291, "proficiency": 0.245, "district": "MOSELEY", "city": "Colcord", "ncessch": "402043001012"}, {"name": "MOSS ES", "lat": 35.071932, "lon": -96.231318, "proficiency": 0.1, "district": "MOSS", "city": "Holdenville", "ncessch": "402046001013"}, {"name": "MOUNDS ES", "lat": 35.8803, "lon": -96.0551, "proficiency": 0.05, "district": "MOUNDS", "city": "Mounds", "ncessch": "402055001018"}, {"name": "MOYERS ES", "lat": 34.326265, "lon": -95.65458, "proficiency": 0.1, "district": "MOYERS", "city": "Moyers", "ncessch": "402064002091"}, {"name": "MULDROW MS", "lat": 35.399548, "lon": -94.606964, "proficiency": 0.12, "district": "MULDROW", "city": "Muldrow", "ncessch": "402088001967"}, {"name": "MULHALL-ORLANDO ES", "lat": 36.063512, "lon": -97.404972, "proficiency": 0.75, "district": "MULHALL-ORLANDO", "city": "Mulhall", "ncessch": "402091001029"}, {"name": "6TH AND 7TH GRADE ACADEMY", "lat": 35.75047, "lon": -95.439389, "proficiency": 0.07, "district": "MUSKOGEE", "city": "Muskogee", "ncessch": "402097000599"}, {"name": "SADLER ARTS ACADEMY", "lat": 35.758891, "lon": -95.368664, "proficiency": 0.9, "district": "MUSKOGEE", "city": "Muskogee", "ncessch": "402097001968"}, {"name": "MUSTANG MS", "lat": 35.381187, "lon": -97.732328, "proficiency": 0.23, "district": "MUSTANG", "city": "Yukon", "ncessch": "402100001047"}, {"name": "MUSTANG NORTH MS", "lat": 35.4505, "lon": -97.7147, "proficiency": 0.28, "district": "MUSTANG", "city": "Yukon", "ncessch": "402100001969"}, {"name": "MUSTANG CENTRAL MS", "lat": 35.41662, "lon": -97.734202, "proficiency": 0.22, "district": "MUSTANG", "city": "Yukon", "ncessch": "402100002881"}, {"name": "SHARON-MUTUAL ES", "lat": 36.2747, "lon": -99.3377, "proficiency": 0.245, "district": "SHARON-MUTUAL", "city": "Sharon", "ncessch": "402103001049"}, {"name": "NASHOBA PUBLIC SCHOOL", "lat": 34.482081, "lon": -95.209012, "proficiency": 0.245, "district": "NASHOBA", "city": "Nashoba", "ncessch": "402112001051"}, {"name": "NAVAJO JHS", "lat": 34.740714, "lon": -99.230882, "proficiency": 0.05, "district": "NAVAJO", "city": "Altus", "ncessch": "402118001889"}, {"name": "NEW LIMA ES", "lat": 35.17235, "lon": -96.59226, "proficiency": 0.245, "district": "NEW LIMA", "city": "Wewoka", "ncessch": "402136001054"}, {"name": "NEWCASTLE MS", "lat": 35.248611, "lon": -97.592901, "proficiency": 0.075, "district": "NEWCASTLE", "city": "Newcastle", "ncessch": "402151001058"}, {"name": "NEWKIRK MS", "lat": 36.8744, "lon": -97.0632, "proficiency": 0.025, "district": "NEWKIRK", "city": "Newkirk", "ncessch": "402154001986"}, {"name": "NINNEKAH MS", "lat": 34.949155, "lon": -97.922448, "proficiency": 0.05, "district": "NINNEKAH", "city": "Ninnekah", "ncessch": "402160001673"}, {"name": "CURTIS INGE MS", "lat": 35.1524, "lon": -97.3873, "proficiency": 0.17, "district": "NOBLE", "city": "Noble", "ncessch": "402163002370"}, {"name": "IRVING MS", "lat": 35.2162, "lon": -97.4104, "proficiency": 0.12, "district": "NORMAN", "city": "Norman", "ncessch": "402172001073"}, {"name": "LONGFELLOW MS", "lat": 35.225, "lon": -97.4382, "proficiency": 0.17, "district": "NORMAN", "city": "Norman", "ncessch": "402172001078"}, {"name": "WHITTIER MS", "lat": 35.2068, "lon": -97.4711, "proficiency": 0.21, "district": "NORMAN", "city": "Norman", "ncessch": "402172001085"}, {"name": "ALCOTT MS", "lat": 35.2125, "lon": -97.4702, "proficiency": 0.12, "district": "NORMAN", "city": "Norman", "ncessch": "402172002117"}, {"name": "DIMENSIONS ACADEMY", "lat": 35.231668, "lon": -97.437283, "proficiency": 0.05, "district": "NORMAN", "city": "Norman", "ncessch": "402172002714"}, {"name": "CHISHOLM MS", "lat": 36.4641, "lon": -97.9294, "proficiency": 0.62, "district": "CHISHOLM", "city": "Enid", "ncessch": "402178002105"}, {"name": "NORWOOD PUBLIC SCHOOL", "lat": 35.8714, "lon": -95.1638, "proficiency": 0.1, "district": "NORWOOD", "city": "Hulbert", "ncessch": "402190001092"}, {"name": "NOWATA MS", "lat": 36.696546, "lon": -95.646481, "proficiency": 0.05, "district": "NOWATA", "city": "Nowata", "ncessch": "402193001095"}, {"name": "OAK GROVE PUBLIC SCHOOL", "lat": 35.9707, "lon": -96.6421, "proficiency": 0.245, "district": "OAK GROVE", "city": "Cushing", "ncessch": "402216001097"}, {"name": "OAKDALE PUBLIC SCHOOL", "lat": 35.5812, "lon": -97.422355, "proficiency": 0.545, "district": "OAKDALE", "city": "Edmond", "ncessch": "402235001098"}, {"name": "OAKS-MISSION ES", "lat": 36.165398, "lon": -94.853934, "proficiency": 0.245, "district": "OAKS-MISSION", "city": "Oaks", "ncessch": "402241001099"}, {"name": "J. F. KENNEDY ES", "lat": 36.0833, "lon": -96.5809, "proficiency": 0.245, "district": "OILTON", "city": "Oilton", "ncessch": "402256001102"}, {"name": "OKARCHE JHS", "lat": 35.726927, "lon": -97.984269, "proficiency": 0.1, "district": "OKARCHE", "city": "Okarche", "ncessch": "402259029687"}, {"name": "OKAY ES", "lat": 35.8648, "lon": -95.3062, "proficiency": 0.05, "district": "OKAY", "city": "Okay", "ncessch": "402262001106"}, {"name": "OKEENE JR-SR HS (JR)", "lat": 36.1186, "lon": -98.3159, "proficiency": 0.1, "district": "OKEENE", "city": "Okeene", "ncessch": "402265000054"}, {"name": "JEFFERSON MS", "lat": 35.3978, "lon": -97.5382, "proficiency": 0.025, "district": "OKLAHOMA CITY", "city": "Oklahoma City", "ncessch": "402277001150"}, {"name": "ROOSEVELT MS", "lat": 35.4217, "lon": -97.5734, "proficiency": 0.025, "district": "OKLAHOMA CITY", "city": "Oklahoma City", "ncessch": "402277001183"}, {"name": "TAFT MS", "lat": 35.4939, "lon": -97.5666, "proficiency": 0.025, "district": "OKLAHOMA CITY", "city": "Oklahoma City", "ncessch": "402277001196"}, {"name": "WEBSTER MS", "lat": 35.398, "lon": -97.5114, "proficiency": 0.025, "district": "OKLAHOMA CITY", "city": "Oklahoma City", "ncessch": "402277001202"}, {"name": "CLASSEN MS OF ADVANCED STUDIES", "lat": 35.48799, "lon": -97.533254, "proficiency": 0.32, "district": "OKLAHOMA CITY", "city": "Oklahoma City", "ncessch": "402277001877"}, {"name": "BELLE ISLE MS", "lat": 35.530867, "lon": -97.556066, "proficiency": 0.17, "district": "OKLAHOMA CITY", "city": "Oklahoma City", "ncessch": "402277002275"}, {"name": "EMERSON ALTERNATIVE ED. (MS)", "lat": 35.4747, "lon": -97.5221, "proficiency": 0.245, "district": "OKLAHOMA CITY", "city": "Oklahoma City", "ncessch": "402277002326"}, {"name": "JOHN MARSHALL MS", "lat": 35.588565, "lon": -97.556017, "proficiency": 0.025, "district": "OKLAHOMA CITY", "city": "Oklahoma City", "ncessch": "402277002394"}, {"name": "CAPITOL HILL MS", "lat": 35.437967, "lon": -97.516951, "proficiency": 0.025, "district": "OKLAHOMA CITY", "city": "Oklahoma City", "ncessch": "402277002885"}, {"name": "MARY GOLDA ROSS MS", "lat": 35.438284, "lon": -97.557625, "proficiency": 0.025, "district": "OKLAHOMA CITY", "city": "Oklahoma City", "ncessch": "402277002891"}, {"name": "SOUTHEAST MS", "lat": 35.398514, "lon": -97.51857, "proficiency": 0.025, "district": "OKLAHOMA CITY", "city": "Oklahoma City", "ncessch": "402277002893"}, {"name": "STAR SPENCER MS", "lat": 35.501331, "lon": -97.381761, "proficiency": 0.075, "district": "OKLAHOMA CITY", "city": "Oklahoma City", "ncessch": "402277002894"}, {"name": "WHEELER MS", "lat": 35.440121, "lon": -97.503119, "proficiency": 0.025, "district": "OKLAHOMA CITY", "city": "Oklahoma City", "ncessch": "402277002897"}, {"name": "PUTNAM HEIGHTS ACADEMY MS", "lat": 35.508215, "lon": -97.539972, "proficiency": 0.245, "district": "OKLAHOMA CITY", "city": "Oklahoma City", "ncessch": "402277002910"}, {"name": "MOON MS", "lat": 35.483453, "lon": -97.478517, "proficiency": 0.025, "district": "OKLAHOMA CITY", "city": "Oklahoma City", "ncessch": "402277002912"}, {"name": "DUNBAR INTERMEDIATE ES", "lat": 35.630461, "lon": -95.951564, "proficiency": 0.025, "district": "OKMULGEE", "city": "Okmulgee", "ncessch": "402280001211"}, {"name": "OKTAHA ES", "lat": 35.577302, "lon": -95.4726, "proficiency": 0.15, "district": "OKTAHA", "city": "Oktaha", "ncessch": "402283001215"}, {"name": "OLIVE ES", "lat": 36.027734, "lon": -96.480429, "proficiency": 0.245, "district": "OLIVE", "city": "Drumright", "ncessch": "402286001217"}, {"name": "LOMEGA ES", "lat": 35.973504, "lon": -98.116326, "proficiency": 0.245, "district": "LOMEGA", "city": "Loyal", "ncessch": "402295001223"}, {"name": "OOLOGAH-TALALA MS", "lat": 36.4578, "lon": -95.70811, "proficiency": 0.12, "district": "OOLOGAH-TALALA", "city": "Oologah", "ncessch": "402304001229"}, {"name": "OSAGE PUBLIC SCHOOL", "lat": 36.308, "lon": -95.3984, "proficiency": 0.245, "district": "OSAGE", "city": "Pryor", "ncessch": "402319001231"}, {"name": "OSAGE HILLS PUBLIC SCHOOL", "lat": 36.732953, "lon": -96.006831, "proficiency": 0.245, "district": "OSAGE HILLS", "city": "Bartlesville", "ncessch": "402322001232"}, {"name": "OWASSO 8TH GRADE CTR", "lat": 36.281354, "lon": -95.823026, "proficiency": 0.13, "district": "OWASSO", "city": "Owasso", "ncessch": "402328029813"}, {"name": "PADEN ES", "lat": 35.503971, "lon": -96.570629, "proficiency": 0.3, "district": "PADEN", "city": "Paden", "ncessch": "402334001237"}, {"name": "PANAMA MS", "lat": 35.174178, "lon": -94.670502, "proficiency": 0.05, "district": "PANAMA", "city": "Panama", "ncessch": "402337001987"}, {"name": "PAOLI ES", "lat": 34.8283, "lon": -97.262, "proficiency": 0.1, "district": "PAOLI", "city": "Paoli", "ncessch": "402343001244"}, {"name": "PAULS VALLEY JHS", "lat": 34.7418, "lon": -97.2219, "proficiency": 0.27, "district": "PAULS VALLEY", "city": "Pauls Valley", "ncessch": "402355002372"}, {"name": "PAWHUSKA MS", "lat": 36.67392, "lon": -96.331192, "proficiency": 0.05, "district": "PAWHUSKA", "city": "Pawhuska", "ncessch": "402358002883"}, {"name": "PAWNEE MS", "lat": 36.3329, "lon": -96.8048, "proficiency": 0.05, "district": "PAWNEE", "city": "Pawnee", "ncessch": "402361002090"}, {"name": "PEGGS PUBLIC SCHOOL", "lat": 36.0807, "lon": -95.1042, "proficiency": 0.1, "district": "PEGGS", "city": "Peggs", "ncessch": "402373001258"}, {"name": "PERKINS-TRYON MS", "lat": 35.9745, "lon": -97.0369, "proficiency": 0.075, "district": "PERKINS-TRYON", "city": "PERKINS", "ncessch": "402380002379"}, {"name": "PERRY JHS", "lat": 36.294705, "lon": -97.302086, "proficiency": 0.025, "district": "PERRY", "city": "Perry", "ncessch": "402385002701"}, {"name": "PIEDMONT MS", "lat": 35.6466, "lon": -97.7482, "proficiency": 0.29, "district": "PIEDMONT", "city": "Piedmont", "ncessch": "402397001273"}, {"name": "PIONEER PUBLIC SCHOOL", "lat": 34.9858, "lon": -98.0216, "proficiency": 0.495, "district": "PIONEER", "city": "Chickasha", "ncessch": "402415001274"}, {"name": "PITTSBURG ES", "lat": 34.713582, "lon": -95.854129, "proficiency": 0.245, "district": "PITTSBURG", "city": "Pittsburg", "ncessch": "402418001275"}, {"name": "PLAINVIEW MS", "lat": 34.1612, "lon": -97.1757, "proficiency": 0.32, "district": "PLAINVIEW", "city": "Ardmore", "ncessch": "402424001279"}, {"name": "PLEASANT GROVE PUBLIC SCHOOL", "lat": 35.325121, "lon": -96.895226, "proficiency": 0.1, "district": "PLEASANT GROVE", "city": "Shawnee", "ncessch": "402433001281"}, {"name": "PIONEER-PLEASANT VALE JHS", "lat": 36.2752, "lon": -97.7836, "proficiency": 0.05, "district": "PIONEER-PLEASANT VALE", "city": "Waukomis", "ncessch": "402451029667"}, {"name": "POCOLA MS", "lat": 35.2605, "lon": -94.4706, "proficiency": 0.05, "district": "POCOLA", "city": "Pocola", "ncessch": "402463001289"}, {"name": "PONCA CITY EAST MS", "lat": 36.7029, "lon": -97.0767, "proficiency": 0.17, "district": "PONCA CITY", "city": "Ponca City", "ncessch": "402469002288"}, {"name": "POND CREEK-HUNTER MS", "lat": 36.6687, "lon": -97.7971, "proficiency": 0.05, "district": "POND CREEK-HUNTER", "city": "Pond Creek", "ncessch": "402472002764"}, {"name": "PORUM ES", "lat": 35.361597, "lon": -95.26802, "proficiency": 0.1, "district": "PORUM", "city": "Porum", "ncessch": "402484001306"}, {"name": "7TH AND 8TH GRADE ACADEMIC CTR", "lat": 35.063094, "lon": -94.623629, "proficiency": 0.27, "district": "POTEAU", "city": "Poteau", "ncessch": "402487002915"}, {"name": "PRAGUE MS", "lat": 35.4882, "lon": -96.7022, "proficiency": 0.025, "district": "PRAGUE", "city": "Prague", "ncessch": "402493001312"}, {"name": "PRESTON ES", "lat": 35.709017, "lon": -95.991168, "proficiency": 0.05, "district": "PRESTON", "city": "Preston", "ncessch": "402505001314"}, {"name": "PRETTY WATER PUBLIC SCHOOL", "lat": 36.0474, "lon": -96.1629, "proficiency": 0.245, "district": "PRETTY WATER", "city": "Sapulpa", "ncessch": "402508001316"}, {"name": "PRUE ES", "lat": 36.2536, "lon": -96.2674, "proficiency": 0.1, "district": "PRUE", "city": "Prue", "ncessch": "402517001318"}, {"name": "PRYOR MS", "lat": 36.3051, "lon": -95.312, "proficiency": 0.17, "district": "PRYOR", "city": "Pryor", "ncessch": "402520001323"}, {"name": "PURCELL JHS", "lat": 35.037345, "lon": -97.365288, "proficiency": 0.22, "district": "PURCELL", "city": "Purcell", "ncessch": "402523002239"}, {"name": "JAMES L. CAPPS MS", "lat": 35.5121, "lon": -97.6142, "proficiency": 0.075, "district": "PUTNAM CITY", "city": "Warr Acres", "ncessch": "402529001184"}, {"name": "COOPER MS", "lat": 35.543, "lon": -97.6558, "proficiency": 0.12, "district": "PUTNAM CITY", "city": "Oklahoma City", "ncessch": "402529001195"}, {"name": "HEFNER MS", "lat": 35.5574, "lon": -97.6195, "proficiency": 0.12, "district": "PUTNAM CITY", "city": "Oklahoma City", "ncessch": "402529001240"}, {"name": "MAYFIELD MS", "lat": 35.484, "lon": -97.6135, "proficiency": 0.025, "district": "PUTNAM CITY", "city": "Oklahoma City", "ncessch": "402529001250"}, {"name": "WESTERN OAKS MS", "lat": 35.4928, "lon": -97.6395, "proficiency": 0.12, "district": "PUTNAM CITY", "city": "Bethany", "ncessch": "402529001301"}, {"name": "QUAPAW MS", "lat": 36.9584, "lon": -94.7907, "proficiency": 0.05, "district": "QUAPAW", "city": "Quapaw", "ncessch": "402532001352"}, {"name": "QUINTON ES", "lat": 35.130702, "lon": -95.368089, "proficiency": 0.1, "district": "QUINTON", "city": "Quinton", "ncessch": "402541001353"}, {"name": "CANEY VALLEY MS", "lat": 36.53291, "lon": -95.925006, "proficiency": 0.075, "district": "CANEY VALLEY", "city": "Ramona", "ncessch": "402547001358"}, {"name": "RATTAN JHS", "lat": 34.199165, "lon": -95.421334, "proficiency": 0.1, "district": "RATTAN", "city": "Rattan", "ncessch": "402550001363"}, {"name": "RAVIA PUBLIC SCHOOL", "lat": 34.244441, "lon": -96.757067, "proficiency": 0.245, "district": "RAVIA", "city": "Ravia", "ncessch": "402553001364"}, {"name": "RED OAK ES", "lat": 34.9559, "lon": -95.0794, "proficiency": 0.1, "district": "RED OAK", "city": "Red Oak", "ncessch": "402559001365"}, {"name": "REYDON ES", "lat": 35.6563, "lon": -99.9188, "proficiency": 0.75, "district": "REYDON", "city": "Reydon", "ncessch": "402580001370"}, {"name": "RINGLING JHS", "lat": 34.185787, "lon": -97.594104, "proficiency": 0.1, "district": "RINGLING", "city": "Ringling", "ncessch": "402586001374"}, {"name": "RINGWOOD ES", "lat": 36.38179, "lon": -98.24611, "proficiency": 0.1, "district": "RINGWOOD", "city": "Ringwood", "ncessch": "402592001375"}, {"name": "RIPLEY ES", "lat": 36.0142, "lon": -96.9021, "proficiency": 0.05, "district": "RIPLEY", "city": "Ripley", "ncessch": "402595001377"}, {"name": "RIVERSIDE PUBLIC SCHOOL", "lat": 35.5364, "lon": -97.901, "proficiency": 0.245, "district": "RIVERSIDE", "city": "El Reno", "ncessch": "402601001379"}, {"name": "ROBIN HILL PUBLIC SCHOOL", "lat": 35.2765, "lon": -97.3703, "proficiency": 0.1, "district": "ROBIN HILL", "city": "Norman", "ncessch": "402610001380"}, {"name": "ROCKY MOUNTAIN PUBLIC SCHOOL", "lat": 35.805561, "lon": -94.766678, "proficiency": 0.3, "district": "ROCKY MOUNTAIN", "city": "Stilwell", "ncessch": "402625001381"}, {"name": "ROFF ES", "lat": 34.6289, "lon": -96.8404, "proficiency": 0.245, "district": "ROFF", "city": "Roff", "ncessch": "402628001382"}, {"name": "ROLAND MS", "lat": 35.417441, "lon": -94.518788, "proficiency": 0.05, "district": "ROLAND", "city": "Roland", "ncessch": "402631001386"}, {"name": "RUSH SPRINGS MS", "lat": 34.783, "lon": -97.9623, "proficiency": 0.1, "district": "RUSH SPRINGS", "city": "Rush Springs", "ncessch": "402655001391"}, {"name": "RYAN ES", "lat": 34.025247, "lon": -97.9492, "proficiency": 0.1, "district": "RYAN", "city": "Ryan", "ncessch": "402661001393"}, {"name": "SOUTH COFFEYVILLE ES", "lat": 36.9942, "lon": -95.6129, "proficiency": 0.245, "district": "SOUTH COFFEYVILLE", "city": "South Coffeyville", "ncessch": "402664001395"}, {"name": "SALINA MS", "lat": 36.302751, "lon": -95.149836, "proficiency": 0.245, "district": "SALINA", "city": "Salina", "ncessch": "402673002005"}, {"name": "SALLISAW MS", "lat": 35.450272, "lon": -94.816187, "proficiency": 0.12, "district": "SALLISAW", "city": "Sallisaw", "ncessch": "402679001403"}, {"name": "CLYDE BOYD MS", "lat": 36.1127, "lon": -96.1288, "proficiency": 0.07, "district": "SAND SPRINGS", "city": "Sand Springs", "ncessch": "402688002382"}, {"name": "SAPULPA JHS", "lat": 35.9973, "lon": -96.0975, "proficiency": 0.12, "district": "SAPULPA", "city": "Sapulpa", "ncessch": "402691002223"}, {"name": "SASAKWA ES", "lat": 34.9504, "lon": -96.5241, "proficiency": 0.245, "district": "SASAKWA", "city": "Sasakwa", "ncessch": "402694001426"}, {"name": "SAVANNA ES", "lat": 34.826512, "lon": -95.842039, "proficiency": 0.3, "district": "SAVANNA", "city": "Savanna", "ncessch": "402700001428"}, {"name": "SAYRE MS", "lat": 35.314052, "lon": -99.634017, "proficiency": 0.05, "district": "SAYRE", "city": "Sayre", "ncessch": "402706002268"}, {"name": "SCHULTER ES", "lat": 35.5135, "lon": -95.9597, "proficiency": 0.245, "district": "SCHULTER", "city": "Schulter", "ncessch": "402709001434"}, {"name": "SEILING JR-SR HS (JR)", "lat": 36.147, "lon": -98.9203, "proficiency": 0.1, "district": "SEILING", "city": "Seiling", "ncessch": "402724001438"}, {"name": "SEMINOLE MS", "lat": 35.228809, "lon": -96.67927, "proficiency": 0.12, "district": "SEMINOLE", "city": "Seminole", "ncessch": "402730001441"}, {"name": "MCMURRAY ES", "lat": 35.1558, "lon": -99.1702, "proficiency": 0.1, "district": "SENTINEL", "city": "Sentinel", "ncessch": "402733001443"}, {"name": "SEQUOYAH MS", "lat": 36.3761, "lon": -95.5565, "proficiency": 0.12, "district": "SEQUOYAH", "city": "Claremore", "ncessch": "402739002706"}, {"name": "SHADY GROVE PUBLIC SCHOOL", "lat": 35.9592, "lon": -95.1016, "proficiency": 0.245, "district": "SHADY GROVE", "city": "Hulbert", "ncessch": "402742001448"}, {"name": "SHADY POINT PUBLIC SCHOOL", "lat": 35.132015, "lon": -94.660242, "proficiency": 0.1, "district": "SHADY POINT", "city": "Shady Point", "ncessch": "402745001450"}, {"name": "SHATTUCK ES", "lat": 36.274545, "lon": -99.871456, "proficiency": 0.15, "district": "SHATTUCK", "city": "Shattuck", "ncessch": "402754001452"}, {"name": "SHAWNEE MS", "lat": 35.3732, "lon": -96.9219, "proficiency": 0.025, "district": "SHAWNEE", "city": "Shawnee", "ncessch": "402757000728"}, {"name": "SHIDLER MS", "lat": 36.7814, "lon": -96.664171, "proficiency": 0.1, "district": "SHIDLER", "city": "Shidler", "ncessch": "402763002689"}, {"name": "SILO MS", "lat": 34.038746, "lon": -96.477049, "proficiency": 0.025, "district": "SILO", "city": "Durant", "ncessch": "402764001471"}, {"name": "NEWMAN MS", "lat": 36.360575, "lon": -96.024453, "proficiency": 0.22, "district": "SKIATOOK", "city": "Skiatook", "ncessch": "402775001476"}, {"name": "SMITHVILLE MS", "lat": 34.4704, "lon": -94.6457, "proficiency": 0.1, "district": "SMITHVILLE", "city": "Smithville", "ncessch": "402784001855"}, {"name": "SNYDER ES", "lat": 34.65607, "lon": -98.954714, "proficiency": 0.1, "district": "SNYDER", "city": "Snyder", "ncessch": "402793001481"}, {"name": "SOPER ES", "lat": 34.037147, "lon": -95.699171, "proficiency": 0.1, "district": "SOPER", "city": "Soper", "ncessch": "402796001484"}, {"name": "SOUTH ROCK CREEK PUBLIC SCHOOL", "lat": 35.3065, "lon": -96.8608, "proficiency": 0.545, "district": "SOUTH ROCK CREEK", "city": "Shawnee", "ncessch": "402799001486"}, {"name": "SPERRY MS", "lat": 36.297534, "lon": -95.997214, "proficiency": 0.075, "district": "SPERRY", "city": "Sperry", "ncessch": "402817001491"}, {"name": "SPIRO MS", "lat": 35.239853, "lon": -94.631335, "proficiency": 0.17, "district": "SPIRO", "city": "Spiro", "ncessch": "402820001494"}, {"name": "SPRINGER ES", "lat": 34.312097, "lon": -97.142093, "proficiency": 0.245, "district": "SPRINGER", "city": "Springer", "ncessch": "402835001495"}, {"name": "STERLING ES", "lat": 34.745493, "lon": -98.172205, "proficiency": 0.3, "district": "STERLING", "city": "Sterling", "ncessch": "402859001498"}, {"name": "STIDHAM PUBLIC SCHOOL", "lat": 35.375521, "lon": -95.699059, "proficiency": 0.245, "district": "STIDHAM", "city": "Eufaula", "ncessch": "402862001501"}, {"name": "STIGLER MS", "lat": 35.262499, "lon": -95.133641, "proficiency": 0.12, "district": "STIGLER", "city": "Stigler", "ncessch": "402865001504"}, {"name": "STILLWATER JHS", "lat": 36.1405, "lon": -97.0391, "proficiency": 0.29, "district": "STILLWATER", "city": "Stillwater", "ncessch": "402868029741"}, {"name": "STILWELL MS", "lat": 35.8162, "lon": -94.6346, "proficiency": 0.075, "district": "STILWELL", "city": "Stilwell", "ncessch": "402871001513"}, {"name": "MCLISH MS", "lat": 34.606455, "lon": -96.6168, "proficiency": 0.05, "district": "STONEWALL", "city": "Stonewall", "ncessch": "402880002389"}, {"name": "STRATFORD MS", "lat": 34.797439, "lon": -96.958428, "proficiency": 0.245, "district": "STRATFORD", "city": "Stratford", "ncessch": "402898002677"}, {"name": "STRINGTOWN ES", "lat": 34.465887, "lon": -96.052873, "proficiency": 0.245, "district": "STRINGTOWN", "city": "Stringtown", "ncessch": "402901001521"}, {"name": "STROTHER ES", "lat": 35.363365, "lon": -96.585846, "proficiency": 0.1, "district": "STROTHER", "city": "Seminole", "ncessch": "402904001523"}, {"name": "STROUD MS", "lat": 35.753541, "lon": -96.655725, "proficiency": 0.12, "district": "STROUD", "city": "Stroud", "ncessch": "402907001529"}, {"name": "STUART ES", "lat": 34.897915, "lon": -96.099888, "proficiency": 0.245, "district": "STUART", "city": "Stuart", "ncessch": "402910001530"}, {"name": "SULPHUR MS", "lat": 34.508308, "lon": -96.977763, "proficiency": 0.22, "district": "SULPHUR", "city": "Sulphur", "ncessch": "402916002703"}, {"name": "SWEETWATER ES", "lat": 35.4069, "lon": -99.9122, "proficiency": 0.245, "district": "SWEETWATER", "city": "Sweetwater", "ncessch": "402931001538"}, {"name": "TAHLEQUAH MS", "lat": 35.920135, "lon": -94.983641, "proficiency": 0.27, "district": "TAHLEQUAH", "city": "Tahlequah", "ncessch": "402938002401"}, {"name": "TALIHINA JHS", "lat": 34.7567, "lon": -95.0426, "proficiency": 0.05, "district": "TALIHINA", "city": "Talihina", "ncessch": "402940001548"}, {"name": "TALOGA ES", "lat": 36.038, "lon": -98.9691, "proficiency": 0.245, "district": "TALOGA", "city": "Taloga", "ncessch": "402943001549"}, {"name": "TANNEHILL PUBLIC SCHOOL", "lat": 34.9995, "lon": -95.8581, "proficiency": 0.1, "district": "TANNEHILL", "city": "McAlester", "ncessch": "402952001551"}, {"name": "TECUMSEH MS", "lat": 35.2591, "lon": -96.9401, "proficiency": 0.17, "district": "TECUMSEH", "city": "Tecumseh", "ncessch": "402961001556"}, {"name": "TEMPLE ES", "lat": 34.266555, "lon": -98.238062, "proficiency": 0.245, "district": "TEMPLE", "city": "Temple", "ncessch": "402964001557"}, {"name": "TENKILLER PUBLIC SCHOOL", "lat": 35.768037, "lon": -94.842033, "proficiency": 0.1, "district": "TENKILLER", "city": "Welling", "ncessch": "402967001559"}, {"name": "TEXHOMA ES", "lat": 36.5072, "lon": -101.787097, "proficiency": 0.3, "district": "TEXHOMA", "city": "Texhoma", "ncessch": "402982001562"}, {"name": "THACKERVILLE MS", "lat": 33.796035, "lon": -97.142776, "proficiency": 0.1, "district": "THACKERVILLE", "city": "Thackerville", "ncessch": "402985002833"}, {"name": "MOUNTAIN VIEW-GOTEBO ES", "lat": 35.097067, "lon": -98.74349, "proficiency": 0.245, "district": "MOUNTAIN VIEW-GOTEBO", "city": "Mountain View", "ncessch": "402988602106"}, {"name": "TIPTON ES", "lat": 34.495966, "lon": -99.139733, "proficiency": 0.1, "district": "TIPTON", "city": "Tipton", "ncessch": "403003001570"}, {"name": "WOODLAND UPPER ES", "lat": 36.5714, "lon": -96.7089, "proficiency": 0.1, "district": "WOODLAND", "city": "Fairfax", "ncessch": "403004829729"}, {"name": "TISHOMINGO MS", "lat": 34.232045, "lon": -96.675447, "proficiency": 0.075, "district": "TISHOMINGO", "city": "Tishomingo", "ncessch": "403006001574"}, {"name": "TONKAWA MS", "lat": 36.6817, "lon": -97.3049, "proficiency": 0.05, "district": "TONKAWA", "city": "Tonkawa", "ncessch": "403012002236"}, {"name": "PORTER CONSOLIDATED ES", "lat": 35.869611, "lon": -95.521378, "proficiency": 0.05, "district": "PORTER CONSOLIDATED", "city": "Porter", "ncessch": "403019701304"}, {"name": "CARVER MS", "lat": 36.176145, "lon": -95.984938, "proficiency": 0.025, "district": "TULSA", "city": "Tulsa", "ncessch": "403024001594"}, {"name": "DANIEL WEBSTER MS", "lat": 36.106111, "lon": -96.014929, "proficiency": 0.025, "district": "TULSA", "city": "Tulsa", "ncessch": "403024001601"}, {"name": "EDISON PREPARATORY MS", "lat": 36.1034, "lon": -95.9473, "proficiency": 0.12, "district": "TULSA", "city": "Tulsa", "ncessch": "403024001609"}, {"name": "EAST CENTRAL JHS", "lat": 36.134169, "lon": -95.841002, "proficiency": 0.025, "district": "TULSA", "city": "Tulsa", "ncessch": "403024001614"}, {"name": "HALE JHS", "lat": 36.130618, "lon": -95.899491, "proficiency": 0.025, "district": "TULSA", "city": "Tulsa", "ncessch": "403024001677"}, {"name": "THOREAU DEMONSTRATION ACADEMY", "lat": 36.0597, "lon": -95.8925, "proficiency": 0.075, "district": "TULSA", "city": "Tulsa", "ncessch": "403024002281"}, {"name": "TRAICE MS", "lat": 36.2127, "lon": -95.9501, "proficiency": 0.245, "district": "TULSA", "city": "Tulsa", "ncessch": "403024002736"}, {"name": "MONROE DEMONSTRATION MS", "lat": 36.2236, "lon": -95.964, "proficiency": 0.025, "district": "TULSA", "city": "Tulsa", "ncessch": "403024002739"}, {"name": "CENTRAL MS", "lat": 36.162883, "lon": -96.027809, "proficiency": 0.025, "district": "TULSA", "city": "Tulsa", "ncessch": "403024002920"}, {"name": "MEMORIAL MS", "lat": 36.081711, "lon": -95.892871, "proficiency": 0.025, "district": "TULSA", "city": "Tulsa", "ncessch": "403024002921"}, {"name": "WILL ROGERS COLLEGE MS", "lat": 36.153798, "lon": -95.933576, "proficiency": 0.025, "district": "TULSA", "city": "Tulsa", "ncessch": "403024002922"}, {"name": "TULSA MET JHS", "lat": 36.184797, "lon": -95.907081, "proficiency": 0.1, "district": "TULSA", "city": "Tulsa", "ncessch": "403024029767"}, {"name": "TUPELO ES", "lat": 34.602769, "lon": -96.425551, "proficiency": 0.1, "district": "TUPELO", "city": "Tupelo", "ncessch": "403027001683"}, {"name": "TURNER ES", "lat": 33.93946, "lon": -97.318288, "proficiency": 0.1, "district": "TURNER", "city": "Burneyville", "ncessch": "403030001686"}, {"name": "TURPIN ES", "lat": 36.86479, "lon": -100.880727, "proficiency": 0.15, "district": "TURPIN", "city": "Turpin", "ncessch": "403033001688"}, {"name": "TUSHKA ES", "lat": 34.317562, "lon": -96.173484, "proficiency": 0.05, "district": "TUSHKA", "city": "Atoka", "ncessch": "403036001690"}, {"name": "TUSKAHOMA PUBLIC SCHOOL", "lat": 34.618718, "lon": -95.276008, "proficiency": 0.245, "district": "TUSKAHOMA", "city": "Tuskahoma", "ncessch": "403039001692"}, {"name": "TUTTLE MS", "lat": 35.284861, "lon": -97.811053, "proficiency": 0.12, "district": "TUTTLE", "city": "Tuttle", "ncessch": "403042001696"}, {"name": "TWIN HILLS PUBLIC SCHOOL", "lat": 35.751711, "lon": -95.837931, "proficiency": 0.1, "district": "TWIN HILLS", "city": "Okmulgee", "ncessch": "403045001697"}, {"name": "TYRONE ES", "lat": 36.958823, "lon": -101.068045, "proficiency": 0.1, "district": "TYRONE", "city": "Tyrone", "ncessch": "403048001698"}, {"name": "UNION 8TH GRADE CTR", "lat": 36.0672, "lon": -95.8494, "proficiency": 0.18, "district": "UNION", "city": "Tulsa", "ncessch": "403060001525"}, {"name": "UNION CITY ES", "lat": 35.3923, "lon": -97.9422, "proficiency": 0.1, "district": "UNION CITY", "city": "Union City", "ncessch": "403063001706"}, {"name": "VALLIANT MS", "lat": 34.004091, "lon": -95.08637, "proficiency": 0.025, "district": "VALLIANT", "city": "Valliant", "ncessch": "403087001712"}, {"name": "VANOSS ES", "lat": 34.759667, "lon": -96.868257, "proficiency": 0.1, "district": "VANOSS", "city": "Ada", "ncessch": "403096001714"}, {"name": "VARNUM ES", "lat": 35.286423, "lon": -96.689955, "proficiency": 0.1, "district": "VARNUM", "city": "Seminole", "ncessch": "403099001717"}, {"name": "VELMA-ALMA MS", "lat": 34.452866, "lon": -97.670423, "proficiency": 0.3, "district": "VELMA-ALMA", "city": "Velma", "ncessch": "403102001455"}, {"name": "VERDEN ES", "lat": 35.080453, "lon": -98.085185, "proficiency": 0.1, "district": "VERDEN", "city": "Verden", "ncessch": "403108001721"}, {"name": "VERDIGRIS JHS", "lat": 36.224896, "lon": -95.689064, "proficiency": 0.17, "district": "VERDIGRIS", "city": "Claremore", "ncessch": "403111002277"}, {"name": "VIAN MS", "lat": 35.494583, "lon": -94.973506, "proficiency": 0.025, "district": "VIAN", "city": "Vian", "ncessch": "403114001726"}, {"name": "VICI ES", "lat": 36.146532, "lon": -99.301758, "proficiency": 0.1, "district": "VICI", "city": "Vici", "ncessch": "403117001727"}, {"name": "EWING HALSELL MS", "lat": 36.6423, "lon": -95.1579, "proficiency": 0.12, "district": "VINITA", "city": "Vinita", "ncessch": "403129001732"}, {"name": "WAGONER MS", "lat": 35.964, "lon": -95.356, "proficiency": 0.075, "district": "WAGONER", "city": "Wagoner", "ncessch": "403135001536"}, {"name": "WALTERS MS", "lat": 34.354148, "lon": -98.307875, "proficiency": 0.05, "district": "WALTERS", "city": "Walters", "ncessch": "403147029649"}, {"name": "WANETTE ES", "lat": 34.965806, "lon": -97.028385, "proficiency": 0.245, "district": "WANETTE", "city": "Wanette", "ncessch": "403150001744"}, {"name": "WAPANUCKA ES", "lat": 34.3706, "lon": -96.4238, "proficiency": 0.1, "district": "WAPANUCKA", "city": "Wapanucka", "ncessch": "403159001748"}, {"name": "WARNER ES", "lat": 35.496655, "lon": -95.304737, "proficiency": 0.47, "district": "WARNER", "city": "Warner", "ncessch": "403165001750"}, {"name": "WASHINGTON MS", "lat": 35.0554, "lon": -97.4837, "proficiency": 0.32, "district": "WASHINGTON", "city": "Washington", "ncessch": "403171002087"}, {"name": "WATONGA MS", "lat": 35.856358, "lon": -98.41043, "proficiency": 0.22, "district": "WATONGA", "city": "Watonga", "ncessch": "403177001759"}, {"name": "WATTS ES", "lat": 36.110532, "lon": -94.571995, "proficiency": 0.1, "district": "WATTS", "city": "Watts", "ncessch": "403186001761"}, {"name": "WAUKOMIS ES", "lat": 36.276355, "lon": -97.90055, "proficiency": 0.05, "district": "WAUKOMIS", "city": "Waukomis", "ncessch": "403195001763"}, {"name": "WAURIKA MS", "lat": 34.1735, "lon": -97.9935, "proficiency": 0.05, "district": "WAURIKA", "city": "Waurika", "ncessch": "403198002366"}, {"name": "WAYNE MS", "lat": 34.9178, "lon": -97.3189, "proficiency": 0.1, "district": "WAYNE", "city": "Wayne", "ncessch": "403201029699"}, {"name": "WAYNOKA ES", "lat": 36.5912, "lon": -98.8697, "proficiency": 0.3, "district": "WAYNOKA", "city": "Waynoka", "ncessch": "403204001771"}, {"name": "WEATHERFORD MS", "lat": 35.5302, "lon": -98.708, "proficiency": 0.12, "district": "WEATHERFORD", "city": "Weatherford", "ncessch": "403207029848"}, {"name": "WEBBERS FALLS ES", "lat": 35.508559, "lon": -95.130007, "proficiency": 0.05, "district": "WEBBERS FALLS", "city": "Webbers Falls", "ncessch": "403213001779"}, {"name": "WELCH MS", "lat": 36.8704, "lon": -95.0968, "proficiency": 0.1, "district": "WELCH", "city": "Welch", "ncessch": "403219001782"}, {"name": "WELEETKA JHS", "lat": 35.3391, "lon": -96.1348, "proficiency": 0.05, "district": "WELEETKA", "city": "Weleetka", "ncessch": "403222001180"}, {"name": "WELLSTON MS", "lat": 35.689322, "lon": -97.064192, "proficiency": 0.1, "district": "WELLSTON", "city": "Wellston", "ncessch": "403228029696"}, {"name": "WESTERN HEIGHTS MS", "lat": 35.422, "lon": -97.6615, "proficiency": 0.025, "district": "WESTERN HEIGHTS", "city": "Oklahoma City", "ncessch": "403237002244"}, {"name": "WESTVILLE JHS", "lat": 35.989235, "lon": -94.573461, "proficiency": 0.025, "district": "WESTVILLE", "city": "Westville", "ncessch": "403240001795"}, {"name": "WETUMKA ES", "lat": 35.234816, "lon": -96.237033, "proficiency": 0.1, "district": "WETUMKA", "city": "Wetumka", "ncessch": "403243001796"}, {"name": "WEWOKA MS", "lat": 35.150364, "lon": -96.498297, "proficiency": 0.05, "district": "WEWOKA", "city": "Wewoka", "ncessch": "403246002762"}, {"name": "WHITE ROCK PUBLIC SCHOOL", "lat": 35.551366, "lon": -97.036259, "proficiency": 0.245, "district": "WHITE ROCK", "city": "McLoud", "ncessch": "403264001804"}, {"name": "WHITEBEAD PUBLIC SCHOOL", "lat": 34.761427, "lon": -97.300963, "proficiency": 0.495, "district": "WHITEBEAD", "city": "Pauls Valley", "ncessch": "403267001805"}, {"name": "WHITEFIELD PUBLIC SCHOOL", "lat": 35.251412, "lon": -95.239429, "proficiency": 0.245, "district": "WHITEFIELD", "city": "Whitefield", "ncessch": "403270001806"}, {"name": "WHITESBORO ES", "lat": 34.69187, "lon": -94.886613, "proficiency": 0.245, "district": "WHITESBORO", "city": "Whitesboro", "ncessch": "403273001807"}, {"name": "WILBURTON MS", "lat": 34.924644, "lon": -95.322459, "proficiency": 0.15, "district": "WILBURTON", "city": "Wilburton", "ncessch": "403279002675"}, {"name": "WILSON ES", "lat": 35.508106, "lon": -96.035705, "proficiency": 0.245, "district": "WILSON", "city": "Henryetta", "ncessch": "403288001813"}, {"name": "WILSON ES", "lat": 34.166187, "lon": -97.418968, "proficiency": 0.1, "district": "WILSON", "city": "Wilson", "ncessch": "403294001815"}, {"name": "WISTER ES", "lat": 34.9697, "lon": -94.7245, "proficiency": 0.05, "district": "WISTER", "city": "Wister", "ncessch": "403297001817"}, {"name": "WOODALL PUBLIC SCHOOL", "lat": 35.820994, "lon": -95.056335, "proficiency": 0.1, "district": "WOODALL", "city": "Tahlequah", "ncessch": "403309001819"}, {"name": "WOODWARD MS SOUTH CAMPUS", "lat": 36.4309, "lon": -99.3912, "proficiency": 0.12, "district": "WOODWARD", "city": "Woodward", "ncessch": "403318029852"}, {"name": "WRIGHT CITY JHS", "lat": 34.065756, "lon": -95.005098, "proficiency": 0.15, "district": "WRIGHT CITY", "city": "Wright City", "ncessch": "403321029701"}, {"name": "WYANDOTTE MS", "lat": 36.792841, "lon": -94.726719, "proficiency": 0.05, "district": "WYANDOTTE", "city": "Wyandotte", "ncessch": "403324002361"}, {"name": "WYNNEWOOD MS", "lat": 34.642462, "lon": -97.163257, "proficiency": 0.05, "district": "WYNNEWOOD", "city": "Wynnewood", "ncessch": "403330001835"}, {"name": "WYNONA ES", "lat": 36.548304, "lon": -96.327643, "proficiency": 0.245, "district": "WYNONA", "city": "Wynona", "ncessch": "403333001836"}, {"name": "YALE MS", "lat": 36.1165, "lon": -96.6958, "proficiency": 0.1, "district": "YALE", "city": "Yale", "ncessch": "403336001839"}, {"name": "YARBROUGH ES", "lat": 36.873291, "lon": -101.902714, "proficiency": 0.245, "district": "YARBROUGH", "city": "Goodwell", "ncessch": "403339001840"}, {"name": "YUKON MS", "lat": 35.4995, "lon": -97.7591, "proficiency": 0.17, "district": "YUKON", "city": "Yukon", "ncessch": "403348002723"}, {"name": "ZANEIS PUBLIC SCHOOL", "lat": 34.172529, "lon": -97.500061, "proficiency": 0.1, "district": "ZANEIS", "city": "Wilson", "ncessch": "403354001852"}, {"name": "ZION PUBLIC SCHOOL", "lat": 35.78177, "lon": -94.636887, "proficiency": 0.1, "district": "ZION", "city": "Stilwell", "ncessch": "403360001853"}, {"name": "ROCK CREEK ES", "lat": 33.9991, "lon": -96.2289, "proficiency": 0.1, "district": "ROCK CREEK", "city": "Durant", "ncessch": "403360129840"}, {"name": "FORT COBB-BROXTON MS", "lat": 35.098895, "lon": -98.44179, "proficiency": 0.1, "district": "FORT COBB-BROXTON", "city": "Fort Cobb", "ncessch": "403360201597"}, {"name": "BINGER-ONEY ES", "lat": 35.3057, "lon": -98.3439, "proficiency": 0.1, "district": "BINGER-ONEY", "city": "Binger", "ncessch": "403360329845"}], "districts": [{"name": "TIMBERLAKE", "lat": 36.668516, "lon": -98.178684, "proficiency": 0.1, "schoolCount": 1}, {"name": "BURNS FLAT-DILL CITY", "lat": 35.360745, "lon": -99.171248, "proficiency": 0.05, "schoolCount": 1}, {"name": "THOMAS-FAY-CUSTER UNIFIED DIST", "lat": 35.75234, "lon": -98.747365, "proficiency": 0.1, "schoolCount": 1}, {"name": "FRONTIER", "lat": 36.4617, "lon": -97.1587, "proficiency": 0.1, "schoolCount": 1}, {"name": "OKLAHOMA UNION", "lat": 36.921029, "lon": -95.63143, "proficiency": 0.15, "schoolCount": 1}, {"name": "HYDRO-EAKLY", "lat": 35.552202, "lon": -98.571969, "proficiency": 0.245, "schoolCount": 1}, {"name": "KEYS", "lat": 35.7972, "lon": -94.9637, "proficiency": 0.345, "schoolCount": 1}, {"name": "DOVE SCHOOLS OF TULSA", "lat": 36.1298125, "lon": -95.8762585, "proficiency": 0.0875, "schoolCount": 2}, {"name": "CHEROKEE IMMERSION CHARTER SCH", "lat": 35.845735, "lon": -95.004315, "proficiency": 0.245, "schoolCount": 1}, {"name": "KIPP REACH COLL (CHARTER)", "lat": 35.556126, "lon": -97.514978, "proficiency": 0.245, "schoolCount": 1}, {"name": "LIGHTHOUSE ACADEMY (CHARTER)", "lat": 36.2456, "lon": -95.9947, "proficiency": 0.05, "schoolCount": 1}, {"name": "SCHL ARTS/SCI (CHARTER)", "lat": 36.158624, "lon": -96.005551, "proficiency": 0.025, "schoolCount": 1}, {"name": "EPIC VIRTUAL CHARTER", "lat": 35.522075, "lon": -97.545516, "proficiency": 0.07, "schoolCount": 1}, {"name": "OKLAHOMA VIRTUAL CHARTER ACAD", "lat": 35.453977, "lon": -97.371838, "proficiency": 0.075, "schoolCount": 1}, {"name": "KIPP (CHARTER)", "lat": 36.184858, "lon": -95.967851, "proficiency": 0.025, "schoolCount": 1}, {"name": "GRAHAM-DUSTIN", "lat": 35.272522, "lon": -96.037827, "proficiency": 0.245, "schoolCount": 1}, {"name": "ASTEC CHARTERS", "lat": 35.494227, "lon": -97.552317, "proficiency": 0.025, "schoolCount": 1}, {"name": "INSIGHT SCHOOL OF OKLAHOMA", "lat": 35.453977, "lon": -97.371838, "proficiency": 0.05, "schoolCount": 1}, {"name": "OKLAHOMA CONNECTIONS ACADEMY", "lat": 36.72886, "lon": -95.950251, "proficiency": 0.05, "schoolCount": 1}, {"name": "JOHN W REX CHARTER", "lat": 35.466189, "lon": -97.521631, "proficiency": 0.245, "schoolCount": 1}, {"name": "HONOR ACADEMY(CHARTER)", "lat": 36.158457, "lon": -95.908581, "proficiency": 0.12, "schoolCount": 1}, {"name": "COLLEGIATE HALL(CHARTER)", "lat": 36.09766, "lon": -95.978247, "proficiency": 0.05, "schoolCount": 1}, {"name": "SANTA FE SOUTH (CHARTER)", "lat": 35.396079, "lon": -97.487765, "proficiency": 0.025, "schoolCount": 1}, {"name": "OLUSTEE-ELDORADO", "lat": 34.546935, "lon": -99.418401, "proficiency": 0.245, "schoolCount": 1}, {"name": "DOVE SCHOOLS OF OKC", "lat": 35.470654499999995, "lon": -97.55221499999999, "proficiency": 0.17, "schoolCount": 2}, {"name": "EPIC BLENDED LEARNING CHARTER", "lat": 35.7787445, "lon": -96.637045, "proficiency": 0.095, "schoolCount": 2}, {"name": "NORTH ROCK CREEK", "lat": 35.406145, "lon": -96.902764, "proficiency": 0.025, "schoolCount": 1}, {"name": "ACADEMY OF SEMINOLE", "lat": 35.231734, "lon": -96.664774, "proficiency": 0.1, "schoolCount": 1}, {"name": "E-SCHOOL VIRTUAL ACADEMY", "lat": 35.854396, "lon": -97.42582, "proficiency": 0.15, "schoolCount": 1}, {"name": "SOVEREIGN COMMUNITY SCHOOL", "lat": 35.598052, "lon": -97.494366, "proficiency": 0.245, "schoolCount": 1}, {"name": "ACHILLE", "lat": 33.836828, "lon": -96.393209, "proficiency": 0.1, "schoolCount": 1}, {"name": "ADA", "lat": 34.766585, "lon": -96.681779, "proficiency": 0.075, "schoolCount": 1}, {"name": "ADAIR", "lat": 36.435, "lon": -95.2684, "proficiency": 0.075, "schoolCount": 1}, {"name": "AFTON", "lat": 36.688663, "lon": -94.958645, "proficiency": 0.05, "schoolCount": 1}, {"name": "AGRA", "lat": 35.896186, "lon": -96.870027, "proficiency": 0.1, "schoolCount": 1}, {"name": "ALEX", "lat": 34.91539, "lon": -97.776422, "proficiency": 0.3, "schoolCount": 1}, {"name": "ALINE-CLEO", "lat": 36.403514, "lon": -98.44191, "proficiency": 0.245, "schoolCount": 1}, {"name": "ALLEN", "lat": 34.880163, "lon": -96.41343, "proficiency": 0.05, "schoolCount": 1}, {"name": "ALLEN-BOWDEN", "lat": 36.060683, "lon": -96.086768, "proficiency": 0.1, "schoolCount": 1}, {"name": "ALTUS", "lat": 34.6225, "lon": -99.3172, "proficiency": 0.27, "schoolCount": 1}, {"name": "ALVA", "lat": 36.8055, "lon": -98.6708, "proficiency": 0.12, "schoolCount": 1}, {"name": "AMBER-POCASSET", "lat": 35.159539, "lon": -97.875036, "proficiency": 0.345, "schoolCount": 1}, {"name": "ANADARKO", "lat": 35.0613, "lon": -98.255866, "proficiency": 0.075, "schoolCount": 1}, {"name": "ANDERSON", "lat": 36.1735, "lon": -96.1851, "proficiency": 0.1, "schoolCount": 1}, {"name": "ANTLERS", "lat": 34.2345, "lon": -95.6179, "proficiency": 0.27, "schoolCount": 1}, {"name": "ARAPAHO-BUTLER", "lat": 35.580216, "lon": -98.966893, "proficiency": 0.245, "schoolCount": 1}, {"name": "ARDMORE", "lat": 34.205382, "lon": -97.129054, "proficiency": 0.075, "schoolCount": 1}, {"name": "ARKOMA", "lat": 35.355015, "lon": -94.433435, "proficiency": 0.1, "schoolCount": 1}, {"name": "ARNETT", "lat": 36.138443, "lon": -99.77326, "proficiency": 0.245, "schoolCount": 1}, {"name": "ASHER", "lat": 34.9895, "lon": -96.9225, "proficiency": 0.1, "schoolCount": 1}, {"name": "ATOKA", "lat": 34.381184, "lon": -96.144415, "proficiency": 0.15, "schoolCount": 1}, {"name": "BALKO", "lat": 36.617308, "lon": -100.731123, "proficiency": 0.245, "schoolCount": 1}, {"name": "BANNER", "lat": 35.4941, "lon": -97.8493, "proficiency": 0.1, "schoolCount": 1}, {"name": "BARNSDALL", "lat": 36.560104, "lon": -96.166596, "proficiency": 0.05, "schoolCount": 1}, {"name": "BARTLESVILLE", "lat": 36.7464085, "lon": -95.94231450000001, "proficiency": 0.12, "schoolCount": 2}, {"name": "BATTIEST", "lat": 34.394554, "lon": -94.928253, "proficiency": 0.1, "schoolCount": 1}, {"name": "BEARDEN", "lat": 35.348689, "lon": -96.387733, "proficiency": 0.245, "schoolCount": 1}, {"name": "BEAVER", "lat": 36.810082, "lon": -100.524679, "proficiency": 0.1, "schoolCount": 1}, {"name": "BEGGS", "lat": 35.749427, "lon": -96.082806, "proficiency": 0.025, "schoolCount": 1}, {"name": "BELFONTE", "lat": 35.6481365, "lon": -94.560963, "proficiency": 0.245, "schoolCount": 2}, {"name": "BENNINGTON", "lat": 34.007214, "lon": -96.037314, "proficiency": 0.1, "schoolCount": 1}, {"name": "BERRYHILL", "lat": 36.12078, "lon": -96.064148, "proficiency": 0.17, "schoolCount": 1}, {"name": "BETHANY", "lat": 35.516, "lon": -97.6315, "proficiency": 0.47, "schoolCount": 1}, {"name": "BETHEL", "lat": 35.3191, "lon": -97.016946, "proficiency": 0.27, "schoolCount": 1}, {"name": "BIG PASTURE", "lat": 34.178972, "lon": -98.470803, "proficiency": 0.245, "schoolCount": 1}, {"name": "BIXBY", "lat": 35.939863, "lon": -95.870948, "proficiency": 0.34, "schoolCount": 1}, {"name": "BLACKWELL", "lat": 36.794136, "lon": -97.284679, "proficiency": 0.075, "schoolCount": 1}, {"name": "BLAIR", "lat": 34.778112, "lon": -99.334952, "proficiency": 0.245, "schoolCount": 1}, {"name": "BLANCHARD", "lat": 35.14238, "lon": -97.651705, "proficiency": 0.17, "schoolCount": 1}, {"name": "BLUEJACKET", "lat": 36.802307, "lon": -95.071015, "proficiency": 0.245, "schoolCount": 1}, {"name": "BOISE CITY", "lat": 36.72837, "lon": -102.50497, "proficiency": 0.1, "schoolCount": 1}, {"name": "BOKOSHE", "lat": 35.190096, "lon": -94.791911, "proficiency": 0.245, "schoolCount": 1}, {"name": "BOONE-APACHE", "lat": 34.899466, "lon": -98.358776, "proficiency": 0.1, "schoolCount": 1}, {"name": "BOSWELL", "lat": 34.029616, "lon": -95.86762, "proficiency": 0.1, "schoolCount": 1}, {"name": "BOWLEGS", "lat": 35.146601, "lon": -96.667807, "proficiency": 0.1, "schoolCount": 1}, {"name": "BOWRING", "lat": 36.877983, "lon": -96.117321, "proficiency": 0.245, "schoolCount": 1}, {"name": "BRAGGS", "lat": 35.66721, "lon": -95.197775, "proficiency": 0.245, "schoolCount": 1}, {"name": "BRAY-DOYLE", "lat": 34.633376, "lon": -97.81809, "proficiency": 0.245, "schoolCount": 1}, {"name": "BRIDGE CREEK", "lat": 35.235566, "lon": -97.720717, "proficiency": 0.42, "schoolCount": 1}, {"name": "BRIGGS", "lat": 35.923458, "lon": -94.872791, "proficiency": 0.15, "schoolCount": 1}, {"name": "BRISTOW", "lat": 35.841818, "lon": -96.399962, "proficiency": 0.12, "schoolCount": 1}, {"name": "BROKEN ARROW", "lat": 36.0309754, "lon": -95.7811778, "proficiency": 0.106, "schoolCount": 5}, {"name": "BROKEN BOW", "lat": 34.016375, "lon": -94.736357, "proficiency": 0.075, "schoolCount": 1}, {"name": "BRUSHY", "lat": 35.55201, "lon": -94.74408, "proficiency": 0.05, "schoolCount": 1}, {"name": "BUFFALO", "lat": 36.8298, "lon": -99.6275, "proficiency": 0.1, "schoolCount": 1}, {"name": "BUFFALO VALLEY", "lat": 34.7325, "lon": -95.2456, "proficiency": 0.245, "schoolCount": 1}, {"name": "BURLINGTON", "lat": 36.9016, "lon": -98.4227, "proficiency": 0.245, "schoolCount": 1}, {"name": "BUTNER", "lat": 35.338279, "lon": -96.458034, "proficiency": 0.245, "schoolCount": 1}, {"name": "BYNG", "lat": 34.861662, "lon": -96.665524, "proficiency": 0.12, "schoolCount": 1}, {"name": "CACHE", "lat": 34.6226, "lon": -98.6279, "proficiency": 0.17, "schoolCount": 1}, {"name": "CADDO", "lat": 34.121841, "lon": -96.270571, "proficiency": 0.15, "schoolCount": 1}, {"name": "CALERA", "lat": 33.935664, "lon": -96.430236, "proficiency": 0.05, "schoolCount": 1}, {"name": "CALUMET", "lat": 35.6015, "lon": -98.1219, "proficiency": 0.245, "schoolCount": 1}, {"name": "CALVIN", "lat": 34.966173, "lon": -96.246193, "proficiency": 0.245, "schoolCount": 1}, {"name": "CAMERON", "lat": 35.1354, "lon": -94.5394, "proficiency": 0.1, "schoolCount": 1}, {"name": "CANADIAN", "lat": 35.171686, "lon": -95.656779, "proficiency": 0.1, "schoolCount": 1}, {"name": "CANEY", "lat": 34.235552, "lon": -96.211662, "proficiency": 0.1, "schoolCount": 1}, {"name": "CANTON", "lat": 36.048262, "lon": -98.586638, "proficiency": 0.1, "schoolCount": 1}, {"name": "CANUTE", "lat": 35.417241, "lon": -99.28238, "proficiency": 0.3, "schoolCount": 1}, {"name": "CARNEGIE", "lat": 35.098546, "lon": -98.608098, "proficiency": 0.15, "schoolCount": 1}, {"name": "CARNEY", "lat": 35.805, "lon": -97.012764, "proficiency": 0.1, "schoolCount": 1}, {"name": "CASHION", "lat": 35.801108, "lon": -97.676519, "proficiency": 0.15, "schoolCount": 1}, {"name": "OKEMAH", "lat": 35.42724, "lon": -96.302348, "proficiency": 0.05, "schoolCount": 1}, {"name": "CATOOSA", "lat": 36.167486, "lon": -95.754072, "proficiency": 0.17, "schoolCount": 1}, {"name": "CEMENT", "lat": 34.930751, "lon": -98.139625, "proficiency": 0.245, "schoolCount": 1}, {"name": "CENTRAL", "lat": 35.4485, "lon": -94.7071, "proficiency": 0.05, "schoolCount": 1}, {"name": "CHANDLER", "lat": 35.700511, "lon": -96.900173, "proficiency": 0.17, "schoolCount": 1}, {"name": "CHATTANOOGA", "lat": 34.422699, "lon": -98.657939, "proficiency": 0.1, "schoolCount": 1}, {"name": "CHECOTAH", "lat": 35.467862, "lon": -95.524048, "proficiency": 0.075, "schoolCount": 1}, {"name": "CHELSEA", "lat": 36.539843, "lon": -95.439243, "proficiency": 0.15, "schoolCount": 1}, {"name": "CHEROKEE", "lat": 36.753, "lon": -98.3525, "proficiency": 0.1, "schoolCount": 1}, {"name": "CHEYENNE", "lat": 35.60829, "lon": -99.66614, "proficiency": 0.3, "schoolCount": 1}, {"name": "CHICKASHA", "lat": 35.040626, "lon": -97.944886, "proficiency": 0.025, "schoolCount": 1}, {"name": "CHOCTAW-NICOMA PARK", "lat": 35.49101, "lon": -97.2997115, "proficiency": 0.1725, "schoolCount": 2}, {"name": "CHOUTEAU-MAZIE", "lat": 36.14956, "lon": -95.3570845, "proficiency": 0.1975, "schoolCount": 2}, {"name": "CIMARRON", "lat": 36.386901, "lon": -98.08975, "proficiency": 0.245, "schoolCount": 1}, {"name": "CLAREMORE", "lat": 36.328019, "lon": -95.605074, "proficiency": 0.27, "schoolCount": 1}, {"name": "CLAYTON", "lat": 34.589042, "lon": -95.355127, "proficiency": 0.245, "schoolCount": 1}, {"name": "CLEORA", "lat": 36.590663, "lon": -94.966087, "proficiency": 0.245, "schoolCount": 1}, {"name": "CLEVELAND", "lat": 36.3138, "lon": -96.4773, "proficiency": 0.12, "schoolCount": 1}, {"name": "CLINTON", "lat": 35.517027, "lon": -98.972402, "proficiency": 0.27, "schoolCount": 1}, {"name": "COALGATE", "lat": 34.5349, "lon": -96.22, "proficiency": 0.05, "schoolCount": 1}, {"name": "COLBERT", "lat": 33.8591, "lon": -96.5055, "proficiency": 0.05, "schoolCount": 1}, {"name": "COLCORD", "lat": 36.2608, "lon": -94.6945, "proficiency": 0.15, "schoolCount": 1}, {"name": "COLEMAN", "lat": 34.272, "lon": -96.4215, "proficiency": 0.245, "schoolCount": 1}, {"name": "COLLINSVILLE", "lat": 36.3631, "lon": -95.8424, "proficiency": 0.12, "schoolCount": 1}, {"name": "COMANCHE", "lat": 34.3624, "lon": -97.9746, "proficiency": 0.05, "schoolCount": 1}, {"name": "COMMERCE", "lat": 36.932675, "lon": -94.872655, "proficiency": 0.15, "schoolCount": 1}, {"name": "COPAN", "lat": 36.899841, "lon": -95.920524, "proficiency": 0.245, "schoolCount": 1}, {"name": "CORDELL", "lat": 35.2938, "lon": -98.9822, "proficiency": 0.345, "schoolCount": 1}, {"name": "COTTONWOOD", "lat": 34.555725, "lon": -96.199651, "proficiency": 0.245, "schoolCount": 1}, {"name": "COVINGTON-DOUGLAS", "lat": 36.305892, "lon": -97.582267, "proficiency": 0.1, "schoolCount": 1}, {"name": "COWETA", "lat": 35.950939, "lon": -95.642208, "proficiency": 0.17, "schoolCount": 1}, {"name": "COYLE", "lat": 35.950579, "lon": -97.235579, "proficiency": 0.1, "schoolCount": 1}, {"name": "CRESCENT", "lat": 35.953683, "lon": -97.58882, "proficiency": 0.05, "schoolCount": 1}, {"name": "CROOKED OAK", "lat": 35.450269, "lon": -97.479606, "proficiency": 0.075, "schoolCount": 1}, {"name": "CROWDER", "lat": 35.124044, "lon": -95.669663, "proficiency": 0.245, "schoolCount": 1}, {"name": "CRUTCHO", "lat": 35.4939, "lon": -97.4071, "proficiency": 0.1, "schoolCount": 1}, {"name": "CUSHING", "lat": 35.977658, "lon": -96.737626, "proficiency": 0.27, "schoolCount": 1}, {"name": "CYRIL", "lat": 34.899102, "lon": -98.203354, "proficiency": 0.1, "schoolCount": 1}, {"name": "DAHLONEGAH", "lat": 35.748234, "lon": -94.670075, "proficiency": 0.245, "schoolCount": 1}, {"name": "DALE", "lat": 35.387543, "lon": -97.0463, "proficiency": 0.245, "schoolCount": 1}, {"name": "DARLINGTON", "lat": 35.5725, "lon": -97.9577, "proficiency": 0.1, "schoolCount": 1}, {"name": "DAVENPORT", "lat": 35.7085, "lon": -96.7669, "proficiency": 0.1, "schoolCount": 1}, {"name": "DAVIS", "lat": 34.501001, "lon": -97.115904, "proficiency": 0.025, "schoolCount": 1}, {"name": "DEER CREEK", "lat": 35.712182, "lon": -97.560929, "proficiency": 0.31, "schoolCount": 1}, {"name": "DENISON", "lat": 33.896273, "lon": -94.783597, "proficiency": 0.1, "schoolCount": 1}, {"name": "DEPEW", "lat": 35.80021, "lon": -96.507761, "proficiency": 0.1, "schoolCount": 1}, {"name": "DEWAR", "lat": 35.458841, "lon": -95.938041, "proficiency": 0.05, "schoolCount": 1}, {"name": "DEWEY", "lat": 36.803622, "lon": -95.937143, "proficiency": 0.17, "schoolCount": 1}, {"name": "DIBBLE", "lat": 35.032103, "lon": -97.629566, "proficiency": 0.05, "schoolCount": 1}, {"name": "DICKSON", "lat": 34.189898, "lon": -96.983002, "proficiency": 0.025, "schoolCount": 1}, {"name": "DOVER", "lat": 35.982554, "lon": -97.908096, "proficiency": 0.245, "schoolCount": 1}, {"name": "DRUMMOND", "lat": 36.297146, "lon": -98.033511, "proficiency": 0.1, "schoolCount": 1}, {"name": "DRUMRIGHT", "lat": 35.983407, "lon": -96.612527, "proficiency": 0.05, "schoolCount": 1}, {"name": "DUKE", "lat": 34.663398, "lon": -99.565987, "proficiency": 0.245, "schoolCount": 1}, {"name": "DUNCAN", "lat": 34.513284, "lon": -97.985889, "proficiency": 0.22, "schoolCount": 1}, {"name": "DURANT", "lat": 34.00209, "lon": -96.381313, "proficiency": 0.32, "schoolCount": 1}, {"name": "EAGLETOWN", "lat": 34.041945, "lon": -94.574951, "proficiency": 0.1, "schoolCount": 1}, {"name": "EARLSBORO", "lat": 35.268267, "lon": -96.798606, "proficiency": 0.1, "schoolCount": 1}, {"name": "PEAVINE", "lat": 35.887493, "lon": -94.638134, "proficiency": 0.245, "schoolCount": 1}, {"name": "EDMOND", "lat": 35.65279733333333, "lon": -97.49803216666668, "proficiency": 0.2133, "schoolCount": 6}, {"name": "EL RENO", "lat": 35.5282, "lon": -97.9546, "proficiency": 0.025, "schoolCount": 1}, {"name": "ELGIN", "lat": 34.7822, "lon": -98.288, "proficiency": 0.17, "schoolCount": 1}, {"name": "ELK CITY", "lat": 35.414346, "lon": -99.412472, "proficiency": 0.025, "schoolCount": 1}, {"name": "ELMORE CITY-PERNELL", "lat": 34.6237, "lon": -97.394711, "proficiency": 0.05, "schoolCount": 1}, {"name": "EMPIRE", "lat": 34.463432, "lon": -98.054999, "proficiency": 0.15, "schoolCount": 1}, {"name": "ENID", "lat": 36.39895633333333, "lon": -97.88751, "proficiency": 0.09, "schoolCount": 3}, {"name": "ERICK", "lat": 35.213573, "lon": -99.8732, "proficiency": 0.695, "schoolCount": 1}, {"name": "EUFAULA", "lat": 35.288445, "lon": -95.608911, "proficiency": 0.22, "schoolCount": 1}, {"name": "FAIRLAND", "lat": 36.7516, "lon": -94.8523, "proficiency": 0.05, "schoolCount": 1}, {"name": "FAIRVIEW", "lat": 36.271397, "lon": -98.468518, "proficiency": 0.345, "schoolCount": 1}, {"name": "FANSHAWE", "lat": 34.952674, "lon": -94.914053, "proficiency": 0.1, "schoolCount": 1}, {"name": "FARGO", "lat": 36.371343, "lon": -99.625166, "proficiency": 0.1, "schoolCount": 1}, {"name": "FLETCHER", "lat": 34.822354, "lon": -98.239948, "proficiency": 0.05, "schoolCount": 1}, {"name": "FOREST GROVE", "lat": 33.926287, "lon": -94.929228, "proficiency": 0.245, "schoolCount": 1}, {"name": "FORGAN", "lat": 36.9072, "lon": -100.5413, "proficiency": 0.245, "schoolCount": 1}, {"name": "FORT SUPPLY", "lat": 36.571933, "lon": -99.569889, "proficiency": 0.75, "schoolCount": 1}, {"name": "FOX", "lat": 34.36255, "lon": -97.491234, "proficiency": 0.245, "schoolCount": 1}, {"name": "FOYIL", "lat": 36.433735, "lon": -95.524926, "proficiency": 0.05, "schoolCount": 1}, {"name": "FREDERICK", "lat": 34.389219, "lon": -99.013906, "proficiency": 0.17, "schoolCount": 1}, {"name": "FRIEND", "lat": 35.0582, "lon": -97.8806, "proficiency": 0.1, "schoolCount": 1}, {"name": "FRINK-CHAMBERS", "lat": 34.877128, "lon": -95.788507, "proficiency": 0.15, "schoolCount": 1}, {"name": "FORT TOWSON", "lat": 34.021551, "lon": -95.269705, "proficiency": 0.1, "schoolCount": 1}, {"name": "GANS", "lat": 35.390316, "lon": -94.688896, "proficiency": 0.1, "schoolCount": 1}, {"name": "GARBER", "lat": 36.4331, "lon": -97.5823, "proficiency": 0.3, "schoolCount": 1}, {"name": "GEARY", "lat": 35.628148, "lon": -98.318703, "proficiency": 0.1, "schoolCount": 1}, {"name": "GERONIMO", "lat": 34.485829, "lon": -98.397409, "proficiency": 0.1, "schoolCount": 1}, {"name": "GLENCOE", "lat": 36.230542, "lon": -96.925307, "proficiency": 0.15, "schoolCount": 1}, {"name": "GLENPOOL", "lat": 35.954691, "lon": -96.00602, "proficiency": 0.17, "schoolCount": 1}, {"name": "GOODWELL", "lat": 36.596231, "lon": -101.631749, "proficiency": 0.245, "schoolCount": 1}, {"name": "GORE", "lat": 35.541881, "lon": -95.124755, "proficiency": 0.05, "schoolCount": 1}, {"name": "GRACEMONT", "lat": 35.189886, "lon": -98.256067, "proficiency": 0.245, "schoolCount": 1}, {"name": "GRANDFIELD", "lat": 34.2282, "lon": -98.6839, "proficiency": 0.245, "schoolCount": 1}, {"name": "GRAND VIEW", "lat": 35.95228, "lon": -94.994127, "proficiency": 0.05, "schoolCount": 1}, {"name": "GRANDVIEW", "lat": 34.34829, "lon": -98.050709, "proficiency": 0.245, "schoolCount": 1}, {"name": "GRANITE", "lat": 34.963723, "lon": -99.386437, "proficiency": 0.1, "schoolCount": 1}, {"name": "GROVE", "lat": 35.9752, "lon": -95.8357, "proficiency": 0.3825, "schoolCount": 2}, {"name": "GUTHRIE", "lat": 35.877768, "lon": -97.417016, "proficiency": 0.22, "schoolCount": 1}, {"name": "GUYMON", "lat": 36.6855, "lon": -101.4876, "proficiency": 0.075, "schoolCount": 1}, {"name": "HAILEYVILLE", "lat": 34.8522, "lon": -95.5789, "proficiency": 0.245, "schoolCount": 1}, {"name": "HAMMON", "lat": 35.6301, "lon": -99.3821, "proficiency": 0.495, "schoolCount": 1}, {"name": "HARDESTY", "lat": 36.61375, "lon": -101.195, "proficiency": 0.245, "schoolCount": 1}, {"name": "HARMONY", "lat": 34.317306, "lon": -96.074122, "proficiency": 0.245, "schoolCount": 1}, {"name": "HARRAH", "lat": 35.482562, "lon": -97.175813, "proficiency": 0.12, "schoolCount": 1}, {"name": "HARTSHORNE", "lat": 34.842165, "lon": -95.568116, "proficiency": 0.025, "schoolCount": 1}, {"name": "HASKELL", "lat": 35.8258, "lon": -95.6847, "proficiency": 0.05, "schoolCount": 1}, {"name": "HAWORTH", "lat": 33.848336, "lon": -94.653549, "proficiency": 0.05, "schoolCount": 1}, {"name": "HAYWOOD", "lat": 34.8851, "lon": -95.9471, "proficiency": 0.245, "schoolCount": 1}, {"name": "HEALDTON", "lat": 34.2304, "lon": -97.4935, "proficiency": 0.05, "schoolCount": 1}, {"name": "HEAVENER", "lat": 34.885465, "lon": -94.597879, "proficiency": 0.17, "schoolCount": 1}, {"name": "HENNESSEY", "lat": 36.1109, "lon": -97.8908, "proficiency": 0.245, "schoolCount": 1}, {"name": "HENRYETTA", "lat": 35.444803, "lon": -96.005799, "proficiency": 0.075, "schoolCount": 1}, {"name": "HILLDALE", "lat": 35.6974, "lon": -95.3678, "proficiency": 0.17, "schoolCount": 1}, {"name": "HINTON", "lat": 35.4747, "lon": -98.3567, "proficiency": 0.025, "schoolCount": 1}, {"name": "MIDWAY", "lat": 35.55421, "lon": -95.653029, "proficiency": 0.1, "schoolCount": 1}, {"name": "HOBART", "lat": 35.032655, "lon": -99.090415, "proficiency": 0.15, "schoolCount": 1}, {"name": "HODGEN", "lat": 34.841351, "lon": -94.631671, "proficiency": 0.1, "schoolCount": 1}, {"name": "HOLDENVILLE", "lat": 35.078903, "lon": -96.387916, "proficiency": 0.025, "schoolCount": 1}, {"name": "HOLLIS", "lat": 34.685589, "lon": -99.918057, "proficiency": 0.05, "schoolCount": 1}, {"name": "HOLLY CREEK", "lat": 33.983435, "lon": -94.819257, "proficiency": 0.1, "schoolCount": 1}, {"name": "HOMINY", "lat": 36.41374, "lon": -96.390402, "proficiency": 0.05, "schoolCount": 1}, {"name": "HOOKER", "lat": 36.8626, "lon": -101.2168, "proficiency": 0.15, "schoolCount": 1}, {"name": "HOWE", "lat": 34.9544, "lon": -94.6367, "proficiency": 0.05, "schoolCount": 1}, {"name": "HUGO", "lat": 34.012746, "lon": -95.517159, "proficiency": 0.025, "schoolCount": 1}, {"name": "HULBERT", "lat": 35.93131, "lon": -95.145386, "proficiency": 0.05, "schoolCount": 1}, {"name": "IDABEL", "lat": 33.8974, "lon": -94.8236, "proficiency": 0.17, "schoolCount": 1}, {"name": "INDIAHOMA", "lat": 34.619385, "lon": -98.754624, "proficiency": 0.245, "schoolCount": 1}, {"name": "INDIANOLA", "lat": 35.159252, "lon": -95.772588, "proficiency": 0.1, "schoolCount": 1}, {"name": "INOLA", "lat": 36.159839, "lon": -95.504595, "proficiency": 0.075, "schoolCount": 1}, {"name": "JAY", "lat": 36.429203, "lon": -94.785828, "proficiency": 0.17, "schoolCount": 1}, {"name": "JENKS", "lat": 36.018809, "lon": -95.942746, "proficiency": 0.16, "schoolCount": 1}, {"name": "JENNINGS", "lat": 36.181928, "lon": -96.568844, "proficiency": 0.245, "schoolCount": 1}, {"name": "JONES", "lat": 35.5515, "lon": -97.2461, "proficiency": 0.17, "schoolCount": 1}, {"name": "JUSTICE", "lat": 35.1165, "lon": -96.5096, "proficiency": 0.245, "schoolCount": 1}, {"name": "JUSTUS-TIAWAH", "lat": 36.308094, "lon": -95.561618, "proficiency": 0.27, "schoolCount": 1}, {"name": "KANSAS", "lat": 36.2136, "lon": -94.8037, "proficiency": 0.245, "schoolCount": 1}, {"name": "KELLYVILLE", "lat": 35.945548, "lon": -96.207061, "proficiency": 0.15, "schoolCount": 1}, {"name": "KENWOOD", "lat": 36.3133, "lon": -94.9862, "proficiency": 0.245, "schoolCount": 1}, {"name": "KEOTA", "lat": 35.2592, "lon": -94.9206, "proficiency": 0.1, "schoolCount": 1}, {"name": "KETCHUM", "lat": 36.52479, "lon": -95.022836, "proficiency": 0.15, "schoolCount": 1}, {"name": "KEYSTONE", "lat": 36.129194, "lon": -96.256886, "proficiency": 0.3, "schoolCount": 1}, {"name": "KIEFER", "lat": 35.943766, "lon": -96.043633, "proficiency": 0.345, "schoolCount": 1}, {"name": "KINGFISHER", "lat": 35.855378, "lon": -97.940455, "proficiency": 0.37, "schoolCount": 1}, {"name": "KINGSTON", "lat": 34.0016, "lon": -96.7146, "proficiency": 0.025, "schoolCount": 1}, {"name": "KINTA", "lat": 35.117754, "lon": -95.238387, "proficiency": 0.1, "schoolCount": 1}, {"name": "KIOWA", "lat": 34.717781, "lon": -95.894898, "proficiency": 0.1, "schoolCount": 1}, {"name": "KREBS", "lat": 34.9269, "lon": -95.7214, "proficiency": 0.15, "schoolCount": 1}, {"name": "KREMLIN-HILLSDALE", "lat": 36.5445, "lon": -97.8301, "proficiency": 0.1, "schoolCount": 1}, {"name": "DEER CREEK-LAMONT", "lat": 36.8103, "lon": -97.5199, "proficiency": 0.245, "schoolCount": 1}, {"name": "LANE", "lat": 34.3015, "lon": -95.9884, "proficiency": 0.1, "schoolCount": 1}, {"name": "LATTA", "lat": 34.7521, "lon": -96.7056, "proficiency": 0.15, "schoolCount": 1}, {"name": "LAVERNE", "lat": 36.709212, "lon": -99.900652, "proficiency": 0.15, "schoolCount": 1}, {"name": "LAWTON", "lat": 34.6146, "lon": -98.40039999999999, "proficiency": 0.105, "schoolCount": 3}, {"name": "LE FLORE", "lat": 34.8962, "lon": -94.9793, "proficiency": 0.1, "schoolCount": 1}, {"name": "LEACH", "lat": 36.205385, "lon": -94.941391, "proficiency": 0.245, "schoolCount": 1}, {"name": "LEEDEY", "lat": 35.868315, "lon": -99.342002, "proficiency": 0.245, "schoolCount": 1}, {"name": "LEXINGTON", "lat": 35.0186, "lon": -97.329, "proficiency": 0.025, "schoolCount": 1}, {"name": "LIBERTY", "lat": 35.674634999999995, "lon": -95.247793, "proficiency": 0.075, "schoolCount": 2}, {"name": "LINDSAY", "lat": 34.833446, "lon": -97.613575, "proficiency": 0.22, "schoolCount": 1}, {"name": "LITTLE AXE", "lat": 35.232929, "lon": -97.195188, "proficiency": 0.075, "schoolCount": 1}, {"name": "LOCUST GROVE", "lat": 36.2038, "lon": -95.1572, "proficiency": 0.22, "schoolCount": 1}, {"name": "LONE GROVE", "lat": 34.1782, "lon": -97.2467, "proficiency": 0.075, "schoolCount": 1}, {"name": "LONE STAR", "lat": 35.9608, "lon": -96.1168, "proficiency": 0.075, "schoolCount": 1}, {"name": "LONE WOLF", "lat": 34.9879, "lon": -99.2487, "proficiency": 0.245, "schoolCount": 1}, {"name": "LOOKEBA SICKLES", "lat": 35.361, "lon": -98.3685, "proficiency": 0.245, "schoolCount": 1}, {"name": "LOWREY", "lat": 36.089709, "lon": -94.920622, "proficiency": 0.245, "schoolCount": 1}, {"name": "LUKFATA", "lat": 34.0194, "lon": -94.7838, "proficiency": 0.15, "schoolCount": 1}, {"name": "LUTHER", "lat": 35.660812, "lon": -97.192081, "proficiency": 0.12, "schoolCount": 1}, {"name": "MACOMB", "lat": 35.144711, "lon": -97.009408, "proficiency": 0.1, "schoolCount": 1}, {"name": "MADILL", "lat": 34.085994, "lon": -96.778428, "proficiency": 0.075, "schoolCount": 1}, {"name": "MANGUM", "lat": 34.878139, "lon": -99.505712, "proficiency": 0.245, "schoolCount": 1}, {"name": "MANNFORD", "lat": 36.122796, "lon": -96.345781, "proficiency": 0.37, "schoolCount": 1}, {"name": "MANNSVILLE", "lat": 34.1915, "lon": -96.8749, "proficiency": 0.245, "schoolCount": 1}, {"name": "MAPLE", "lat": 35.5287, "lon": -98.1681, "proficiency": 0.695, "schoolCount": 1}, {"name": "MARBLE CITY", "lat": 35.62536, "lon": -94.815255, "proficiency": 0.245, "schoolCount": 1}, {"name": "MARIETTA", "lat": 33.929221, "lon": -97.124561, "proficiency": 0.12, "schoolCount": 1}, {"name": "MARLOW", "lat": 34.6459, "lon": -97.9675, "proficiency": 0.27, "schoolCount": 1}, {"name": "MARYETTA", "lat": 35.841738, "lon": -94.634757, "proficiency": 0.025, "schoolCount": 1}, {"name": "MASON", "lat": 35.567084, "lon": -96.351157, "proficiency": 0.245, "schoolCount": 1}, {"name": "MAUD", "lat": 35.1337, "lon": -96.7805, "proficiency": 0.1, "schoolCount": 1}, {"name": "MAYSVILLE", "lat": 34.813996, "lon": -97.40932, "proficiency": 0.1, "schoolCount": 1}, {"name": "MCCURTAIN", "lat": 35.151723, "lon": -94.973412, "proficiency": 0.245, "schoolCount": 1}, {"name": "MCALESTER", "lat": 34.9161, "lon": -95.759, "proficiency": 0.32, "schoolCount": 1}, {"name": "MCLOUD", "lat": 35.4251, "lon": -97.101065, "proficiency": 0.025, "schoolCount": 1}, {"name": "MEDFORD", "lat": 36.809738, "lon": -97.735305, "proficiency": 0.1, "schoolCount": 1}, {"name": "MEEKER", "lat": 35.5043, "lon": -96.8924, "proficiency": 0.05, "schoolCount": 1}, {"name": "MERRITT", "lat": 35.378949, "lon": -99.471677, "proficiency": 0.345, "schoolCount": 1}, {"name": "MIDDLEBERG", "lat": 35.1066, "lon": -97.7362, "proficiency": 0.3, "schoolCount": 1}, {"name": "MIDWEST CITY-DEL CITY", "lat": 35.44820000000001, "lon": -97.39223333333332, "proficiency": 0.0467, "schoolCount": 3}, {"name": "MILBURN", "lat": 34.2418, "lon": -96.553, "proficiency": 0.245, "schoolCount": 1}, {"name": "MILL CREEK", "lat": 34.398295, "lon": -96.826039, "proficiency": 0.245, "schoolCount": 1}, {"name": "MILLWOOD", "lat": 35.538848, "lon": -97.475868, "proficiency": 0.025, "schoolCount": 1}, {"name": "MINCO", "lat": 35.306147, "lon": -97.951085, "proficiency": 0.245, "schoolCount": 1}, {"name": "MOFFETT", "lat": 35.3898, "lon": -94.4496, "proficiency": 0.1, "schoolCount": 1}, {"name": "MONROE", "lat": 34.9896, "lon": -94.5175, "proficiency": 0.1, "schoolCount": 1}, {"name": "MOORE", "lat": 35.34587466666667, "lon": -97.51572766666668, "proficiency": 0.2058, "schoolCount": 6}, {"name": "MOORELAND", "lat": 36.44291, "lon": -99.206702, "proficiency": 0.15, "schoolCount": 1}, {"name": "MORRIS", "lat": 35.607235, "lon": -95.853767, "proficiency": 0.075, "schoolCount": 1}, {"name": "MORRISON", "lat": 36.29995, "lon": -97.006764, "proficiency": 0.05, "schoolCount": 1}, {"name": "MOSELEY", "lat": 36.1891, "lon": -94.6291, "proficiency": 0.245, "schoolCount": 1}, {"name": "MOSS", "lat": 35.071932, "lon": -96.231318, "proficiency": 0.1, "schoolCount": 1}, {"name": "MOUNDS", "lat": 35.8803, "lon": -96.0551, "proficiency": 0.05, "schoolCount": 1}, {"name": "MOYERS", "lat": 34.326265, "lon": -95.65458, "proficiency": 0.1, "schoolCount": 1}, {"name": "MULDROW", "lat": 35.399548, "lon": -94.606964, "proficiency": 0.12, "schoolCount": 1}, {"name": "MULHALL-ORLANDO", "lat": 36.063512, "lon": -97.404972, "proficiency": 0.75, "schoolCount": 1}, {"name": "MUSKOGEE", "lat": 35.7546805, "lon": -95.4040265, "proficiency": 0.485, "schoolCount": 2}, {"name": "MUSTANG", "lat": 35.416102333333335, "lon": -97.72707666666666, "proficiency": 0.2433, "schoolCount": 3}, {"name": "SHARON-MUTUAL", "lat": 36.2747, "lon": -99.3377, "proficiency": 0.245, "schoolCount": 1}, {"name": "NASHOBA", "lat": 34.482081, "lon": -95.209012, "proficiency": 0.245, "schoolCount": 1}, {"name": "NAVAJO", "lat": 34.740714, "lon": -99.230882, "proficiency": 0.05, "schoolCount": 1}, {"name": "NEW LIMA", "lat": 35.17235, "lon": -96.59226, "proficiency": 0.245, "schoolCount": 1}, {"name": "NEWCASTLE", "lat": 35.248611, "lon": -97.592901, "proficiency": 0.075, "schoolCount": 1}, {"name": "NEWKIRK", "lat": 36.8744, "lon": -97.0632, "proficiency": 0.025, "schoolCount": 1}, {"name": "NINNEKAH", "lat": 34.949155, "lon": -97.922448, "proficiency": 0.05, "schoolCount": 1}, {"name": "NOBLE", "lat": 35.1524, "lon": -97.3873, "proficiency": 0.17, "schoolCount": 1}, {"name": "NORMAN", "lat": 35.218433600000004, "lon": -97.4454366, "proficiency": 0.134, "schoolCount": 5}, {"name": "CHISHOLM", "lat": 36.4641, "lon": -97.9294, "proficiency": 0.62, "schoolCount": 1}, {"name": "NORWOOD", "lat": 35.8714, "lon": -95.1638, "proficiency": 0.1, "schoolCount": 1}, {"name": "NOWATA", "lat": 36.696546, "lon": -95.646481, "proficiency": 0.05, "schoolCount": 1}, {"name": "OAK GROVE", "lat": 35.9707, "lon": -96.6421, "proficiency": 0.245, "schoolCount": 1}, {"name": "OAKDALE", "lat": 35.5812, "lon": -97.422355, "proficiency": 0.545, "schoolCount": 1}, {"name": "OAKS-MISSION", "lat": 36.165398, "lon": -94.853934, "proficiency": 0.245, "schoolCount": 1}, {"name": "OILTON", "lat": 36.0833, "lon": -96.5809, "proficiency": 0.245, "schoolCount": 1}, {"name": "OKARCHE", "lat": 35.726927, "lon": -97.984269, "proficiency": 0.1, "schoolCount": 1}, {"name": "OKAY", "lat": 35.8648, "lon": -95.3062, "proficiency": 0.05, "schoolCount": 1}, {"name": "OKEENE", "lat": 36.1186, "lon": -98.3159, "proficiency": 0.1, "schoolCount": 1}, {"name": "OKLAHOMA CITY", "lat": 35.46676046666666, "lon": -97.52357013333334, "proficiency": 0.087, "schoolCount": 15}, {"name": "OKMULGEE", "lat": 35.630461, "lon": -95.951564, "proficiency": 0.025, "schoolCount": 1}, {"name": "OKTAHA", "lat": 35.577302, "lon": -95.4726, "proficiency": 0.15, "schoolCount": 1}, {"name": "OLIVE", "lat": 36.027734, "lon": -96.480429, "proficiency": 0.245, "schoolCount": 1}, {"name": "LOMEGA", "lat": 35.973504, "lon": -98.116326, "proficiency": 0.245, "schoolCount": 1}, {"name": "OOLOGAH-TALALA", "lat": 36.4578, "lon": -95.70811, "proficiency": 0.12, "schoolCount": 1}, {"name": "OSAGE", "lat": 36.308, "lon": -95.3984, "proficiency": 0.245, "schoolCount": 1}, {"name": "OSAGE HILLS", "lat": 36.732953, "lon": -96.006831, "proficiency": 0.245, "schoolCount": 1}, {"name": "OWASSO", "lat": 36.281354, "lon": -95.823026, "proficiency": 0.13, "schoolCount": 1}, {"name": "PADEN", "lat": 35.503971, "lon": -96.570629, "proficiency": 0.3, "schoolCount": 1}, {"name": "PANAMA", "lat": 35.174178, "lon": -94.670502, "proficiency": 0.05, "schoolCount": 1}, {"name": "PAOLI", "lat": 34.8283, "lon": -97.262, "proficiency": 0.1, "schoolCount": 1}, {"name": "PAULS VALLEY", "lat": 34.7418, "lon": -97.2219, "proficiency": 0.27, "schoolCount": 1}, {"name": "PAWHUSKA", "lat": 36.67392, "lon": -96.331192, "proficiency": 0.05, "schoolCount": 1}, {"name": "PAWNEE", "lat": 36.3329, "lon": -96.8048, "proficiency": 0.05, "schoolCount": 1}, {"name": "PEGGS", "lat": 36.0807, "lon": -95.1042, "proficiency": 0.1, "schoolCount": 1}, {"name": "PERKINS-TRYON", "lat": 35.9745, "lon": -97.0369, "proficiency": 0.075, "schoolCount": 1}, {"name": "PERRY", "lat": 36.294705, "lon": -97.302086, "proficiency": 0.025, "schoolCount": 1}, {"name": "PIEDMONT", "lat": 35.6466, "lon": -97.7482, "proficiency": 0.29, "schoolCount": 1}, {"name": "PIONEER", "lat": 34.9858, "lon": -98.0216, "proficiency": 0.495, "schoolCount": 1}, {"name": "PITTSBURG", "lat": 34.713582, "lon": -95.854129, "proficiency": 0.245, "schoolCount": 1}, {"name": "PLAINVIEW", "lat": 34.1612, "lon": -97.1757, "proficiency": 0.32, "schoolCount": 1}, {"name": "PLEASANT GROVE", "lat": 35.325121, "lon": -96.895226, "proficiency": 0.1, "schoolCount": 1}, {"name": "PIONEER-PLEASANT VALE", "lat": 36.2752, "lon": -97.7836, "proficiency": 0.05, "schoolCount": 1}, {"name": "POCOLA", "lat": 35.2605, "lon": -94.4706, "proficiency": 0.05, "schoolCount": 1}, {"name": "PONCA CITY", "lat": 36.7029, "lon": -97.0767, "proficiency": 0.17, "schoolCount": 1}, {"name": "POND CREEK-HUNTER", "lat": 36.6687, "lon": -97.7971, "proficiency": 0.05, "schoolCount": 1}, {"name": "PORUM", "lat": 35.361597, "lon": -95.26802, "proficiency": 0.1, "schoolCount": 1}, {"name": "POTEAU", "lat": 35.063094, "lon": -94.623629, "proficiency": 0.27, "schoolCount": 1}, {"name": "PRAGUE", "lat": 35.4882, "lon": -96.7022, "proficiency": 0.025, "schoolCount": 1}, {"name": "PRESTON", "lat": 35.709017, "lon": -95.991168, "proficiency": 0.05, "schoolCount": 1}, {"name": "PRETTY WATER", "lat": 36.0474, "lon": -96.1629, "proficiency": 0.245, "schoolCount": 1}, {"name": "PRUE", "lat": 36.2536, "lon": -96.2674, "proficiency": 0.1, "schoolCount": 1}, {"name": "PRYOR", "lat": 36.3051, "lon": -95.312, "proficiency": 0.17, "schoolCount": 1}, {"name": "PURCELL", "lat": 35.037345, "lon": -97.365288, "proficiency": 0.22, "schoolCount": 1}, {"name": "PUTNAM CITY", "lat": 35.51786, "lon": -97.6285, "proficiency": 0.092, "schoolCount": 5}, {"name": "QUAPAW", "lat": 36.9584, "lon": -94.7907, "proficiency": 0.05, "schoolCount": 1}, {"name": "QUINTON", "lat": 35.130702, "lon": -95.368089, "proficiency": 0.1, "schoolCount": 1}, {"name": "CANEY VALLEY", "lat": 36.53291, "lon": -95.925006, "proficiency": 0.075, "schoolCount": 1}, {"name": "RATTAN", "lat": 34.199165, "lon": -95.421334, "proficiency": 0.1, "schoolCount": 1}, {"name": "RAVIA", "lat": 34.244441, "lon": -96.757067, "proficiency": 0.245, "schoolCount": 1}, {"name": "RED OAK", "lat": 34.9559, "lon": -95.0794, "proficiency": 0.1, "schoolCount": 1}, {"name": "REYDON", "lat": 35.6563, "lon": -99.9188, "proficiency": 0.75, "schoolCount": 1}, {"name": "RINGLING", "lat": 34.185787, "lon": -97.594104, "proficiency": 0.1, "schoolCount": 1}, {"name": "RINGWOOD", "lat": 36.38179, "lon": -98.24611, "proficiency": 0.1, "schoolCount": 1}, {"name": "RIPLEY", "lat": 36.0142, "lon": -96.9021, "proficiency": 0.05, "schoolCount": 1}, {"name": "RIVERSIDE", "lat": 35.5364, "lon": -97.901, "proficiency": 0.245, "schoolCount": 1}, {"name": "ROBIN HILL", "lat": 35.2765, "lon": -97.3703, "proficiency": 0.1, "schoolCount": 1}, {"name": "ROCKY MOUNTAIN", "lat": 35.805561, "lon": -94.766678, "proficiency": 0.3, "schoolCount": 1}, {"name": "ROFF", "lat": 34.6289, "lon": -96.8404, "proficiency": 0.245, "schoolCount": 1}, {"name": "ROLAND", "lat": 35.417441, "lon": -94.518788, "proficiency": 0.05, "schoolCount": 1}, {"name": "RUSH SPRINGS", "lat": 34.783, "lon": -97.9623, "proficiency": 0.1, "schoolCount": 1}, {"name": "RYAN", "lat": 34.025247, "lon": -97.9492, "proficiency": 0.1, "schoolCount": 1}, {"name": "SOUTH COFFEYVILLE", "lat": 36.9942, "lon": -95.6129, "proficiency": 0.245, "schoolCount": 1}, {"name": "SALINA", "lat": 36.302751, "lon": -95.149836, "proficiency": 0.245, "schoolCount": 1}, {"name": "SALLISAW", "lat": 35.450272, "lon": -94.816187, "proficiency": 0.12, "schoolCount": 1}, {"name": "SAND SPRINGS", "lat": 36.1127, "lon": -96.1288, "proficiency": 0.07, "schoolCount": 1}, {"name": "SAPULPA", "lat": 35.9973, "lon": -96.0975, "proficiency": 0.12, "schoolCount": 1}, {"name": "SASAKWA", "lat": 34.9504, "lon": -96.5241, "proficiency": 0.245, "schoolCount": 1}, {"name": "SAVANNA", "lat": 34.826512, "lon": -95.842039, "proficiency": 0.3, "schoolCount": 1}, {"name": "SAYRE", "lat": 35.314052, "lon": -99.634017, "proficiency": 0.05, "schoolCount": 1}, {"name": "SCHULTER", "lat": 35.5135, "lon": -95.9597, "proficiency": 0.245, "schoolCount": 1}, {"name": "SEILING", "lat": 36.147, "lon": -98.9203, "proficiency": 0.1, "schoolCount": 1}, {"name": "SEMINOLE", "lat": 35.228809, "lon": -96.67927, "proficiency": 0.12, "schoolCount": 1}, {"name": "SENTINEL", "lat": 35.1558, "lon": -99.1702, "proficiency": 0.1, "schoolCount": 1}, {"name": "SEQUOYAH", "lat": 36.3761, "lon": -95.5565, "proficiency": 0.12, "schoolCount": 1}, {"name": "SHADY GROVE", "lat": 35.9592, "lon": -95.1016, "proficiency": 0.245, "schoolCount": 1}, {"name": "SHADY POINT", "lat": 35.132015, "lon": -94.660242, "proficiency": 0.1, "schoolCount": 1}, {"name": "SHATTUCK", "lat": 36.274545, "lon": -99.871456, "proficiency": 0.15, "schoolCount": 1}, {"name": "SHAWNEE", "lat": 35.3732, "lon": -96.9219, "proficiency": 0.025, "schoolCount": 1}, {"name": "SHIDLER", "lat": 36.7814, "lon": -96.664171, "proficiency": 0.1, "schoolCount": 1}, {"name": "SILO", "lat": 34.038746, "lon": -96.477049, "proficiency": 0.025, "schoolCount": 1}, {"name": "SKIATOOK", "lat": 36.360575, "lon": -96.024453, "proficiency": 0.22, "schoolCount": 1}, {"name": "SMITHVILLE", "lat": 34.4704, "lon": -94.6457, "proficiency": 0.1, "schoolCount": 1}, {"name": "SNYDER", "lat": 34.65607, "lon": -98.954714, "proficiency": 0.1, "schoolCount": 1}, {"name": "SOPER", "lat": 34.037147, "lon": -95.699171, "proficiency": 0.1, "schoolCount": 1}, {"name": "SOUTH ROCK CREEK", "lat": 35.3065, "lon": -96.8608, "proficiency": 0.545, "schoolCount": 1}, {"name": "SPERRY", "lat": 36.297534, "lon": -95.997214, "proficiency": 0.075, "schoolCount": 1}, {"name": "SPIRO", "lat": 35.239853, "lon": -94.631335, "proficiency": 0.17, "schoolCount": 1}, {"name": "SPRINGER", "lat": 34.312097, "lon": -97.142093, "proficiency": 0.245, "schoolCount": 1}, {"name": "STERLING", "lat": 34.745493, "lon": -98.172205, "proficiency": 0.3, "schoolCount": 1}, {"name": "STIDHAM", "lat": 35.375521, "lon": -95.699059, "proficiency": 0.245, "schoolCount": 1}, {"name": "STIGLER", "lat": 35.262499, "lon": -95.133641, "proficiency": 0.12, "schoolCount": 1}, {"name": "STILLWATER", "lat": 36.1405, "lon": -97.0391, "proficiency": 0.29, "schoolCount": 1}, {"name": "STILWELL", "lat": 35.8162, "lon": -94.6346, "proficiency": 0.075, "schoolCount": 1}, {"name": "STONEWALL", "lat": 34.606455, "lon": -96.6168, "proficiency": 0.05, "schoolCount": 1}, {"name": "STRATFORD", "lat": 34.797439, "lon": -96.958428, "proficiency": 0.245, "schoolCount": 1}, {"name": "STRINGTOWN", "lat": 34.465887, "lon": -96.052873, "proficiency": 0.245, "schoolCount": 1}, {"name": "STROTHER", "lat": 35.363365, "lon": -96.585846, "proficiency": 0.1, "schoolCount": 1}, {"name": "STROUD", "lat": 35.753541, "lon": -96.655725, "proficiency": 0.12, "schoolCount": 1}, {"name": "STUART", "lat": 34.897915, "lon": -96.099888, "proficiency": 0.245, "schoolCount": 1}, {"name": "SULPHUR", "lat": 34.508308, "lon": -96.977763, "proficiency": 0.22, "schoolCount": 1}, {"name": "SWEETWATER", "lat": 35.4069, "lon": -99.9122, "proficiency": 0.245, "schoolCount": 1}, {"name": "TAHLEQUAH", "lat": 35.920135, "lon": -94.983641, "proficiency": 0.27, "schoolCount": 1}, {"name": "TALIHINA", "lat": 34.7567, "lon": -95.0426, "proficiency": 0.05, "schoolCount": 1}, {"name": "TALOGA", "lat": 36.038, "lon": -98.9691, "proficiency": 0.245, "schoolCount": 1}, {"name": "TANNEHILL", "lat": 34.9995, "lon": -95.8581, "proficiency": 0.1, "schoolCount": 1}, {"name": "TECUMSEH", "lat": 35.2591, "lon": -96.9401, "proficiency": 0.17, "schoolCount": 1}, {"name": "TEMPLE", "lat": 34.266555, "lon": -98.238062, "proficiency": 0.245, "schoolCount": 1}, {"name": "TENKILLER", "lat": 35.768037, "lon": -94.842033, "proficiency": 0.1, "schoolCount": 1}, {"name": "TEXHOMA", "lat": 36.5072, "lon": -101.787097, "proficiency": 0.3, "schoolCount": 1}, {"name": "THACKERVILLE", "lat": 33.796035, "lon": -97.142776, "proficiency": 0.1, "schoolCount": 1}, {"name": "MOUNTAIN VIEW-GOTEBO", "lat": 35.097067, "lon": -98.74349, "proficiency": 0.245, "schoolCount": 1}, {"name": "TIPTON", "lat": 34.495966, "lon": -99.139733, "proficiency": 0.1, "schoolCount": 1}, {"name": "WOODLAND", "lat": 36.5714, "lon": -96.7089, "proficiency": 0.1, "schoolCount": 1}, {"name": "TISHOMINGO", "lat": 34.232045, "lon": -96.675447, "proficiency": 0.075, "schoolCount": 1}, {"name": "TONKAWA", "lat": 36.6817, "lon": -97.3049, "proficiency": 0.05, "schoolCount": 1}, {"name": "PORTER CONSOLIDATED", "lat": 35.869611, "lon": -95.521378, "proficiency": 0.05, "schoolCount": 1}, {"name": "TULSA", "lat": 36.144135999999996, "lon": -95.93796641666667, "proficiency": 0.0617, "schoolCount": 12}, {"name": "TUPELO", "lat": 34.602769, "lon": -96.425551, "proficiency": 0.1, "schoolCount": 1}, {"name": "TURNER", "lat": 33.93946, "lon": -97.318288, "proficiency": 0.1, "schoolCount": 1}, {"name": "TURPIN", "lat": 36.86479, "lon": -100.880727, "proficiency": 0.15, "schoolCount": 1}, {"name": "TUSHKA", "lat": 34.317562, "lon": -96.173484, "proficiency": 0.05, "schoolCount": 1}, {"name": "TUSKAHOMA", "lat": 34.618718, "lon": -95.276008, "proficiency": 0.245, "schoolCount": 1}, {"name": "TUTTLE", "lat": 35.284861, "lon": -97.811053, "proficiency": 0.12, "schoolCount": 1}, {"name": "TWIN HILLS", "lat": 35.751711, "lon": -95.837931, "proficiency": 0.1, "schoolCount": 1}, {"name": "TYRONE", "lat": 36.958823, "lon": -101.068045, "proficiency": 0.1, "schoolCount": 1}, {"name": "UNION", "lat": 36.0672, "lon": -95.8494, "proficiency": 0.18, "schoolCount": 1}, {"name": "UNION CITY", "lat": 35.3923, "lon": -97.9422, "proficiency": 0.1, "schoolCount": 1}, {"name": "VALLIANT", "lat": 34.004091, "lon": -95.08637, "proficiency": 0.025, "schoolCount": 1}, {"name": "VANOSS", "lat": 34.759667, "lon": -96.868257, "proficiency": 0.1, "schoolCount": 1}, {"name": "VARNUM", "lat": 35.286423, "lon": -96.689955, "proficiency": 0.1, "schoolCount": 1}, {"name": "VELMA-ALMA", "lat": 34.452866, "lon": -97.670423, "proficiency": 0.3, "schoolCount": 1}, {"name": "VERDEN", "lat": 35.080453, "lon": -98.085185, "proficiency": 0.1, "schoolCount": 1}, {"name": "VERDIGRIS", "lat": 36.224896, "lon": -95.689064, "proficiency": 0.17, "schoolCount": 1}, {"name": "VIAN", "lat": 35.494583, "lon": -94.973506, "proficiency": 0.025, "schoolCount": 1}, {"name": "VICI", "lat": 36.146532, "lon": -99.301758, "proficiency": 0.1, "schoolCount": 1}, {"name": "VINITA", "lat": 36.6423, "lon": -95.1579, "proficiency": 0.12, "schoolCount": 1}, {"name": "WAGONER", "lat": 35.964, "lon": -95.356, "proficiency": 0.075, "schoolCount": 1}, {"name": "WALTERS", "lat": 34.354148, "lon": -98.307875, "proficiency": 0.05, "schoolCount": 1}, {"name": "WANETTE", "lat": 34.965806, "lon": -97.028385, "proficiency": 0.245, "schoolCount": 1}, {"name": "WAPANUCKA", "lat": 34.3706, "lon": -96.4238, "proficiency": 0.1, "schoolCount": 1}, {"name": "WARNER", "lat": 35.496655, "lon": -95.304737, "proficiency": 0.47, "schoolCount": 1}, {"name": "WASHINGTON", "lat": 35.0554, "lon": -97.4837, "proficiency": 0.32, "schoolCount": 1}, {"name": "WATONGA", "lat": 35.856358, "lon": -98.41043, "proficiency": 0.22, "schoolCount": 1}, {"name": "WATTS", "lat": 36.110532, "lon": -94.571995, "proficiency": 0.1, "schoolCount": 1}, {"name": "WAUKOMIS", "lat": 36.276355, "lon": -97.90055, "proficiency": 0.05, "schoolCount": 1}, {"name": "WAURIKA", "lat": 34.1735, "lon": -97.9935, "proficiency": 0.05, "schoolCount": 1}, {"name": "WAYNE", "lat": 34.9178, "lon": -97.3189, "proficiency": 0.1, "schoolCount": 1}, {"name": "WAYNOKA", "lat": 36.5912, "lon": -98.8697, "proficiency": 0.3, "schoolCount": 1}, {"name": "WEATHERFORD", "lat": 35.5302, "lon": -98.708, "proficiency": 0.12, "schoolCount": 1}, {"name": "WEBBERS FALLS", "lat": 35.508559, "lon": -95.130007, "proficiency": 0.05, "schoolCount": 1}, {"name": "WELCH", "lat": 36.8704, "lon": -95.0968, "proficiency": 0.1, "schoolCount": 1}, {"name": "WELEETKA", "lat": 35.3391, "lon": -96.1348, "proficiency": 0.05, "schoolCount": 1}, {"name": "WELLSTON", "lat": 35.689322, "lon": -97.064192, "proficiency": 0.1, "schoolCount": 1}, {"name": "WESTERN HEIGHTS", "lat": 35.422, "lon": -97.6615, "proficiency": 0.025, "schoolCount": 1}, {"name": "WESTVILLE", "lat": 35.989235, "lon": -94.573461, "proficiency": 0.025, "schoolCount": 1}, {"name": "WETUMKA", "lat": 35.234816, "lon": -96.237033, "proficiency": 0.1, "schoolCount": 1}, {"name": "WEWOKA", "lat": 35.150364, "lon": -96.498297, "proficiency": 0.05, "schoolCount": 1}, {"name": "WHITE ROCK", "lat": 35.551366, "lon": -97.036259, "proficiency": 0.245, "schoolCount": 1}, {"name": "WHITEBEAD", "lat": 34.761427, "lon": -97.300963, "proficiency": 0.495, "schoolCount": 1}, {"name": "WHITEFIELD", "lat": 35.251412, "lon": -95.239429, "proficiency": 0.245, "schoolCount": 1}, {"name": "WHITESBORO", "lat": 34.69187, "lon": -94.886613, "proficiency": 0.245, "schoolCount": 1}, {"name": "WILBURTON", "lat": 34.924644, "lon": -95.322459, "proficiency": 0.15, "schoolCount": 1}, {"name": "WILSON", "lat": 34.8371465, "lon": -96.7273365, "proficiency": 0.1725, "schoolCount": 2}, {"name": "WISTER", "lat": 34.9697, "lon": -94.7245, "proficiency": 0.05, "schoolCount": 1}, {"name": "WOODALL", "lat": 35.820994, "lon": -95.056335, "proficiency": 0.1, "schoolCount": 1}, {"name": "WOODWARD", "lat": 36.4309, "lon": -99.3912, "proficiency": 0.12, "schoolCount": 1}, {"name": "WRIGHT CITY", "lat": 34.065756, "lon": -95.005098, "proficiency": 0.15, "schoolCount": 1}, {"name": "WYANDOTTE", "lat": 36.792841, "lon": -94.726719, "proficiency": 0.05, "schoolCount": 1}, {"name": "WYNNEWOOD", "lat": 34.642462, "lon": -97.163257, "proficiency": 0.05, "schoolCount": 1}, {"name": "WYNONA", "lat": 36.548304, "lon": -96.327643, "proficiency": 0.245, "schoolCount": 1}, {"name": "YALE", "lat": 36.1165, "lon": -96.6958, "proficiency": 0.1, "schoolCount": 1}, {"name": "YARBROUGH", "lat": 36.873291, "lon": -101.902714, "proficiency": 0.245, "schoolCount": 1}, {"name": "YUKON", "lat": 35.4995, "lon": -97.7591, "proficiency": 0.17, "schoolCount": 1}, {"name": "ZANEIS", "lat": 34.172529, "lon": -97.500061, "proficiency": 0.1, "schoolCount": 1}, {"name": "ZION", "lat": 35.78177, "lon": -94.636887, "proficiency": 0.1, "schoolCount": 1}, {"name": "ROCK CREEK", "lat": 33.9991, "lon": -96.2289, "proficiency": 0.1, "schoolCount": 1}, {"name": "FORT COBB-BROXTON", "lat": 35.098895, "lon": -98.44179, "proficiency": 0.1, "schoolCount": 1}, {"name": "BINGER-ONEY", "lat": 35.3057, "lon": -98.3439, "proficiency": 0.1, "schoolCount": 1}], "cities": [{"name": "Jet", "lat": 36.668516, "lon": -98.178684, "proficiency": 0.1, "schoolCount": 1}, {"name": "Burns Flat", "lat": 35.360745, "lon": -99.171248, "proficiency": 0.05, "schoolCount": 1}, {"name": "Thomas", "lat": 35.75234, "lon": -98.747365, "proficiency": 0.1, "schoolCount": 1}, {"name": "Red Rock", "lat": 36.4617, "lon": -97.1587, "proficiency": 0.1, "schoolCount": 1}, {"name": "South Coffeyville", "lat": 36.9576145, "lon": -95.622165, "proficiency": 0.1975, "schoolCount": 2}, {"name": "Hydro", "lat": 35.552202, "lon": -98.571969, "proficiency": 0.245, "schoolCount": 1}, {"name": "Park Hill", "lat": 35.7972, "lon": -94.9637, "proficiency": 0.345, "schoolCount": 1}, {"name": "Tulsa", "lat": 36.140141772727276, "lon": -95.94833454545454, "proficiency": 0.0743, "schoolCount": 22}, {"name": "Tahlequah", "lat": 35.925385166666665, "lon": -94.97197183333333, "proficiency": 0.1767, "schoolCount": 6}, {"name": "Oklahoma Cit", "lat": 35.556126, "lon": -97.514978, "proficiency": 0.245, "schoolCount": 1}, {"name": "Oklahoma City", "lat": 35.48457297142857, "lon": -97.47788080000001, "proficiency": 0.1106, "schoolCount": 35}, {"name": "Midwest City", "lat": 35.457218000000005, "lon": -97.37912533333333, "proficiency": 0.055, "schoolCount": 3}, {"name": "DUSTIN", "lat": 35.272522, "lon": -96.037827, "proficiency": 0.245, "schoolCount": 1}, {"name": "Bartlesville", "lat": 36.7386575, "lon": -95.96042775000001, "proficiency": 0.1338, "schoolCount": 4}, {"name": "Olustee", "lat": 34.546935, "lon": -99.418401, "proficiency": 0.245, "schoolCount": 1}, {"name": "Shawnee", "lat": 35.348761, "lon": -96.91547266666667, "proficiency": 0.235, "schoolCount": 6}, {"name": "Seminole", "lat": 35.27758275, "lon": -96.65496125, "proficiency": 0.105, "schoolCount": 4}, {"name": "Guthrie", "lat": 35.866082000000006, "lon": -97.421418, "proficiency": 0.185, "schoolCount": 2}, {"name": "Achille", "lat": 33.836828, "lon": -96.393209, "proficiency": 0.1, "schoolCount": 1}, {"name": "Ada", "lat": 34.7850035, "lon": -96.73029, "proficiency": 0.1113, "schoolCount": 4}, {"name": "Adair", "lat": 36.435, "lon": -95.2684, "proficiency": 0.075, "schoolCount": 1}, {"name": "Afton", "lat": 36.639663, "lon": -94.962366, "proficiency": 0.1475, "schoolCount": 2}, {"name": "Agra", "lat": 35.896186, "lon": -96.870027, "proficiency": 0.1, "schoolCount": 1}, {"name": "Alex", "lat": 34.91539, "lon": -97.776422, "proficiency": 0.3, "schoolCount": 1}, {"name": "Cleo Springs", "lat": 36.403514, "lon": -98.44191, "proficiency": 0.245, "schoolCount": 1}, {"name": "Allen", "lat": 34.880163, "lon": -96.41343, "proficiency": 0.05, "schoolCount": 1}, {"name": "Altus", "lat": 34.681607, "lon": -99.274041, "proficiency": 0.16, "schoolCount": 2}, {"name": "Alva", "lat": 36.8055, "lon": -98.6708, "proficiency": 0.12, "schoolCount": 1}, {"name": "Amber", "lat": 35.159539, "lon": -97.875036, "proficiency": 0.345, "schoolCount": 1}, {"name": "Anadarko", "lat": 35.0613, "lon": -98.255866, "proficiency": 0.075, "schoolCount": 1}, {"name": "Sand Springs", "lat": 36.138464666666664, "lon": -96.190262, "proficiency": 0.1567, "schoolCount": 3}, {"name": "Antlers", "lat": 34.2345, "lon": -95.6179, "proficiency": 0.27, "schoolCount": 1}, {"name": "Arapaho", "lat": 35.580216, "lon": -98.966893, "proficiency": 0.245, "schoolCount": 1}, {"name": "Ardmore", "lat": 34.18549333333333, "lon": -97.09591866666666, "proficiency": 0.14, "schoolCount": 3}, {"name": "Arkoma", "lat": 35.355015, "lon": -94.433435, "proficiency": 0.1, "schoolCount": 1}, {"name": "Arnett", "lat": 36.138443, "lon": -99.77326, "proficiency": 0.245, "schoolCount": 1}, {"name": "Asher", "lat": 34.9895, "lon": -96.9225, "proficiency": 0.1, "schoolCount": 1}, {"name": "Atoka", "lat": 34.338684, "lon": -96.13067366666667, "proficiency": 0.1483, "schoolCount": 3}, {"name": "Balko", "lat": 36.617308, "lon": -100.731123, "proficiency": 0.245, "schoolCount": 1}, {"name": "El Reno", "lat": 35.5328, "lon": -97.91565, "proficiency": 0.1175, "schoolCount": 4}, {"name": "Barnsdall", "lat": 36.560104, "lon": -96.166596, "proficiency": 0.05, "schoolCount": 1}, {"name": "Battiest", "lat": 34.394554, "lon": -94.928253, "proficiency": 0.1, "schoolCount": 1}, {"name": "Okemah", "lat": 35.387964499999995, "lon": -96.3450405, "proficiency": 0.1475, "schoolCount": 2}, {"name": "Beaver", "lat": 36.810082, "lon": -100.524679, "proficiency": 0.1, "schoolCount": 1}, {"name": "Beggs", "lat": 35.749427, "lon": -96.082806, "proficiency": 0.025, "schoolCount": 1}, {"name": "Muldrow", "lat": 35.484958500000005, "lon": -94.57603800000001, "proficiency": 0.1825, "schoolCount": 2}, {"name": "Stilwell", "lat": 35.800985714285716, "lon": -94.651135, "proficiency": 0.1764, "schoolCount": 7}, {"name": "Bennington", "lat": 34.007214, "lon": -96.037314, "proficiency": 0.1, "schoolCount": 1}, {"name": "Bethany", "lat": 35.504400000000004, "lon": -97.63550000000001, "proficiency": 0.295, "schoolCount": 2}, {"name": "Randlett", "lat": 34.178972, "lon": -98.470803, "proficiency": 0.245, "schoolCount": 1}, {"name": "Bixby", "lat": 35.939863, "lon": -95.870948, "proficiency": 0.34, "schoolCount": 1}, {"name": "Blackwell", "lat": 36.794136, "lon": -97.284679, "proficiency": 0.075, "schoolCount": 1}, {"name": "Blair", "lat": 34.778112, "lon": -99.334952, "proficiency": 0.245, "schoolCount": 1}, {"name": "Blanchard", "lat": 35.161515333333334, "lon": -97.702874, "proficiency": 0.2967, "schoolCount": 3}, {"name": "Bluejacket", "lat": 36.802307, "lon": -95.071015, "proficiency": 0.245, "schoolCount": 1}, {"name": "Boise City", "lat": 36.72837, "lon": -102.50497, "proficiency": 0.1, "schoolCount": 1}, {"name": "Bokoshe", "lat": 35.190096, "lon": -94.791911, "proficiency": 0.245, "schoolCount": 1}, {"name": "Apache", "lat": 34.899466, "lon": -98.358776, "proficiency": 0.1, "schoolCount": 1}, {"name": "Boswell", "lat": 34.029616, "lon": -95.86762, "proficiency": 0.1, "schoolCount": 1}, {"name": "Bowlegs", "lat": 35.146601, "lon": -96.667807, "proficiency": 0.1, "schoolCount": 1}, {"name": "Pawhuska", "lat": 36.775951500000005, "lon": -96.2242565, "proficiency": 0.1475, "schoolCount": 2}, {"name": "Braggs", "lat": 35.66721, "lon": -95.197775, "proficiency": 0.245, "schoolCount": 1}, {"name": "Marlow", "lat": 34.639638, "lon": -97.892795, "proficiency": 0.2575, "schoolCount": 2}, {"name": "Bristow", "lat": 35.841818, "lon": -96.399962, "proficiency": 0.12, "schoolCount": 1}, {"name": "Broken Arrow", "lat": 36.0309754, "lon": -95.7811778, "proficiency": 0.106, "schoolCount": 5}, {"name": "Broken Bow", "lat": 34.00640333333333, "lon": -94.77980466666666, "proficiency": 0.1083, "schoolCount": 3}, {"name": "Sallisaw", "lat": 35.483594000000004, "lon": -94.755789, "proficiency": 0.0733, "schoolCount": 3}, {"name": "Buffalo", "lat": 36.8298, "lon": -99.6275, "proficiency": 0.1, "schoolCount": 1}, {"name": "Talihina", "lat": 34.744600000000005, "lon": -95.1441, "proficiency": 0.1475, "schoolCount": 2}, {"name": "Burlington", "lat": 36.9016, "lon": -98.4227, "proficiency": 0.245, "schoolCount": 1}, {"name": "Cromwell", "lat": 35.338279, "lon": -96.458034, "proficiency": 0.245, "schoolCount": 1}, {"name": "Cache", "lat": 34.6226, "lon": -98.6279, "proficiency": 0.17, "schoolCount": 1}, {"name": "Caddo", "lat": 34.121841, "lon": -96.270571, "proficiency": 0.15, "schoolCount": 1}, {"name": "Calera", "lat": 33.935664, "lon": -96.430236, "proficiency": 0.05, "schoolCount": 1}, {"name": "Calumet", "lat": 35.5651, "lon": -98.145, "proficiency": 0.47, "schoolCount": 2}, {"name": "Calvin", "lat": 34.966173, "lon": -96.246193, "proficiency": 0.245, "schoolCount": 1}, {"name": "Cameron", "lat": 35.1354, "lon": -94.5394, "proficiency": 0.1, "schoolCount": 1}, {"name": "Canadian", "lat": 35.171686, "lon": -95.656779, "proficiency": 0.1, "schoolCount": 1}, {"name": "Caney", "lat": 34.235552, "lon": -96.211662, "proficiency": 0.1, "schoolCount": 1}, {"name": "Canton", "lat": 36.048262, "lon": -98.586638, "proficiency": 0.1, "schoolCount": 1}, {"name": "Canute", "lat": 35.417241, "lon": -99.28238, "proficiency": 0.3, "schoolCount": 1}, {"name": "Carnegie", "lat": 35.098546, "lon": -98.608098, "proficiency": 0.15, "schoolCount": 1}, {"name": "Carney", "lat": 35.805, "lon": -97.012764, "proficiency": 0.1, "schoolCount": 1}, {"name": "Cashion", "lat": 35.801108, "lon": -97.676519, "proficiency": 0.15, "schoolCount": 1}, {"name": "Catoosa", "lat": 36.167486, "lon": -95.754072, "proficiency": 0.17, "schoolCount": 1}, {"name": "Cement", "lat": 34.930751, "lon": -98.139625, "proficiency": 0.245, "schoolCount": 1}, {"name": "Chandler", "lat": 35.700511, "lon": -96.900173, "proficiency": 0.17, "schoolCount": 1}, {"name": "Chattanooga", "lat": 34.422699, "lon": -98.657939, "proficiency": 0.1, "schoolCount": 1}, {"name": "Checotah", "lat": 35.467862, "lon": -95.524048, "proficiency": 0.075, "schoolCount": 1}, {"name": "Chelsea", "lat": 36.539843, "lon": -95.439243, "proficiency": 0.15, "schoolCount": 1}, {"name": "CHEROKEE", "lat": 36.753, "lon": -98.3525, "proficiency": 0.1, "schoolCount": 1}, {"name": "Cheyenne", "lat": 35.60829, "lon": -99.66614, "proficiency": 0.3, "schoolCount": 1}, {"name": "Chickasha", "lat": 35.028208666666664, "lon": -97.94902866666666, "proficiency": 0.2067, "schoolCount": 3}, {"name": "Choctaw", "lat": 35.49101, "lon": -97.2997115, "proficiency": 0.1725, "schoolCount": 2}, {"name": "Chouteau", "lat": 36.14956, "lon": -95.3570845, "proficiency": 0.1975, "schoolCount": 2}, {"name": "Lahoma", "lat": 36.386901, "lon": -98.08975, "proficiency": 0.245, "schoolCount": 1}, {"name": "Claremore", "lat": 36.30927725, "lon": -95.603064, "proficiency": 0.2075, "schoolCount": 4}, {"name": "Clayton", "lat": 34.589042, "lon": -95.355127, "proficiency": 0.245, "schoolCount": 1}, {"name": "Cleveland", "lat": 36.3138, "lon": -96.4773, "proficiency": 0.12, "schoolCount": 1}, {"name": "Clinton", "lat": 35.517027, "lon": -98.972402, "proficiency": 0.27, "schoolCount": 1}, {"name": "Coalgate", "lat": 34.5453125, "lon": -96.2098255, "proficiency": 0.1475, "schoolCount": 2}, {"name": "Colbert", "lat": 33.8591, "lon": -96.5055, "proficiency": 0.05, "schoolCount": 1}, {"name": "Colcord", "lat": 36.22495000000001, "lon": -94.6618, "proficiency": 0.1975, "schoolCount": 2}, {"name": "Coleman", "lat": 34.272, "lon": -96.4215, "proficiency": 0.245, "schoolCount": 1}, {"name": "Collinsville", "lat": 36.3631, "lon": -95.8424, "proficiency": 0.12, "schoolCount": 1}, {"name": "Comanche", "lat": 34.355345, "lon": -98.0126545, "proficiency": 0.1475, "schoolCount": 2}, {"name": "COMMERCE", "lat": 36.932675, "lon": -94.872655, "proficiency": 0.15, "schoolCount": 1}, {"name": "Copan", "lat": 36.899841, "lon": -95.920524, "proficiency": 0.245, "schoolCount": 1}, {"name": "Cordell", "lat": 35.2938, "lon": -98.9822, "proficiency": 0.345, "schoolCount": 1}, {"name": "Covington", "lat": 36.305892, "lon": -97.582267, "proficiency": 0.1, "schoolCount": 1}, {"name": "Coweta", "lat": 35.950939, "lon": -95.642208, "proficiency": 0.17, "schoolCount": 1}, {"name": "Coyle", "lat": 35.950579, "lon": -97.235579, "proficiency": 0.1, "schoolCount": 1}, {"name": "Crescent", "lat": 35.953683, "lon": -97.58882, "proficiency": 0.05, "schoolCount": 1}, {"name": "CROWDER", "lat": 35.124044, "lon": -95.669663, "proficiency": 0.245, "schoolCount": 1}, {"name": "Cushing", "lat": 35.974179, "lon": -96.689863, "proficiency": 0.2575, "schoolCount": 2}, {"name": "Cyril", "lat": 34.899102, "lon": -98.203354, "proficiency": 0.1, "schoolCount": 1}, {"name": "Dale", "lat": 35.387543, "lon": -97.0463, "proficiency": 0.245, "schoolCount": 1}, {"name": "Davenport", "lat": 35.7085, "lon": -96.7669, "proficiency": 0.1, "schoolCount": 1}, {"name": "Davis", "lat": 34.501001, "lon": -97.115904, "proficiency": 0.025, "schoolCount": 1}, {"name": "Edmond", "lat": 35.65127075, "lon": -97.496434625, "proficiency": 0.2669, "schoolCount": 8}, {"name": "Idabel", "lat": 33.8968365, "lon": -94.80359849999999, "proficiency": 0.135, "schoolCount": 2}, {"name": "Depew", "lat": 35.80021, "lon": -96.507761, "proficiency": 0.1, "schoolCount": 1}, {"name": "Dewar", "lat": 35.458841, "lon": -95.938041, "proficiency": 0.05, "schoolCount": 1}, {"name": "Dewey", "lat": 36.803622, "lon": -95.937143, "proficiency": 0.17, "schoolCount": 1}, {"name": "Dibble", "lat": 35.032103, "lon": -97.629566, "proficiency": 0.05, "schoolCount": 1}, {"name": "Dover", "lat": 35.982554, "lon": -97.908096, "proficiency": 0.245, "schoolCount": 1}, {"name": "Drummond", "lat": 36.297146, "lon": -98.033511, "proficiency": 0.1, "schoolCount": 1}, {"name": "Drumright", "lat": 36.005570500000005, "lon": -96.54647800000001, "proficiency": 0.1475, "schoolCount": 2}, {"name": "Duke", "lat": 34.663398, "lon": -99.565987, "proficiency": 0.245, "schoolCount": 1}, {"name": "Duncan", "lat": 34.488358, "lon": -98.020444, "proficiency": 0.185, "schoolCount": 2}, {"name": "Durant", "lat": 34.013312000000006, "lon": -96.36242066666667, "proficiency": 0.1483, "schoolCount": 3}, {"name": "Eagletown", "lat": 34.041945, "lon": -94.574951, "proficiency": 0.1, "schoolCount": 1}, {"name": "Earlsboro", "lat": 35.268267, "lon": -96.798606, "proficiency": 0.1, "schoolCount": 1}, {"name": "Elgin", "lat": 34.7822, "lon": -98.288, "proficiency": 0.17, "schoolCount": 1}, {"name": "Elk City", "lat": 35.3966475, "lon": -99.44207449999999, "proficiency": 0.185, "schoolCount": 2}, {"name": "Elmore City", "lat": 34.6237, "lon": -97.394711, "proficiency": 0.05, "schoolCount": 1}, {"name": "Enid", "lat": 36.41524225, "lon": -97.8979825, "proficiency": 0.2225, "schoolCount": 4}, {"name": "Erick", "lat": 35.213573, "lon": -99.8732, "proficiency": 0.695, "schoolCount": 1}, {"name": "Eufaula", "lat": 35.331983, "lon": -95.653985, "proficiency": 0.2325, "schoolCount": 2}, {"name": "Fairland", "lat": 36.7516, "lon": -94.8523, "proficiency": 0.05, "schoolCount": 1}, {"name": "Fairview", "lat": 36.271397, "lon": -98.468518, "proficiency": 0.345, "schoolCount": 1}, {"name": "Fanshawe", "lat": 34.952674, "lon": -94.914053, "proficiency": 0.1, "schoolCount": 1}, {"name": "Fargo", "lat": 36.371343, "lon": -99.625166, "proficiency": 0.1, "schoolCount": 1}, {"name": "Fletcher", "lat": 34.822354, "lon": -98.239948, "proficiency": 0.05, "schoolCount": 1}, {"name": "Garvin", "lat": 33.926287, "lon": -94.929228, "proficiency": 0.245, "schoolCount": 1}, {"name": "Forgan", "lat": 36.9072, "lon": -100.5413, "proficiency": 0.245, "schoolCount": 1}, {"name": "Fort Supply", "lat": 36.571933, "lon": -99.569889, "proficiency": 0.75, "schoolCount": 1}, {"name": "Fox", "lat": 34.36255, "lon": -97.491234, "proficiency": 0.245, "schoolCount": 1}, {"name": "Foyil", "lat": 36.433735, "lon": -95.524926, "proficiency": 0.05, "schoolCount": 1}, {"name": "Frederick", "lat": 34.389219, "lon": -99.013906, "proficiency": 0.17, "schoolCount": 1}, {"name": "McAlester", "lat": 34.919457, "lon": -95.83817675, "proficiency": 0.2037, "schoolCount": 4}, {"name": "Fort Towson", "lat": 34.021551, "lon": -95.269705, "proficiency": 0.1, "schoolCount": 1}, {"name": "Gans", "lat": 35.390316, "lon": -94.688896, "proficiency": 0.1, "schoolCount": 1}, {"name": "Garber", "lat": 36.4331, "lon": -97.5823, "proficiency": 0.3, "schoolCount": 1}, {"name": "GEARY", "lat": 35.628148, "lon": -98.318703, "proficiency": 0.1, "schoolCount": 1}, {"name": "Geronimo", "lat": 34.485829, "lon": -98.397409, "proficiency": 0.1, "schoolCount": 1}, {"name": "Glencoe", "lat": 36.230542, "lon": -96.925307, "proficiency": 0.15, "schoolCount": 1}, {"name": "Glenpool", "lat": 35.954691, "lon": -96.00602, "proficiency": 0.17, "schoolCount": 1}, {"name": "Goodwell", "lat": 36.734761000000006, "lon": -101.76723150000001, "proficiency": 0.245, "schoolCount": 2}, {"name": "Gore", "lat": 35.541881, "lon": -95.124755, "proficiency": 0.05, "schoolCount": 1}, {"name": "Gracemont", "lat": 35.189886, "lon": -98.256067, "proficiency": 0.245, "schoolCount": 1}, {"name": "Grandfield", "lat": 34.2282, "lon": -98.6839, "proficiency": 0.245, "schoolCount": 1}, {"name": "Granite", "lat": 34.963723, "lon": -99.386437, "proficiency": 0.1, "schoolCount": 1}, {"name": "Grove", "lat": 36.5879, "lon": -94.7762, "proficiency": 0.32, "schoolCount": 1}, {"name": "Guymon", "lat": 36.6855, "lon": -101.4876, "proficiency": 0.075, "schoolCount": 1}, {"name": "Haileyville", "lat": 34.8522, "lon": -95.5789, "proficiency": 0.245, "schoolCount": 1}, {"name": "Hammon", "lat": 35.6301, "lon": -99.3821, "proficiency": 0.495, "schoolCount": 1}, {"name": "Hardesty", "lat": 36.61375, "lon": -101.195, "proficiency": 0.245, "schoolCount": 1}, {"name": "Harrah", "lat": 35.482562, "lon": -97.175813, "proficiency": 0.12, "schoolCount": 1}, {"name": "Hartshorne", "lat": 34.842165, "lon": -95.568116, "proficiency": 0.025, "schoolCount": 1}, {"name": "Haskell", "lat": 35.8258, "lon": -95.6847, "proficiency": 0.05, "schoolCount": 1}, {"name": "Haworth", "lat": 33.848336, "lon": -94.653549, "proficiency": 0.05, "schoolCount": 1}, {"name": "Healdton", "lat": 34.2304, "lon": -97.4935, "proficiency": 0.05, "schoolCount": 1}, {"name": "Heavener", "lat": 34.885465, "lon": -94.597879, "proficiency": 0.17, "schoolCount": 1}, {"name": "Hennessey", "lat": 36.1109, "lon": -97.8908, "proficiency": 0.245, "schoolCount": 1}, {"name": "Henryetta", "lat": 35.4764545, "lon": -96.02075199999999, "proficiency": 0.16, "schoolCount": 2}, {"name": "Muskogee", "lat": 35.735587, "lon": -95.391951, "proficiency": 0.38, "schoolCount": 3}, {"name": "Hinton", "lat": 35.4747, "lon": -98.3567, "proficiency": 0.025, "schoolCount": 1}, {"name": "COUNCIL HILL", "lat": 35.55421, "lon": -95.653029, "proficiency": 0.1, "schoolCount": 1}, {"name": "Hobart", "lat": 35.032655, "lon": -99.090415, "proficiency": 0.15, "schoolCount": 1}, {"name": "Hodgen", "lat": 34.841351, "lon": -94.631671, "proficiency": 0.1, "schoolCount": 1}, {"name": "Holdenville", "lat": 35.0754175, "lon": -96.309617, "proficiency": 0.0625, "schoolCount": 2}, {"name": "Hollis", "lat": 34.685589, "lon": -99.918057, "proficiency": 0.05, "schoolCount": 1}, {"name": "Hominy", "lat": 36.41374, "lon": -96.390402, "proficiency": 0.05, "schoolCount": 1}, {"name": "Hooker", "lat": 36.8626, "lon": -101.2168, "proficiency": 0.15, "schoolCount": 1}, {"name": "Howe", "lat": 34.9544, "lon": -94.6367, "proficiency": 0.05, "schoolCount": 1}, {"name": "Hugo", "lat": 34.012746, "lon": -95.517159, "proficiency": 0.025, "schoolCount": 1}, {"name": "Hulbert", "lat": 35.92063666666667, "lon": -95.13692866666668, "proficiency": 0.1317, "schoolCount": 3}, {"name": "Indiahoma", "lat": 34.619385, "lon": -98.754624, "proficiency": 0.245, "schoolCount": 1}, {"name": "Indianola", "lat": 35.159252, "lon": -95.772588, "proficiency": 0.1, "schoolCount": 1}, {"name": "Inola", "lat": 36.159839, "lon": -95.504595, "proficiency": 0.075, "schoolCount": 1}, {"name": "Jay", "lat": 36.429203, "lon": -94.785828, "proficiency": 0.17, "schoolCount": 1}, {"name": "Jenks", "lat": 36.018809, "lon": -95.942746, "proficiency": 0.16, "schoolCount": 1}, {"name": "Jennings", "lat": 36.181928, "lon": -96.568844, "proficiency": 0.245, "schoolCount": 1}, {"name": "Jones", "lat": 35.5515, "lon": -97.2461, "proficiency": 0.17, "schoolCount": 1}, {"name": "Wewoka", "lat": 35.14640466666667, "lon": -96.53338566666666, "proficiency": 0.18, "schoolCount": 3}, {"name": "Kansas", "lat": 36.2136, "lon": -94.8037, "proficiency": 0.245, "schoolCount": 1}, {"name": "Kellyville", "lat": 35.945548, "lon": -96.207061, "proficiency": 0.15, "schoolCount": 1}, {"name": "Salina", "lat": 36.3080255, "lon": -95.068018, "proficiency": 0.245, "schoolCount": 2}, {"name": "Keota", "lat": 35.2592, "lon": -94.9206, "proficiency": 0.1, "schoolCount": 1}, {"name": "Ketchum", "lat": 36.52479, "lon": -95.022836, "proficiency": 0.15, "schoolCount": 1}, {"name": "Kiefer", "lat": 35.943766, "lon": -96.043633, "proficiency": 0.345, "schoolCount": 1}, {"name": "Kingfisher", "lat": 35.855378, "lon": -97.940455, "proficiency": 0.37, "schoolCount": 1}, {"name": "Kingston", "lat": 34.0016, "lon": -96.7146, "proficiency": 0.025, "schoolCount": 1}, {"name": "Kinta", "lat": 35.117754, "lon": -95.238387, "proficiency": 0.1, "schoolCount": 1}, {"name": "Kiowa", "lat": 34.717781, "lon": -95.894898, "proficiency": 0.1, "schoolCount": 1}, {"name": "Krebs", "lat": 34.9269, "lon": -95.7214, "proficiency": 0.15, "schoolCount": 1}, {"name": "Kremlin", "lat": 36.5445, "lon": -97.8301, "proficiency": 0.1, "schoolCount": 1}, {"name": "Deer Creek", "lat": 36.8103, "lon": -97.5199, "proficiency": 0.245, "schoolCount": 1}, {"name": "Lane", "lat": 34.3015, "lon": -95.9884, "proficiency": 0.1, "schoolCount": 1}, {"name": "Laverne", "lat": 36.709212, "lon": -99.900652, "proficiency": 0.15, "schoolCount": 1}, {"name": "Lawton", "lat": 34.6146, "lon": -98.40039999999999, "proficiency": 0.105, "schoolCount": 3}, {"name": "Leflore", "lat": 34.8962, "lon": -94.9793, "proficiency": 0.1, "schoolCount": 1}, {"name": "Rose", "lat": 36.205385, "lon": -94.941391, "proficiency": 0.245, "schoolCount": 1}, {"name": "Leedey", "lat": 35.868315, "lon": -99.342002, "proficiency": 0.245, "schoolCount": 1}, {"name": "Lexington", "lat": 35.0186, "lon": -97.329, "proficiency": 0.025, "schoolCount": 1}, {"name": "Roland", "lat": 35.4471865, "lon": -94.529787, "proficiency": 0.075, "schoolCount": 2}, {"name": "Mounds", "lat": 35.876318999999995, "lon": -96.00495000000001, "proficiency": 0.05, "schoolCount": 2}, {"name": "Lindsay", "lat": 34.833446, "lon": -97.613575, "proficiency": 0.22, "schoolCount": 1}, {"name": "Norman", "lat": 35.228799571428574, "lon": -97.398953, "proficiency": 0.1207, "schoolCount": 7}, {"name": "Locust Grove", "lat": 36.2038, "lon": -95.1572, "proficiency": 0.22, "schoolCount": 1}, {"name": "Lone Grove", "lat": 34.1782, "lon": -97.2467, "proficiency": 0.075, "schoolCount": 1}, {"name": "Sapulpa", "lat": 36.00183333333334, "lon": -96.12573333333334, "proficiency": 0.1467, "schoolCount": 3}, {"name": "Lone Wolf", "lat": 34.9879, "lon": -99.2487, "proficiency": 0.245, "schoolCount": 1}, {"name": "Lookeba", "lat": 35.361, "lon": -98.3685, "proficiency": 0.245, "schoolCount": 1}, {"name": "Luther", "lat": 35.660812, "lon": -97.192081, "proficiency": 0.12, "schoolCount": 1}, {"name": "Macomb", "lat": 35.144711, "lon": -97.009408, "proficiency": 0.1, "schoolCount": 1}, {"name": "Madill", "lat": 34.085994, "lon": -96.778428, "proficiency": 0.075, "schoolCount": 1}, {"name": "Mangum", "lat": 34.878139, "lon": -99.505712, "proficiency": 0.245, "schoolCount": 1}, {"name": "MANNFORD", "lat": 36.122796, "lon": -96.345781, "proficiency": 0.37, "schoolCount": 1}, {"name": "Mannsville", "lat": 34.1915, "lon": -96.8749, "proficiency": 0.245, "schoolCount": 1}, {"name": "Marble City", "lat": 35.62536, "lon": -94.815255, "proficiency": 0.245, "schoolCount": 1}, {"name": "Marietta", "lat": 33.929221, "lon": -97.124561, "proficiency": 0.12, "schoolCount": 1}, {"name": "Mason", "lat": 35.567084, "lon": -96.351157, "proficiency": 0.245, "schoolCount": 1}, {"name": "Maud", "lat": 35.1337, "lon": -96.7805, "proficiency": 0.1, "schoolCount": 1}, {"name": "Maysville", "lat": 34.813996, "lon": -97.40932, "proficiency": 0.1, "schoolCount": 1}, {"name": "McCurtain", "lat": 35.151723, "lon": -94.973412, "proficiency": 0.245, "schoolCount": 1}, {"name": "McLoud", "lat": 35.488233, "lon": -97.068662, "proficiency": 0.135, "schoolCount": 2}, {"name": "Medford", "lat": 36.809738, "lon": -97.735305, "proficiency": 0.1, "schoolCount": 1}, {"name": "Meeker", "lat": 35.5043, "lon": -96.8924, "proficiency": 0.05, "schoolCount": 1}, {"name": "Del City", "lat": 35.4412, "lon": -97.4283, "proficiency": 0.025, "schoolCount": 1}, {"name": "Milburn", "lat": 34.2418, "lon": -96.553, "proficiency": 0.245, "schoolCount": 1}, {"name": "Mill Creek", "lat": 34.398295, "lon": -96.826039, "proficiency": 0.245, "schoolCount": 1}, {"name": "Minco", "lat": 35.306147, "lon": -97.951085, "proficiency": 0.245, "schoolCount": 1}, {"name": "Moffett", "lat": 35.3898, "lon": -94.4496, "proficiency": 0.1, "schoolCount": 1}, {"name": "Monroe", "lat": 34.9896, "lon": -94.5175, "proficiency": 0.1, "schoolCount": 1}, {"name": "Moore", "lat": 35.34037933333334, "lon": -97.48992633333334, "proficiency": 0.125, "schoolCount": 3}, {"name": "Mooreland", "lat": 36.44291, "lon": -99.206702, "proficiency": 0.15, "schoolCount": 1}, {"name": "Morris", "lat": 35.607235, "lon": -95.853767, "proficiency": 0.075, "schoolCount": 1}, {"name": "Morrison", "lat": 36.29995, "lon": -97.006764, "proficiency": 0.05, "schoolCount": 1}, {"name": "Moyers", "lat": 34.326265, "lon": -95.65458, "proficiency": 0.1, "schoolCount": 1}, {"name": "Mulhall", "lat": 36.063512, "lon": -97.404972, "proficiency": 0.75, "schoolCount": 1}, {"name": "Yukon", "lat": 35.43695175, "lon": -97.7350825, "proficiency": 0.225, "schoolCount": 4}, {"name": "Sharon", "lat": 36.2747, "lon": -99.3377, "proficiency": 0.245, "schoolCount": 1}, {"name": "Nashoba", "lat": 34.482081, "lon": -95.209012, "proficiency": 0.245, "schoolCount": 1}, {"name": "Newcastle", "lat": 35.248611, "lon": -97.592901, "proficiency": 0.075, "schoolCount": 1}, {"name": "Newkirk", "lat": 36.8744, "lon": -97.0632, "proficiency": 0.025, "schoolCount": 1}, {"name": "Ninnekah", "lat": 34.949155, "lon": -97.922448, "proficiency": 0.05, "schoolCount": 1}, {"name": "Noble", "lat": 35.1524, "lon": -97.3873, "proficiency": 0.17, "schoolCount": 1}, {"name": "Nowata", "lat": 36.696546, "lon": -95.646481, "proficiency": 0.05, "schoolCount": 1}, {"name": "Oaks", "lat": 36.165398, "lon": -94.853934, "proficiency": 0.245, "schoolCount": 1}, {"name": "Oilton", "lat": 36.0833, "lon": -96.5809, "proficiency": 0.245, "schoolCount": 1}, {"name": "Okarche", "lat": 35.726927, "lon": -97.984269, "proficiency": 0.1, "schoolCount": 1}, {"name": "Okay", "lat": 35.8648, "lon": -95.3062, "proficiency": 0.05, "schoolCount": 1}, {"name": "Okeene", "lat": 36.1186, "lon": -98.3159, "proficiency": 0.1, "schoolCount": 1}, {"name": "Okmulgee", "lat": 35.691086, "lon": -95.8947475, "proficiency": 0.0625, "schoolCount": 2}, {"name": "Oktaha", "lat": 35.577302, "lon": -95.4726, "proficiency": 0.15, "schoolCount": 1}, {"name": "Loyal", "lat": 35.973504, "lon": -98.116326, "proficiency": 0.245, "schoolCount": 1}, {"name": "Oologah", "lat": 36.4578, "lon": -95.70811, "proficiency": 0.12, "schoolCount": 1}, {"name": "Pryor", "lat": 36.30655, "lon": -95.3552, "proficiency": 0.2075, "schoolCount": 2}, {"name": "Owasso", "lat": 36.281354, "lon": -95.823026, "proficiency": 0.13, "schoolCount": 1}, {"name": "Paden", "lat": 35.503971, "lon": -96.570629, "proficiency": 0.3, "schoolCount": 1}, {"name": "Panama", "lat": 35.174178, "lon": -94.670502, "proficiency": 0.05, "schoolCount": 1}, {"name": "Paoli", "lat": 34.8283, "lon": -97.262, "proficiency": 0.1, "schoolCount": 1}, {"name": "Pauls Valley", "lat": 34.7516135, "lon": -97.2614315, "proficiency": 0.3825, "schoolCount": 2}, {"name": "Pawnee", "lat": 36.3329, "lon": -96.8048, "proficiency": 0.05, "schoolCount": 1}, {"name": "Peggs", "lat": 36.0807, "lon": -95.1042, "proficiency": 0.1, "schoolCount": 1}, {"name": "PERKINS", "lat": 35.9745, "lon": -97.0369, "proficiency": 0.075, "schoolCount": 1}, {"name": "Perry", "lat": 36.294705, "lon": -97.302086, "proficiency": 0.025, "schoolCount": 1}, {"name": "Piedmont", "lat": 35.6466, "lon": -97.7482, "proficiency": 0.29, "schoolCount": 1}, {"name": "Pittsburg", "lat": 34.713582, "lon": -95.854129, "proficiency": 0.245, "schoolCount": 1}, {"name": "Waukomis", "lat": 36.275777500000004, "lon": -97.842075, "proficiency": 0.05, "schoolCount": 2}, {"name": "Pocola", "lat": 35.2605, "lon": -94.4706, "proficiency": 0.05, "schoolCount": 1}, {"name": "Ponca City", "lat": 36.7029, "lon": -97.0767, "proficiency": 0.17, "schoolCount": 1}, {"name": "Pond Creek", "lat": 36.6687, "lon": -97.7971, "proficiency": 0.05, "schoolCount": 1}, {"name": "Porum", "lat": 35.361597, "lon": -95.26802, "proficiency": 0.1, "schoolCount": 1}, {"name": "Poteau", "lat": 35.063094, "lon": -94.623629, "proficiency": 0.27, "schoolCount": 1}, {"name": "Prague", "lat": 35.4882, "lon": -96.7022, "proficiency": 0.025, "schoolCount": 1}, {"name": "Preston", "lat": 35.709017, "lon": -95.991168, "proficiency": 0.05, "schoolCount": 1}, {"name": "Prue", "lat": 36.2536, "lon": -96.2674, "proficiency": 0.1, "schoolCount": 1}, {"name": "Purcell", "lat": 35.037345, "lon": -97.365288, "proficiency": 0.22, "schoolCount": 1}, {"name": "Warr Acres", "lat": 35.5121, "lon": -97.6142, "proficiency": 0.075, "schoolCount": 1}, {"name": "Quapaw", "lat": 36.9584, "lon": -94.7907, "proficiency": 0.05, "schoolCount": 1}, {"name": "Quinton", "lat": 35.130702, "lon": -95.368089, "proficiency": 0.1, "schoolCount": 1}, {"name": "Ramona", "lat": 36.53291, "lon": -95.925006, "proficiency": 0.075, "schoolCount": 1}, {"name": "Rattan", "lat": 34.199165, "lon": -95.421334, "proficiency": 0.1, "schoolCount": 1}, {"name": "Ravia", "lat": 34.244441, "lon": -96.757067, "proficiency": 0.245, "schoolCount": 1}, {"name": "Red Oak", "lat": 34.9559, "lon": -95.0794, "proficiency": 0.1, "schoolCount": 1}, {"name": "Reydon", "lat": 35.6563, "lon": -99.9188, "proficiency": 0.75, "schoolCount": 1}, {"name": "Ringling", "lat": 34.185787, "lon": -97.594104, "proficiency": 0.1, "schoolCount": 1}, {"name": "Ringwood", "lat": 36.38179, "lon": -98.24611, "proficiency": 0.1, "schoolCount": 1}, {"name": "Ripley", "lat": 36.0142, "lon": -96.9021, "proficiency": 0.05, "schoolCount": 1}, {"name": "Roff", "lat": 34.6289, "lon": -96.8404, "proficiency": 0.245, "schoolCount": 1}, {"name": "Rush Springs", "lat": 34.783, "lon": -97.9623, "proficiency": 0.1, "schoolCount": 1}, {"name": "Ryan", "lat": 34.025247, "lon": -97.9492, "proficiency": 0.1, "schoolCount": 1}, {"name": "Sasakwa", "lat": 34.9504, "lon": -96.5241, "proficiency": 0.245, "schoolCount": 1}, {"name": "Savanna", "lat": 34.826512, "lon": -95.842039, "proficiency": 0.3, "schoolCount": 1}, {"name": "Sayre", "lat": 35.314052, "lon": -99.634017, "proficiency": 0.05, "schoolCount": 1}, {"name": "Schulter", "lat": 35.5135, "lon": -95.9597, "proficiency": 0.245, "schoolCount": 1}, {"name": "Seiling", "lat": 36.147, "lon": -98.9203, "proficiency": 0.1, "schoolCount": 1}, {"name": "Sentinel", "lat": 35.1558, "lon": -99.1702, "proficiency": 0.1, "schoolCount": 1}, {"name": "Shady Point", "lat": 35.132015, "lon": -94.660242, "proficiency": 0.1, "schoolCount": 1}, {"name": "Shattuck", "lat": 36.274545, "lon": -99.871456, "proficiency": 0.15, "schoolCount": 1}, {"name": "Shidler", "lat": 36.7814, "lon": -96.664171, "proficiency": 0.1, "schoolCount": 1}, {"name": "Skiatook", "lat": 36.360575, "lon": -96.024453, "proficiency": 0.22, "schoolCount": 1}, {"name": "Smithville", "lat": 34.4704, "lon": -94.6457, "proficiency": 0.1, "schoolCount": 1}, {"name": "Snyder", "lat": 34.65607, "lon": -98.954714, "proficiency": 0.1, "schoolCount": 1}, {"name": "Soper", "lat": 34.037147, "lon": -95.699171, "proficiency": 0.1, "schoolCount": 1}, {"name": "Sperry", "lat": 36.297534, "lon": -95.997214, "proficiency": 0.075, "schoolCount": 1}, {"name": "Spiro", "lat": 35.239853, "lon": -94.631335, "proficiency": 0.17, "schoolCount": 1}, {"name": "Springer", "lat": 34.312097, "lon": -97.142093, "proficiency": 0.245, "schoolCount": 1}, {"name": "Sterling", "lat": 34.745493, "lon": -98.172205, "proficiency": 0.3, "schoolCount": 1}, {"name": "Stigler", "lat": 35.262499, "lon": -95.133641, "proficiency": 0.12, "schoolCount": 1}, {"name": "Stillwater", "lat": 36.1405, "lon": -97.0391, "proficiency": 0.29, "schoolCount": 1}, {"name": "Stonewall", "lat": 34.606455, "lon": -96.6168, "proficiency": 0.05, "schoolCount": 1}, {"name": "Stratford", "lat": 34.797439, "lon": -96.958428, "proficiency": 0.245, "schoolCount": 1}, {"name": "Stringtown", "lat": 34.465887, "lon": -96.052873, "proficiency": 0.245, "schoolCount": 1}, {"name": "Stroud", "lat": 35.753541, "lon": -96.655725, "proficiency": 0.12, "schoolCount": 1}, {"name": "Stuart", "lat": 34.897915, "lon": -96.099888, "proficiency": 0.245, "schoolCount": 1}, {"name": "Sulphur", "lat": 34.508308, "lon": -96.977763, "proficiency": 0.22, "schoolCount": 1}, {"name": "Sweetwater", "lat": 35.4069, "lon": -99.9122, "proficiency": 0.245, "schoolCount": 1}, {"name": "Taloga", "lat": 36.038, "lon": -98.9691, "proficiency": 0.245, "schoolCount": 1}, {"name": "Tecumseh", "lat": 35.2591, "lon": -96.9401, "proficiency": 0.17, "schoolCount": 1}, {"name": "Temple", "lat": 34.266555, "lon": -98.238062, "proficiency": 0.245, "schoolCount": 1}, {"name": "Welling", "lat": 35.768037, "lon": -94.842033, "proficiency": 0.1, "schoolCount": 1}, {"name": "Texhoma", "lat": 36.5072, "lon": -101.787097, "proficiency": 0.3, "schoolCount": 1}, {"name": "Thackerville", "lat": 33.796035, "lon": -97.142776, "proficiency": 0.1, "schoolCount": 1}, {"name": "Mountain View", "lat": 35.097067, "lon": -98.74349, "proficiency": 0.245, "schoolCount": 1}, {"name": "Tipton", "lat": 34.495966, "lon": -99.139733, "proficiency": 0.1, "schoolCount": 1}, {"name": "Fairfax", "lat": 36.5714, "lon": -96.7089, "proficiency": 0.1, "schoolCount": 1}, {"name": "Tishomingo", "lat": 34.232045, "lon": -96.675447, "proficiency": 0.075, "schoolCount": 1}, {"name": "Tonkawa", "lat": 36.6817, "lon": -97.3049, "proficiency": 0.05, "schoolCount": 1}, {"name": "Porter", "lat": 35.869611, "lon": -95.521378, "proficiency": 0.05, "schoolCount": 1}, {"name": "Tupelo", "lat": 34.602769, "lon": -96.425551, "proficiency": 0.1, "schoolCount": 1}, {"name": "Burneyville", "lat": 33.93946, "lon": -97.318288, "proficiency": 0.1, "schoolCount": 1}, {"name": "Turpin", "lat": 36.86479, "lon": -100.880727, "proficiency": 0.15, "schoolCount": 1}, {"name": "Tuskahoma", "lat": 34.618718, "lon": -95.276008, "proficiency": 0.245, "schoolCount": 1}, {"name": "Tuttle", "lat": 35.284861, "lon": -97.811053, "proficiency": 0.12, "schoolCount": 1}, {"name": "Tyrone", "lat": 36.958823, "lon": -101.068045, "proficiency": 0.1, "schoolCount": 1}, {"name": "Union City", "lat": 35.3923, "lon": -97.9422, "proficiency": 0.1, "schoolCount": 1}, {"name": "Valliant", "lat": 34.004091, "lon": -95.08637, "proficiency": 0.025, "schoolCount": 1}, {"name": "Velma", "lat": 34.452866, "lon": -97.670423, "proficiency": 0.3, "schoolCount": 1}, {"name": "Verden", "lat": 35.080453, "lon": -98.085185, "proficiency": 0.1, "schoolCount": 1}, {"name": "Vian", "lat": 35.494583, "lon": -94.973506, "proficiency": 0.025, "schoolCount": 1}, {"name": "Vici", "lat": 36.146532, "lon": -99.301758, "proficiency": 0.1, "schoolCount": 1}, {"name": "Vinita", "lat": 36.6423, "lon": -95.1579, "proficiency": 0.12, "schoolCount": 1}, {"name": "Wagoner", "lat": 35.964, "lon": -95.356, "proficiency": 0.075, "schoolCount": 1}, {"name": "Walters", "lat": 34.354148, "lon": -98.307875, "proficiency": 0.05, "schoolCount": 1}, {"name": "Wanette", "lat": 34.965806, "lon": -97.028385, "proficiency": 0.245, "schoolCount": 1}, {"name": "Wapanucka", "lat": 34.3706, "lon": -96.4238, "proficiency": 0.1, "schoolCount": 1}, {"name": "Warner", "lat": 35.496655, "lon": -95.304737, "proficiency": 0.47, "schoolCount": 1}, {"name": "Washington", "lat": 35.0554, "lon": -97.4837, "proficiency": 0.32, "schoolCount": 1}, {"name": "Watonga", "lat": 35.856358, "lon": -98.41043, "proficiency": 0.22, "schoolCount": 1}, {"name": "Watts", "lat": 36.110532, "lon": -94.571995, "proficiency": 0.1, "schoolCount": 1}, {"name": "Waurika", "lat": 34.1735, "lon": -97.9935, "proficiency": 0.05, "schoolCount": 1}, {"name": "Wayne", "lat": 34.9178, "lon": -97.3189, "proficiency": 0.1, "schoolCount": 1}, {"name": "Waynoka", "lat": 36.5912, "lon": -98.8697, "proficiency": 0.3, "schoolCount": 1}, {"name": "Weatherford", "lat": 35.5302, "lon": -98.708, "proficiency": 0.12, "schoolCount": 1}, {"name": "Webbers Falls", "lat": 35.508559, "lon": -95.130007, "proficiency": 0.05, "schoolCount": 1}, {"name": "Welch", "lat": 36.8704, "lon": -95.0968, "proficiency": 0.1, "schoolCount": 1}, {"name": "Weleetka", "lat": 35.3391, "lon": -96.1348, "proficiency": 0.05, "schoolCount": 1}, {"name": "Wellston", "lat": 35.689322, "lon": -97.064192, "proficiency": 0.1, "schoolCount": 1}, {"name": "Westville", "lat": 35.989235, "lon": -94.573461, "proficiency": 0.025, "schoolCount": 1}, {"name": "Wetumka", "lat": 35.234816, "lon": -96.237033, "proficiency": 0.1, "schoolCount": 1}, {"name": "Whitefield", "lat": 35.251412, "lon": -95.239429, "proficiency": 0.245, "schoolCount": 1}, {"name": "Whitesboro", "lat": 34.69187, "lon": -94.886613, "proficiency": 0.245, "schoolCount": 1}, {"name": "Wilburton", "lat": 34.924644, "lon": -95.322459, "proficiency": 0.15, "schoolCount": 1}, {"name": "Wilson", "lat": 34.169358, "lon": -97.45951450000001, "proficiency": 0.1, "schoolCount": 2}, {"name": "Wister", "lat": 34.9697, "lon": -94.7245, "proficiency": 0.05, "schoolCount": 1}, {"name": "Woodward", "lat": 36.4309, "lon": -99.3912, "proficiency": 0.12, "schoolCount": 1}, {"name": "Wright City", "lat": 34.065756, "lon": -95.005098, "proficiency": 0.15, "schoolCount": 1}, {"name": "Wyandotte", "lat": 36.792841, "lon": -94.726719, "proficiency": 0.05, "schoolCount": 1}, {"name": "Wynnewood", "lat": 34.642462, "lon": -97.163257, "proficiency": 0.05, "schoolCount": 1}, {"name": "Wynona", "lat": 36.548304, "lon": -96.327643, "proficiency": 0.245, "schoolCount": 1}, {"name": "Yale", "lat": 36.1165, "lon": -96.6958, "proficiency": 0.1, "schoolCount": 1}, {"name": "Fort Cobb", "lat": 35.098895, "lon": -98.44179, "proficiency": 0.1, "schoolCount": 1}, {"name": "Binger", "lat": 35.3057, "lon": -98.3439, "proficiency": 0.1, "schoolCount": 1}]}