{"state": "OR", "stateName": "Oregon", "year": 2025, "naep": {"text": "3 out of 4", "numerator": 3, "denominator": 4}, "schools": [{"name": "Adrian Elementary School", "lat": 43.7418, "lon": -117.069981, "proficiency": 0.773, "district": "Adrian SD 61", "city": "Adrian", "ncessch": "410102000755"}, {"name": "Alsea Charter School", "lat": 44.380855, "lon": -123.594658, "proficiency": 0.083, "district": "Alsea SD 7J", "city": "Alsea", "ncessch": "410120000019"}, {"name": "Amity Middle School", "lat": 45.1135, "lon": -123.2052, "proficiency": 0.082, "district": "Amity SD 4J", "city": "Amity", "ncessch": "410123001320"}, {"name": "Ashland Middle School", "lat": 42.193555, "lon": -122.687443, "proficiency": 0.307, "district": "Ashland SD 5", "city": "Ashland", "ncessch": "410156000400"}, {"name": "TRAILS Outdoor School", "lat": 42.1924, "lon": -122.6872, "proficiency": 0.6, "district": "Ashland SD 5", "city": "Ashland", "ncessch": "410156001654"}, {"name": "Astoria Middle School", "lat": 46.1793, "lon": -123.831, "proficiency": 0.283, "district": "Astoria SD 1", "city": "Astoria", "ncessch": "410162000153"}, {"name": "Weston Middle School", "lat": 45.8128, "lon": -118.4221, "proficiency": 0.415, "district": "Athena-Weston SD 29RJ", "city": "Weston", "ncessch": "410166001114"}, {"name": "Baker Middle School", "lat": 44.7776, "lon": -117.8348, "proficiency": 0.391, "district": "Baker SD 5J", "city": "Baker City", "ncessch": "410171000001"}, {"name": "Baker Web Academy", "lat": 44.784078, "lon": -117.838273, "proficiency": 0.265, "district": "Baker SD 5J", "city": "Baker City", "ncessch": "410171001767"}, {"name": "Harbor Lights Middle School", "lat": 43.1157, "lon": -124.4194, "proficiency": 0.395, "district": "Bandon SD 54", "city": "Bandon", "ncessch": "410180000235"}, {"name": "Banks Middle School", "lat": 45.614125, "lon": -123.113699, "proficiency": 0.281, "district": "Banks SD 13", "city": "Banks", "ncessch": "410183001179"}, {"name": "Aloha-Huber Park School", "lat": 45.483965, "lon": -122.85382, "proficiency": 0.137, "district": "Beaverton SD 48J", "city": "Beaverton", "ncessch": "410192001204"}, {"name": "Arts and Communication Magnet Academy", "lat": 45.4946, "lon": -122.7939, "proficiency": 0.215, "district": "Beaverton SD 48J", "city": "Beaverton", "ncessch": "410192000213"}, {"name": "Beaverton Academy of Science and Engineering", "lat": 45.527196, "lon": -122.869619, "proficiency": 0.5, "district": "Beaverton SD 48J", "city": "Hillsboro", "ncessch": "410192001745"}, {"name": "Cedar Park Middle School", "lat": 45.5061, "lon": -122.7914, "proficiency": 0.332, "district": "Beaverton SD 48J", "city": "Portland", "ncessch": "410192001233"}, {"name": "Conestoga Middle School", "lat": 45.4467, "lon": -122.8029, "proficiency": 0.281, "district": "Beaverton SD 48J", "city": "Beaverton", "ncessch": "410192000552"}, {"name": "Five Oaks Middle School", "lat": 45.5305, "lon": -122.8532, "proficiency": 0.275, "district": "Beaverton SD 48J", "city": "Beaverton", "ncessch": "410192001234"}, {"name": "FLEX Online School", "lat": 45.527196, "lon": -122.869619, "proficiency": 0.281, "district": "Beaverton SD 48J", "city": "Hillsboro", "ncessch": "410192001894"}, {"name": "Highland Park Middle School", "lat": 45.4689, "lon": -122.8185, "proficiency": 0.29, "district": "Beaverton SD 48J", "city": "Beaverton", "ncessch": "410192001237"}, {"name": "International School of Beaverton", "lat": 45.490535, "lon": -122.860032, "proficiency": 0.688, "district": "Beaverton SD 48J", "city": "Beaverton", "ncessch": "410192001647"}, {"name": "Meadow Park Middle School", "lat": 45.5152, "lon": -122.8235, "proficiency": 0.231, "district": "Beaverton SD 48J", "city": "Beaverton", "ncessch": "410192001235"}, {"name": "Mountain View Middle School", "lat": 45.4793, "lon": -122.856, "proficiency": 0.192, "district": "Beaverton SD 48J", "city": "Beaverton", "ncessch": "410192001236"}, {"name": "Stoller Middle School", "lat": 45.5573, "lon": -122.8226, "proficiency": 0.677, "district": "Beaverton SD 48J", "city": "Portland", "ncessch": "410192001431"}, {"name": "Tumwater Middle School", "lat": 45.523892, "lon": -122.798388, "proficiency": 0.603, "district": "Beaverton SD 48J", "city": "Portland", "ncessch": "410192001921"}, {"name": "Whitford Middle School", "lat": 45.4632, "lon": -122.782, "proficiency": 0.301, "district": "Beaverton SD 48J", "city": "Beaverton", "ncessch": "410192001238"}, {"name": "Bend International School", "lat": 44.087892, "lon": -121.308408, "proficiency": 0.45, "district": "Bend-LaPine Administrative SD 1", "city": "Bend", "ncessch": "410198001845"}, {"name": "Cascade Middle School", "lat": 44.036992, "lon": -121.340175, "proficiency": 0.559, "district": "Bend-LaPine Administrative SD 1", "city": "Bend", "ncessch": "410198000259"}, {"name": "High Desert Middle School", "lat": 44.01551, "lon": -121.26225, "proficiency": 0.226, "district": "Bend-LaPine Administrative SD 1", "city": "Bend", "ncessch": "410198000263"}, {"name": "LaPine Middle School", "lat": 43.6763, "lon": -121.5083, "proficiency": 0.123, "district": "Bend-LaPine Administrative SD 1", "city": "LaPine", "ncessch": "410198000264"}, {"name": "Pacific Crest Middle School", "lat": 44.054801, "lon": -121.364857, "proficiency": 0.656, "district": "Bend-LaPine Administrative SD 1", "city": "Bend", "ncessch": "410198001839"}, {"name": "Pilot Butte Middle School", "lat": 44.0647, "lon": -121.2844, "proficiency": 0.299, "district": "Bend-LaPine Administrative SD 1", "city": "Bend", "ncessch": "410198000268"}, {"name": "Realms Middle School", "lat": 44.085106, "lon": -121.28646, "proficiency": 0.293, "district": "Bend-LaPine Administrative SD 1", "city": "Bend", "ncessch": "410198001436"}, {"name": "Sky View Middle School", "lat": 44.1071, "lon": -121.2801, "proficiency": 0.43, "district": "Bend-LaPine Administrative SD 1", "city": "Bend", "ncessch": "410198001488"}, {"name": "Three Rivers Elementary School", "lat": 43.8679, "lon": -121.4337, "proficiency": 0.333, "district": "Bend-LaPine Administrative SD 1", "city": "Sunriver", "ncessch": "410198001350"}, {"name": "Westside Village Magnet School at Kingston Elementary School", "lat": 44.0602, "lon": -121.3294, "proficiency": 0.333, "district": "Bend-LaPine Administrative SD 1", "city": "Bend", "ncessch": "410198001454"}, {"name": "Cascade Middle School", "lat": 44.0788, "lon": -123.1667, "proficiency": 0.202, "district": "Bethel SD 52", "city": "Eugene", "ncessch": "410204000621"}, {"name": "Meadow View School", "lat": 44.0822, "lon": -123.2015, "proficiency": 0.364, "district": "Bethel SD 52", "city": "Eugene", "ncessch": "410204001391"}, {"name": "Prairie Mountain School", "lat": 44.0711, "lon": -123.1902, "proficiency": 0.135, "district": "Bethel SD 52", "city": "Eugene", "ncessch": "410204004179"}, {"name": "Shasta Middle School", "lat": 44.0837, "lon": -123.1769, "proficiency": 0.152, "district": "Bethel SD 52", "city": "Eugene", "ncessch": "410204000622"}, {"name": "Triangle Lake Charter School", "lat": 44.195198, "lon": -123.546086, "proficiency": 0.053, "district": "Blachly SD 90", "city": "Blachly", "ncessch": "410216000641"}, {"name": "Azalea Middle School", "lat": 42.0564, "lon": -124.2813, "proficiency": 0.19, "district": "Brookings-Harbor SD 17C", "city": "Brookings", "ncessch": "410231000253"}, {"name": "Camas Valley School", "lat": 43.03457, "lon": -123.675068, "proficiency": 0.357, "district": "Camas Valley SD 21J", "city": "Camas Valley", "ncessch": "410261000315"}, {"name": "Baker Prairie Middle School", "lat": 45.2576, "lon": -122.6703, "proficiency": 0.188, "district": "Canby SD 86", "city": "Canby", "ncessch": "410264001651"}, {"name": "Ninety-One School", "lat": 45.1768, "lon": -122.7474, "proficiency": 0.424, "district": "Canby SD 86", "city": "Hubbard", "ncessch": "410264000135"}, {"name": "Cascade Junior High School", "lat": 44.8081, "lon": -122.9165, "proficiency": 0.362, "district": "Cascade SD 5", "city": "Turner", "ncessch": "410278000855"}, {"name": "Centennial Middle School", "lat": 45.5015, "lon": -122.4793, "proficiency": 0.204, "district": "Centennial SD 28J", "city": "Portland", "ncessch": "410280001013"}, {"name": "Gold Beach High School", "lat": 42.4079, "lon": -124.4218, "proficiency": 0.114, "district": "Central Curry SD 1", "city": "Gold Beach", "ncessch": "410576000257"}, {"name": "Central Linn High School", "lat": 44.3903, "lon": -123.0877, "proficiency": 0.148, "district": "Central Linn SD 552", "city": "Halsey", "ncessch": "410291000729"}, {"name": "Hanby Middle School", "lat": 42.4344, "lon": -123.055, "proficiency": 0.275, "district": "Central Point SD 6", "city": "Gold Hill", "ncessch": "410294000407"}, {"name": "Scenic Middle School", "lat": 42.3864, "lon": -122.9222, "proficiency": 0.291, "district": "Central Point SD 6", "city": "Central Point", "ncessch": "410294000408"}, {"name": "Talmadge Middle School", "lat": 44.855049, "lon": -123.210881, "proficiency": 0.125, "district": "Central SD 13J", "city": "Independence", "ncessch": "410284001057"}, {"name": "Clatskanie Middle/High School", "lat": 46.100923, "lon": -123.211326, "proficiency": 0.17, "district": "Clatskanie SD 6J", "city": "Clatskanie", "ncessch": "410326000178"}, {"name": "Colton Middle School", "lat": 45.1656, "lon": -122.423, "proficiency": 0.207, "district": "Colton SD 53", "city": "Colton", "ncessch": "410327001343"}, {"name": "Lighthouse Charter School", "lat": 43.353142, "lon": -124.200483, "proficiency": 0.333, "district": "Coos Bay SD 9", "city": "Coos Bay", "ncessch": "410366004188"}, {"name": "Marshfield Junior High", "lat": 43.362074, "lon": -124.21951, "proficiency": 0.185, "district": "Coos Bay SD 9", "city": "Coos Bay", "ncessch": "410366001882"}, {"name": "Coquille Junior Senior High", "lat": 43.1859, "lon": -124.1943, "proficiency": 0.109, "district": "Coquille SD 8", "city": "Coquille", "ncessch": "410339000202"}, {"name": "Winter Lakes Elementary", "lat": 43.190133, "lon": -124.195654, "proficiency": 0.2, "district": "Coquille SD 8", "city": "Coquille", "ncessch": "410339001881"}, {"name": "Corbett School", "lat": 45.530096, "lon": -122.295176, "proficiency": 0.239, "district": "Corbett SD 39", "city": "Corbett", "ncessch": "410342001729"}, {"name": "Cheldelin Middle School", "lat": 44.6011, "lon": -123.2373, "proficiency": 0.485, "district": "Corvallis SD 509J", "city": "Corvallis", "ncessch": "410348000033"}, {"name": "Franklin School", "lat": 44.574722, "lon": -123.273154, "proficiency": 0.673, "district": "Corvallis SD 509J", "city": "Corvallis", "ncessch": "410348000570"}, {"name": "Linus Pauling Middle School", "lat": 44.5863, "lon": -123.264, "proficiency": 0.308, "district": "Corvallis SD 509J", "city": "Corvallis", "ncessch": "410348000045"}, {"name": "Cove Charter School", "lat": 45.296512, "lon": -117.809132, "proficiency": 0.304, "district": "Cove SD 15", "city": "Cove", "ncessch": "410354001139"}, {"name": "Creswell Middle School", "lat": 43.916712, "lon": -123.026539, "proficiency": 0.296, "district": "Creswell SD 40", "city": "Creswell", "ncessch": "410369000605"}, {"name": "Crook County Middle School", "lat": 44.301, "lon": -120.8336, "proficiency": 0.36, "district": "Crook County SD", "city": "Prineville", "ncessch": "410372000243"}, {"name": "Powell Butte Community Charter School", "lat": 44.247116, "lon": -121.017232, "proficiency": 0.211, "district": "Crook County SD", "city": "Powell Butte", "ncessch": "410372000242"}, {"name": "Applegate Elementary School", "lat": 43.990458, "lon": -123.336631, "proficiency": 0.4, "district": "Crow-Applegate-Lorane SD 66", "city": "Eugene", "ncessch": "410378000624"}, {"name": "Dallas Community Charter", "lat": 44.91563, "lon": -123.327181, "proficiency": 0.091, "district": "Dallas SD 2", "city": "Dallas", "ncessch": "410386001835"}, {"name": "LaCreole Middle School", "lat": 44.923, "lon": -123.301, "proficiency": 0.238, "district": "Dallas SD 2", "city": "Dallas", "ncessch": "410386001049"}, {"name": "Luckiamute Valley Charter School", "lat": 44.7452, "lon": -123.4466, "proficiency": 0.35, "district": "Dallas SD 2", "city": "Dallas", "ncessch": "410386001045"}, {"name": "Alice Ott Middle School", "lat": 45.479657, "lon": -122.534985, "proficiency": 0.21, "district": "David Douglas SD 40", "city": "Portland", "ncessch": "410394001028"}, {"name": "Floyd Light Middle School", "lat": 45.5176, "lon": -122.552, "proficiency": 0.358, "district": "David Douglas SD 40", "city": "Portland", "ncessch": "410394001027"}, {"name": "Ron Russell Middle School", "lat": 45.494, "lon": -122.549, "proficiency": 0.224, "district": "David Douglas SD 40", "city": "Portland", "ncessch": "410394001676"}, {"name": "Dayton Jr High School", "lat": 45.2162, "lon": -123.0848, "proficiency": 0.127, "district": "Dayton SD 8", "city": "Dayton", "ncessch": "410399000228"}, {"name": "Days Creek Charter School", "lat": 42.96997, "lon": -123.16616, "proficiency": 0.231, "district": "Douglas County SD 15", "city": "Days Creek", "ncessch": "410396000308"}, {"name": "John C Fremont Middle School", "lat": 43.210843, "lon": -123.371053, "proficiency": 0.322, "district": "Douglas County SD 4", "city": "Roseburg", "ncessch": "411071000298"}, {"name": "Joseph Lane Middle School", "lat": 43.235968, "lon": -123.346175, "proficiency": 0.243, "district": "Douglas County SD 4", "city": "Roseburg", "ncessch": "411071000299"}, {"name": "Dufur School", "lat": 45.455037, "lon": -121.123466, "proficiency": 0.071, "district": "Dufur SD 29", "city": "Dufur", "ncessch": "410441001162"}, {"name": "Crater Lake Academy", "lat": 42.46099, "lon": -122.825941, "proficiency": 0.108, "district": "Eagle Point SD 9", "city": "Eagle Point", "ncessch": "410450001831"}, {"name": "Eagle Point Middle School", "lat": 42.4841, "lon": -122.7936, "proficiency": 0.261, "district": "Eagle Point SD 9", "city": "Eagle Point", "ncessch": "410450000416"}, {"name": "URCEO-Upper Rogue Center for Educational Opportunities", "lat": 42.470142, "lon": -122.799665, "proficiency": 0.077, "district": "Eagle Point SD 9", "city": "Eagle Point", "ncessch": "410450001681"}, {"name": "White Mountain Middle School", "lat": 42.4377, "lon": -122.8281, "proficiency": 0.082, "district": "Eagle Point SD 9", "city": "White City", "ncessch": "410450001587"}, {"name": "Echo School", "lat": 45.740058, "lon": -119.189719, "proficiency": 0.435, "district": "Echo SD 5", "city": "Echo", "ncessch": "410453001089"}, {"name": "Elkton Charter School", "lat": 43.638147, "lon": -123.570246, "proficiency": 0.286, "district": "Elkton SD 34", "city": "Elkton", "ncessch": "410462000322"}, {"name": "Enterprise High School", "lat": 45.4249, "lon": -117.272, "proficiency": 0.333, "district": "Enterprise SD 21", "city": "Enterprise", "ncessch": "410508001149"}, {"name": "Estacada Middle School", "lat": 45.2937, "lon": -122.333, "proficiency": 0.205, "district": "Estacada SD 108", "city": "Estacada", "ncessch": "410470000142"}, {"name": "Summit Learning Charter", "lat": 45.36159, "lon": -122.352661, "proficiency": 0.314, "district": "Estacada SD 108", "city": "Eagle Creek", "ncessch": "410470001766"}, {"name": "Arts and Technology Academy at Jefferson", "lat": 44.035207, "lon": -123.115175, "proficiency": 0.5, "district": "Eugene SD 4J", "city": "Eugene", "ncessch": "410474001737"}, {"name": "Cal Young Middle School", "lat": 44.0903, "lon": -123.0792, "proficiency": 0.31, "district": "Eugene SD 4J", "city": "Eugene", "ncessch": "410474000561"}, {"name": "Coburg Community Charter School", "lat": 44.1427, "lon": -123.0724, "proficiency": 0.696, "district": "Eugene SD 4J", "city": "Eugene", "ncessch": "410474000533"}, {"name": "Kelly Middle School", "lat": 44.087488, "lon": -123.141899, "proficiency": 0.206, "district": "Eugene SD 4J", "city": "Eugene", "ncessch": "410474000562"}, {"name": "Kennedy Middle School", "lat": 44.03604, "lon": -123.15476, "proficiency": 0.337, "district": "Eugene SD 4J", "city": "Eugene", "ncessch": "410474000564"}, {"name": "Madison Middle School", "lat": 44.1171, "lon": -123.1204, "proficiency": 0.254, "district": "Eugene SD 4J", "city": "Eugene", "ncessch": "410474000565"}, {"name": "Monroe Middle School", "lat": 44.075325, "lon": -123.066142, "proficiency": 0.165, "district": "Eugene SD 4J", "city": "Eugene", "ncessch": "410474000566"}, {"name": "Ridgeline Montessori", "lat": 44.006385, "lon": -123.076363, "proficiency": 0.714, "district": "Eugene SD 4J", "city": "Eugene", "ncessch": "410474001491"}, {"name": "Roosevelt Middle School", "lat": 44.033037, "lon": -123.082842, "proficiency": 0.548, "district": "Eugene SD 4J", "city": "Eugene", "ncessch": "410474000568"}, {"name": "Spencer Butte Middle School", "lat": 44.0077, "lon": -123.0853, "proficiency": 0.368, "district": "Eugene SD 4J", "city": "Eugene", "ncessch": "410474000569"}, {"name": "Village School", "lat": 44.018705, "lon": -123.091164, "proficiency": 0.375, "district": "Eugene SD 4J", "city": "Eugene", "ncessch": "410474001492"}, {"name": "Falls City Elementary School", "lat": 44.8677, "lon": -123.4323, "proficiency": 0.091, "district": "Falls City SD 57", "city": "Falls City", "ncessch": "410000301061"}, {"name": "Fern Ridge Middle School", "lat": 44.0687, "lon": -123.353, "proficiency": 0.158, "district": "Fern Ridge SD 28J", "city": "Elmira", "ncessch": "410495000600"}, {"name": "Forest Grove Community School", "lat": 45.519437, "lon": -123.113284, "proficiency": 0.368, "district": "Forest Grove SD 15", "city": "Forest Grove", "ncessch": "410516001724"}, {"name": "Neil Armstrong Middle School", "lat": 45.5159, "lon": -123.0747, "proficiency": 0.137, "district": "Forest Grove SD 15", "city": "Forest Grove", "ncessch": "410516001188"}, {"name": "Fossil Charter School", "lat": 45.001485, "lon": -120.213335, "proficiency": 0.368, "district": "Fossil SD 21J", "city": "Fossil", "ncessch": "410525001375"}, {"name": "Gaston Jr/Sr High School", "lat": 45.4355, "lon": -123.1439, "proficiency": 0.167, "district": "Gaston SD 511J", "city": "Gaston", "ncessch": "410543001249"}, {"name": "Gervais Middle School", "lat": 45.103694, "lon": -122.893841, "proficiency": 0.183, "district": "Gervais SD 1", "city": "Gervais", "ncessch": "410001500831"}, {"name": "Walter L Kraxberger Middle School", "lat": 45.3941, "lon": -122.5867, "proficiency": 0.304, "district": "Gladstone SD 115", "city": "Gladstone", "ncessch": "410561000145"}, {"name": "Glide Middle School", "lat": 43.300504, "lon": -123.095721, "proficiency": 0.224, "district": "Glide SD 12", "city": "Glide", "ncessch": "410567000303"}, {"name": "GPFLEX School", "lat": 42.427535, "lon": -123.295034, "proficiency": 0.059, "district": "Grants Pass SD 7", "city": "Grants Pass", "ncessch": "410591001908"}, {"name": "North Middle School", "lat": 42.4577, "lon": -123.3309, "proficiency": 0.386, "district": "Grants Pass SD 7", "city": "Grants Pass", "ncessch": "410591000460"}, {"name": "South Middle School", "lat": 42.4157, "lon": -123.3339, "proficiency": 0.269, "district": "Grants Pass SD 7", "city": "Grants Pass", "ncessch": "410591000463"}, {"name": "Calapooia Middle School", "lat": 44.617588, "lon": -123.092585, "proficiency": 0.162, "district": "Greater Albany Public SD 8J", "city": "Albany", "ncessch": "410112000732"}, {"name": "Memorial Middle School", "lat": 44.622987, "lon": -123.115103, "proficiency": 0.235, "district": "Greater Albany Public SD 8J", "city": "Albany", "ncessch": "410112000733"}, {"name": "North Albany Middle School", "lat": 44.652559, "lon": -123.112158, "proficiency": 0.448, "district": "Greater Albany Public SD 8J", "city": "Albany", "ncessch": "410112000734"}, {"name": "Timber Ridge School", "lat": 44.647086, "lon": -123.041081, "proficiency": 0.354, "district": "Greater Albany Public SD 8J", "city": "Albany", "ncessch": "410112001773"}, {"name": "Clear Creek Middle School", "lat": 45.524, "lon": -122.4383, "proficiency": 0.062, "district": "Gresham-Barlow SD 10J", "city": "Gresham", "ncessch": "410600000525"}, {"name": "Deep Creek - Damascus K-8 School", "lat": 45.409591, "lon": -122.422763, "proficiency": 0.5, "district": "Gresham-Barlow SD 10J", "city": "Damascus", "ncessch": "410600000098"}, {"name": "Dexter McCarty Middle School", "lat": 45.4933, "lon": -122.4178, "proficiency": 0.176, "district": "Gresham-Barlow SD 10J", "city": "Gresham", "ncessch": "410600000988"}, {"name": "Gordon Russell Middle School", "lat": 45.492542, "lon": -122.396312, "proficiency": 0.106, "district": "Gresham-Barlow SD 10J", "city": "Gresham", "ncessch": "410600000990"}, {"name": "Lewis and Clark Montessori Charter School", "lat": 45.420672, "lon": -122.414486, "proficiency": 0.357, "district": "Gresham-Barlow SD 10J", "city": "Damascus", "ncessch": "410600001757"}, {"name": "Metro East Web Academy", "lat": 45.500616, "lon": -122.431788, "proficiency": 0.105, "district": "Gresham-Barlow SD 10J", "city": "Gresham", "ncessch": "410600001787"}, {"name": "West Orient Middle School", "lat": 45.469077, "lon": -122.3568, "proficiency": 0.313, "district": "Gresham-Barlow SD 10J", "city": "Gresham", "ncessch": "410600000996"}, {"name": "Hines Middle School", "lat": 43.5632, "lon": -119.0876, "proficiency": 0.086, "district": "Harney County SD 3", "city": "Hines", "ncessch": "410249000363"}, {"name": "Crane Elementary School", "lat": 43.417085, "lon": -118.576476, "proficiency": 0.789, "district": "Harney County SD 4", "city": "Crane", "ncessch": "410360000365"}, {"name": "Oregon Family School", "lat": 44.088512, "lon": -121.247085, "proficiency": 0.056, "district": "Harney County SD 4", "city": "Crane", "ncessch": "410360001870"}, {"name": "Silvies River Charter School", "lat": 43.416789, "lon": -118.574915, "proficiency": 0.292, "district": "Harney County Union High SD 1J", "city": "Crane", "ncessch": "410363001756"}, {"name": "Harper Charter School", "lat": 43.865609, "lon": -117.608259, "proficiency": 0.294, "district": "Harper SD 66", "city": "Harper", "ncessch": "410612000758"}, {"name": "Harrisburg Middle School", "lat": 44.271653, "lon": -123.165656, "proficiency": 0.172, "district": "Harrisburg SD 7J", "city": "Harrisburg", "ncessch": "410001901422"}, {"name": "Armand Larive Middle School", "lat": 45.826829, "lon": -119.304347, "proficiency": 0.253, "district": "Hermiston SD 8", "city": "Hermiston", "ncessch": "410630001096"}, {"name": "Sandstone Middle School", "lat": 45.843264, "lon": -119.267451, "proficiency": 0.246, "district": "Hermiston SD 8", "city": "Hermiston", "ncessch": "410630000677"}, {"name": "City View Charter School", "lat": 45.511804, "lon": -122.939508, "proficiency": 0.696, "district": "Hillsboro SD 1J", "city": "Hillsboro", "ncessch": "410002301535"}, {"name": "Evergreen Jr High School", "lat": 45.5482, "lon": -122.9848, "proficiency": 0.26, "district": "Hillsboro SD 1J", "city": "Hillsboro", "ncessch": "410002301322"}, {"name": "Hillsboro Online Academy", "lat": 45.527349, "lon": -122.985453, "proficiency": 0.31, "district": "Hillsboro SD 1J", "city": "Hillsboro", "ncessch": "410002301824"}, {"name": "J W Poynter Middle School", "lat": 45.5285, "lon": -122.9663, "proficiency": 0.265, "district": "Hillsboro SD 1J", "city": "Hillsboro", "ncessch": "410002301251"}, {"name": "R A Brown Middle School", "lat": 45.5096, "lon": -122.9031, "proficiency": 0.302, "district": "Hillsboro SD 1J", "city": "Hillsboro", "ncessch": "410002301250"}, {"name": "South Meadows Middle School", "lat": 45.493139, "lon": -122.933977, "proficiency": 0.262, "district": "Hillsboro SD 1J", "city": "Hillsboro", "ncessch": "410002301253"}, {"name": "Hood River Middle School", "lat": 45.7045, "lon": -121.5281, "proficiency": 0.39, "district": "Hood River County SD", "city": "Hood River", "ncessch": "410651000387"}, {"name": "WyEast Middle School", "lat": 45.6374, "lon": -121.5561, "proficiency": 0.088, "district": "Hood River County SD", "city": "Hood River", "ncessch": "410651000388"}, {"name": "Imbler Charter School", "lat": 45.462454, "lon": -117.96549, "proficiency": 0.522, "district": "Imbler SD 11", "city": "Imbler", "ncessch": "410663001137"}, {"name": "Jefferson County Middle School", "lat": 44.6342, "lon": -121.1056, "proficiency": 0.133, "district": "Jefferson County SD 509J", "city": "Madras", "ncessch": "410674000656"}, {"name": "Joseph Charter School", "lat": 45.352658, "lon": -117.222877, "proficiency": 0.316, "district": "Joseph SD 6", "city": "Joseph", "ncessch": "410687001145"}, {"name": "Oaklea Middle School", "lat": 44.2265, "lon": -123.215, "proficiency": 0.336, "district": "Junction City SD 69", "city": "Junction City", "ncessch": "410693000631"}, {"name": "Brixner Junior High School", "lat": 42.1837, "lon": -121.7214, "proficiency": 0.145, "district": "Klamath County SD", "city": "Klamath Falls", "ncessch": "410702000505"}, {"name": "Chiloquin High School", "lat": 42.5674, "lon": -121.8634, "proficiency": 0.057, "district": "Klamath County SD", "city": "Chiloquin", "ncessch": "410702000508"}, {"name": "Henley Middle School", "lat": 42.1535, "lon": -121.6975, "proficiency": 0.364, "district": "Klamath County SD", "city": "Klamath Falls", "ncessch": "410702000506"}, {"name": "Lost River High School", "lat": 42.015885, "lon": -121.503904, "proficiency": 0.436, "district": "Klamath County SD", "city": "Merrill", "ncessch": "410702000511"}, {"name": "Ponderosa Middle School", "lat": 42.2279, "lon": -121.7612, "proficiency": 0.217, "district": "Klamath Falls City Schools", "city": "Klamath Falls", "ncessch": "410708000487"}, {"name": "Hilda Lahti Elementary School", "lat": 46.163278, "lon": -123.625124, "proficiency": 0.143, "district": "Knappa SD 4", "city": "Astoria", "ncessch": "410004000176"}, {"name": "La Grande Middle School", "lat": 45.3217, "lon": -118.0973, "proficiency": 0.223, "district": "La Grande SD 1", "city": "La Grande", "ncessch": "410720001127"}, {"name": "Daly Middle School", "lat": 42.186276, "lon": -120.350243, "proficiency": 0.241, "district": "Lake County SD 7", "city": "Lakeview", "ncessch": "410728000689"}, {"name": "Lake Oswego Middle School", "lat": 45.4234, "lon": -122.7026, "proficiency": 0.673, "district": "Lake Oswego SD 7J", "city": "Lake Oswego", "ncessch": "410723000066"}, {"name": "Lakeridge Middle School", "lat": 45.396, "lon": -122.7256, "proficiency": 0.568, "district": "Lake Oswego SD 7J", "city": "Lake Oswego", "ncessch": "410723000067"}, {"name": "Hamilton Creek School", "lat": 44.513428, "lon": -122.835729, "proficiency": 0.4, "district": "Lebanon Community SD 9", "city": "Lebanon", "ncessch": "410738000696"}, {"name": "Lacomb School", "lat": 44.585742, "lon": -122.740168, "proficiency": 0.3, "district": "Lebanon Community SD 9", "city": "Lebanon", "ncessch": "410738000710"}, {"name": "Sand Ridge Charter School", "lat": 44.480234, "lon": -122.869939, "proficiency": 0.591, "district": "Lebanon Community SD 9", "city": "Lebanon", "ncessch": "410738004186"}, {"name": "Seven Oak Middle School", "lat": 44.510523, "lon": -122.892906, "proficiency": 0.146, "district": "Lebanon Community SD 9", "city": "Lebanon", "ncessch": "410738000714"}, {"name": "Eddyville Charter School", "lat": 44.6343, "lon": -123.778, "proficiency": 0.077, "district": "Lincoln County SD", "city": "Eddyville", "ncessch": "410750001582"}, {"name": "Newport Middle School", "lat": 44.641472, "lon": -124.04138, "proficiency": 0.13, "district": "Lincoln County SD", "city": "Newport", "ncessch": "410750000661"}, {"name": "Siletz Valley Schools", "lat": 44.723476, "lon": -123.920442, "proficiency": 0.067, "district": "Lincoln County SD", "city": "Siletz", "ncessch": "410750001590"}, {"name": "Taft Middle School", "lat": 44.935392, "lon": -124.017245, "proficiency": 0.11, "district": "Lincoln County SD", "city": "Lincoln City", "ncessch": "410750000984"}, {"name": "Toledo Jr. High", "lat": 44.633638, "lon": -123.921657, "proficiency": 0.051, "district": "Lincoln County SD", "city": "Toledo", "ncessch": "410750001334"}, {"name": "Waldport Middle School", "lat": 44.405388, "lon": -124.067055, "proficiency": 0.256, "district": "Lincoln County SD", "city": "Waldport", "ncessch": "410750000658"}, {"name": "Bridge Charter Academy", "lat": 43.917213, "lon": -122.780163, "proficiency": 0.133, "district": "Lowell SD 71", "city": "Lowell", "ncessch": "410759001846"}, {"name": "Mountain View Academy", "lat": 43.917429, "lon": -122.783737, "proficiency": 0.154, "district": "Lowell SD 71", "city": "Lowell", "ncessch": "410759001834"}, {"name": "TEACH-NW", "lat": 44.008957, "lon": -123.034206, "proficiency": 0.462, "district": "Marcola SD 79J", "city": "Eugene", "ncessch": "410774001872"}, {"name": "McKenzie River Community School", "lat": 44.152514, "lon": -122.362797, "proficiency": 0.611, "district": "McKenzie SD 68", "city": "Finn Rock", "ncessch": "410798000629"}, {"name": "Duniway Middle School", "lat": 45.2122, "lon": -123.2097, "proficiency": 0.476, "district": "McMinnville SD 40", "city": "McMinnville", "ncessch": "410801000540"}, {"name": "Patton Middle School", "lat": 45.2226, "lon": -123.186, "proficiency": 0.414, "district": "McMinnville SD 40", "city": "McMinnville", "ncessch": "410801001283"}, {"name": "Hedrick Middle School", "lat": 42.3317, "lon": -122.8537, "proficiency": 0.453, "district": "Medford SD 549C", "city": "Medford", "ncessch": "410804000442"}, {"name": "Logos Charter School", "lat": 42.337491, "lon": -122.90005, "proficiency": 0.283, "district": "Medford SD 549C", "city": "Medford", "ncessch": "410804001796"}, {"name": "Madrone Trail Public Charter School", "lat": 42.345655, "lon": -122.945536, "proficiency": 0.136, "district": "Medford SD 549C", "city": "Central Point", "ncessch": "410804001736"}, {"name": "McLoughlin Middle School", "lat": 42.3288, "lon": -122.8809, "proficiency": 0.241, "district": "Medford SD 549C", "city": "Medford", "ncessch": "410804000443"}, {"name": "Medford Online Academy", "lat": 42.326341, "lon": -122.870566, "proficiency": 0.136, "district": "Medford SD 549C", "city": "Medford", "ncessch": "410804001886"}, {"name": "Ruch Outdoor Community School", "lat": 42.2356, "lon": -123.0449, "proficiency": 0.458, "district": "Medford SD 549C", "city": "Jacksonville", "ncessch": "410804000438"}, {"name": "The Valley School of Southern Oregon", "lat": 42.336307, "lon": -122.843683, "proficiency": 0.5, "district": "Medford SD 549C", "city": "Medford", "ncessch": "410804001843"}, {"name": "Central Middle School", "lat": 45.933319, "lon": -118.392221, "proficiency": 0.125, "district": "Milton-Freewater Unified SD 7", "city": "Milton-Freewater", "ncessch": "410816001116"}, {"name": "Cascade Virtual Academy", "lat": 44.30323, "lon": -120.853255, "proficiency": 0.252, "district": "Mitchell SD 55", "city": "Prineville", "ncessch": "410828001869"}, {"name": "Insight School of Oregon Painted Hills", "lat": 44.30323, "lon": -120.853255, "proficiency": 0.226, "district": "Mitchell SD 55", "city": "Mitchell", "ncessch": "410828001813"}, {"name": "Molalla River Academy", "lat": 45.121038, "lon": -122.521545, "proficiency": 0.35, "district": "Molalla River SD 35", "city": "Molalla", "ncessch": "410831001789"}, {"name": "Molalla River Middle School", "lat": 45.1511, "lon": -122.5896, "proficiency": 0.215, "district": "Molalla River SD 35", "city": "Molalla", "ncessch": "410831000102"}, {"name": "Monroe Grade School", "lat": 44.3122, "lon": -123.2985, "proficiency": 0.12, "district": "Monroe SD 1J", "city": "Monroe", "ncessch": "410843000027"}, {"name": "Heppner Junior/Senior High School", "lat": 45.361629, "lon": -119.565057, "proficiency": 0.346, "district": "Morrow SD 1", "city": "Heppner", "ncessch": "410852000861"}, {"name": "Irrigon Junior/Senior High School", "lat": 45.887652, "lon": -119.498181, "proficiency": 0.064, "district": "Morrow SD 1", "city": "Irrigon", "ncessch": "410852001312"}, {"name": "Riverside Junior/Senior High School", "lat": 45.8417, "lon": -119.6977, "proficiency": 0.154, "district": "Morrow SD 1", "city": "Boardman", "ncessch": "410852000863"}, {"name": "Mt Angel Middle School", "lat": 45.0724, "lon": -122.7936, "proficiency": 0.31, "district": "Mt Angel SD 91", "city": "Mt Angel", "ncessch": "410855000837"}, {"name": "Neah-Kah-Nie Middle School", "lat": 45.639921, "lon": -123.939006, "proficiency": 0.379, "district": "Neah-Kah-Nie SD 56", "city": "Rockaway Beach", "ncessch": "410865001656"}, {"name": "Nestucca K8", "lat": 45.18821, "lon": -123.903957, "proficiency": 0.156, "district": "Nestucca Valley SD 101J", "city": "Cloverdale", "ncessch": "410870001077"}, {"name": "Chehalem Valley Middle School", "lat": 45.3253, "lon": -122.9824, "proficiency": 0.492, "district": "Newberg SD 29J", "city": "Newberg", "ncessch": "410872001309"}, {"name": "Mountain View Middle School", "lat": 45.3142, "lon": -122.9519, "proficiency": 0.327, "district": "Newberg SD 29J", "city": "Newberg", "ncessch": "410872001273"}, {"name": "Evergreen Virtual Academy", "lat": 43.406869, "lon": -124.221451, "proficiency": 0.28, "district": "North Bend SD 13", "city": "North Bend", "ncessch": "410882001751"}, {"name": "North Bend Middle School", "lat": 43.3986, "lon": -124.233, "proficiency": 0.316, "district": "North Bend SD 13", "city": "North Bend", "ncessch": "410882000224"}, {"name": "Alder Creek Middle School", "lat": 45.4233, "lon": -122.5942, "proficiency": 0.178, "district": "North Clackamas SD 12", "city": "Milwaukie", "ncessch": "410883004189"}, {"name": "Cascade Heights Public Charter School", "lat": 45.412088, "lon": -122.569611, "proficiency": 0.368, "district": "North Clackamas SD 12", "city": "Clackamas", "ncessch": "410883001658"}, {"name": "Clackamas Web Academy", "lat": 45.42957, "lon": -122.572931, "proficiency": 0.171, "district": "North Clackamas SD 12", "city": "Clackamas", "ncessch": "410883001543"}, {"name": "Happy Valley Middle School", "lat": 45.447685, "lon": -122.517861, "proficiency": 0.406, "district": "North Clackamas SD 12", "city": "Happy Valley", "ncessch": "410883001782"}, {"name": "Rock Creek Middle School", "lat": 45.418536, "lon": -122.528867, "proficiency": 0.292, "district": "North Clackamas SD 12", "city": "Clackamas", "ncessch": "410883001379"}, {"name": "Rowe Middle School", "lat": 45.4329, "lon": -122.6266, "proficiency": 0.176, "district": "North Clackamas SD 12", "city": "Milwaukie", "ncessch": "410883000092"}, {"name": "North Douglas Elementary School", "lat": 43.661795, "lon": -123.309182, "proficiency": 0.182, "district": "North Douglas SD 22", "city": "Drain", "ncessch": "410435000316"}, {"name": "North Lake School", "lat": 43.245033, "lon": -120.9026, "proficiency": 0.063, "district": "North Lake SD 14", "city": "Silver Lake", "ncessch": "411140001381"}, {"name": "North Marion Middle School", "lat": 45.2131, "lon": -122.7956, "proficiency": 0.23, "district": "North Marion SD 15", "city": "Aurora", "ncessch": "410888001326"}, {"name": "North Powder Charter School", "lat": 45.027839, "lon": -117.924624, "proficiency": 0.474, "district": "North Powder SD 8J", "city": "North Powder", "ncessch": "410894001135"}, {"name": "Mari-Linn Elementary School", "lat": 44.7793, "lon": -122.6168, "proficiency": 0.471, "district": "North Santiam SD 29J", "city": "Lyons", "ncessch": "410002000693"}, {"name": "Stayton Middle School", "lat": 44.8107, "lon": -122.8038, "proficiency": 0.14, "district": "North Santiam SD 29J", "city": "Stayton", "ncessch": "410002000834"}, {"name": "Sublimity Elementary School", "lat": 44.8305, "lon": -122.787, "proficiency": 0.433, "district": "North Santiam SD 29J", "city": "Sublimity", "ncessch": "410002000765"}, {"name": "Innovations Academy", "lat": 45.625329, "lon": -121.225334, "proficiency": 0.05, "district": "North Wasco County SD 21", "city": "The Dalles", "ncessch": "410004801833"}, {"name": "Mosier Community School", "lat": 45.6829, "lon": -121.4005, "proficiency": 0.067, "district": "North Wasco County SD 21", "city": "Mosier", "ncessch": "410004801153"}, {"name": "The Dalles Middle School", "lat": 45.592431, "lon": -121.175635, "proficiency": 0.166, "district": "North Wasco County SD 21", "city": "The Dalles", "ncessch": "410004801158"}, {"name": "Nyssa Middle School", "lat": 43.8755, "lon": -117.0068, "proficiency": 0.152, "district": "Nyssa SD 26", "city": "Nyssa", "ncessch": "410900000751"}, {"name": "Nyssa Virtual School", "lat": 43.875331, "lon": -117.003507, "proficiency": 0.583, "district": "Nyssa SD 26", "city": "Nyssa", "ncessch": "410900011355"}, {"name": "Lincoln Middle School", "lat": 43.4306, "lon": -123.2985, "proficiency": 0.345, "district": "Oakland SD 1", "city": "Oakland", "ncessch": "410912000285"}, {"name": "Oakridge Junior High School", "lat": 43.748734, "lon": -122.469007, "proficiency": 0.188, "district": "Oakridge SD 76", "city": "Oakridge", "ncessch": "410915000636"}, {"name": "Ontario Middle School", "lat": 44.026252, "lon": -116.970085, "proficiency": 0.123, "district": "Ontario SD 8C", "city": "Ontario", "ncessch": "410927000745"}, {"name": "Alliance Charter Academy", "lat": 45.373679, "lon": -122.579232, "proficiency": 0.306, "district": "Oregon City SD 62", "city": "Oregon City", "ncessch": "410933001725"}, {"name": "Clackamas Academy of Industrial Sciences", "lat": 45.356162, "lon": -122.596816, "proficiency": 0.102, "district": "Oregon City SD 62", "city": "Oregon City", "ncessch": "410933001793"}, {"name": "Gardiner Middle School", "lat": 45.338373, "lon": -122.600754, "proficiency": 0.224, "district": "Oregon City SD 62", "city": "Oregon City", "ncessch": "410933000123"}, {"name": "Springwater Environmental Sciences School", "lat": 45.3668, "lon": -122.4668, "proficiency": 0.6, "district": "Oregon City SD 62", "city": "Oregon City", "ncessch": "410933001642"}, {"name": "Tumwata Middle School", "lat": 45.3561, "lon": -122.5765, "proficiency": 0.309, "district": "Oregon City SD 62", "city": "Oregon City", "ncessch": "410933000124"}, {"name": "Four Rivers Community School", "lat": 44.0244, "lon": -116.9959, "proficiency": 0.172, "district": "Oregon Department of Education", "city": "Ontario", "ncessch": "410000901592"}, {"name": "The Cottonwood School of Civics and Science", "lat": 45.492697, "lon": -122.67171, "proficiency": 0.455, "district": "Oregon Department of Education", "city": "Portland", "ncessch": "410000901734"}, {"name": "The Ivy School", "lat": 45.5622, "lon": -122.6818, "proficiency": 0.393, "district": "Oregon Department of Education", "city": "Portland", "ncessch": "410000901784"}, {"name": "Boring Middle School", "lat": 45.4323, "lon": -122.3773, "proficiency": 0.268, "district": "Oregon Trail SD 46", "city": "Sandy", "ncessch": "411089000104"}, {"name": "Cedar Ridge Middle School", "lat": 45.400089, "lon": -122.269391, "proficiency": 0.291, "district": "Oregon Trail SD 46", "city": "Sandy", "ncessch": "411089000108"}, {"name": "Oregon Trail  Academy", "lat": 45.45457, "lon": -122.289611, "proficiency": 0.682, "district": "Oregon Trail SD 46", "city": "Sandy", "ncessch": "411089001799"}, {"name": "Welches Middle School", "lat": 45.3434, "lon": -121.9487, "proficiency": 0.333, "district": "Oregon Trail SD 46", "city": "Sandy", "ncessch": "411089001453"}, {"name": "Paisley School", "lat": 42.693346, "lon": -120.542683, "proficiency": 0.333, "district": "Paisley SD 11", "city": "Paisley", "ncessch": "410943000521"}, {"name": "Parkrose Middle School", "lat": 45.550137, "lon": -122.540587, "proficiency": 0.088, "district": "Parkrose SD 3", "city": "Portland", "ncessch": "410948000986"}, {"name": "Sunridge Middle School", "lat": 45.6508, "lon": -118.7874, "proficiency": 0.299, "district": "Pendleton SD 16", "city": "Pendleton", "ncessch": "410951001327"}, {"name": "Perrydale School", "lat": 45.0417, "lon": -123.2572, "proficiency": 0.375, "district": "Perrydale SD 21", "city": "Amity", "ncessch": "410953001060"}, {"name": "Kings Valley Charter School", "lat": 44.6945, "lon": -123.4333, "proficiency": 0.25, "district": "Philomath SD 17J", "city": "Philomath", "ncessch": "410960000021"}, {"name": "Philomath Middle School", "lat": 44.535, "lon": -123.3561, "proficiency": 0.33, "district": "Philomath SD 17J", "city": "Philomath", "ncessch": "410960000023"}, {"name": "Talent Middle School", "lat": 42.240132, "lon": -122.794226, "proficiency": 0.185, "district": "Phoenix-Talent SD 4", "city": "Talent", "ncessch": "410963000393"}, {"name": "Pilot Rock High School", "lat": 45.482825, "lon": -118.830896, "proficiency": 0.5, "district": "Pilot Rock SD 2", "city": "Pilot Rock", "ncessch": "410966001086"}, {"name": "Pine Eagle Charter School", "lat": 44.8828, "lon": -117.1164, "proficiency": 0.389, "district": "Pine Eagle SD 61", "city": "Halfway", "ncessch": "410972000016"}, {"name": "Pleasant Hill High School", "lat": 43.957093, "lon": -122.91594, "proficiency": 0.219, "district": "Pleasant Hill SD 1", "city": "Pleasant Hill", "ncessch": "410987000529"}, {"name": "Driftwood Elementary School", "lat": 42.7485, "lon": -124.4969, "proficiency": 0.143, "district": "Port Orford-Langlois SD 2CJ", "city": "Port Orford", "ncessch": "411002000246"}, {"name": "Astor Elementary School", "lat": 45.5788, "lon": -122.7297, "proficiency": 0.367, "district": "Portland SD 1J", "city": "Portland", "ncessch": "411004000870"}, {"name": "Beaumont Middle School", "lat": 45.5489, "lon": -122.6208, "proficiency": 0.582, "district": "Portland SD 1J", "city": "Portland", "ncessch": "411004000874"}, {"name": "Beverly Cleary School", "lat": 45.5369, "lon": -122.6315, "proficiency": 0.684, "district": "Portland SD 1J", "city": "Portland", "ncessch": "411004000901"}, {"name": "Bridger Elementary School", "lat": 45.5106, "lon": -122.5821, "proficiency": 0.321, "district": "Portland SD 1J", "city": "Portland", "ncessch": "411004000877"}, {"name": "Cesar Chavez K-8 School", "lat": 45.5844, "lon": -122.7195, "proficiency": 0.109, "district": "Portland SD 1J", "city": "Portland", "ncessch": "411004000884"}, {"name": "da Vinci Middle School", "lat": 45.5246, "lon": -122.6402, "proficiency": 0.285, "district": "Portland SD 1J", "city": "Portland", "ncessch": "411004001079"}, {"name": "Faubion Elementary School", "lat": 45.570756, "lon": -122.634699, "proficiency": 0.14, "district": "Portland SD 1J", "city": "Portland", "ncessch": "411004000890"}, {"name": "George Middle School", "lat": 45.5961, "lon": -122.7367, "proficiency": 0.141, "district": "Portland SD 1J", "city": "Portland", "ncessch": "411004000893"}, {"name": "Gray Middle School", "lat": 45.4824, "lon": -122.7013, "proficiency": 0.524, "district": "Portland SD 1J", "city": "Portland", "ncessch": "411004000896"}, {"name": "Harriet Tubman Middle School", "lat": 45.539001, "lon": -122.668809, "proficiency": 0.342, "district": "Portland SD 1J", "city": "Portland", "ncessch": "411004001315"}, {"name": "Harrison Park School", "lat": 45.506762, "lon": -122.574963, "proficiency": 0.369, "district": "Portland SD 1J", "city": "Portland", "ncessch": "411004000885"}, {"name": "Hayhurst Elementary School", "lat": 45.4804, "lon": -122.729, "proficiency": 0.667, "district": "Portland SD 1J", "city": "Portland", "ncessch": "411004000899"}, {"name": "Hosford Middle School", "lat": 45.5062, "lon": -122.6371, "proficiency": 0.472, "district": "Portland SD 1J", "city": "Portland", "ncessch": "411004000902"}, {"name": "Jackson Middle School", "lat": 45.448557, "lon": -122.714215, "proficiency": 0.551, "district": "Portland SD 1J", "city": "Portland", "ncessch": "411004001365"}, {"name": "Kellogg Middle School", "lat": 45.498264, "lon": -122.591499, "proficiency": 0.342, "district": "Portland SD 1J", "city": "Portland", "ncessch": "411004001922"}, {"name": "Lane Middle School", "lat": 45.4713, "lon": -122.6016, "proficiency": 0.149, "district": "Portland SD 1J", "city": "Portland", "ncessch": "411004000912"}, {"name": "Laurelhurst Elementary School", "lat": 45.5291, "lon": -122.6198, "proficiency": 0.65, "district": "Portland SD 1J", "city": "Portland", "ncessch": "411004000913"}, {"name": "Le Monde French Immersion Public Charter School", "lat": 45.522606, "lon": -122.644656, "proficiency": 0.765, "district": "Portland SD 1J", "city": "Portland", "ncessch": "411004001814"}, {"name": "Metropolitan Learning Center", "lat": 45.5266, "lon": -122.6933, "proficiency": 0.412, "district": "Portland SD 1J", "city": "Portland", "ncessch": "411004000967"}, {"name": "Mt Tabor Middle School", "lat": 45.521059, "lon": -122.604261, "proficiency": 0.643, "district": "Portland SD 1J", "city": "Portland", "ncessch": "411004000922"}, {"name": "Ockley Green Middle School", "lat": 45.567, "lon": -122.6807, "proficiency": 0.274, "district": "Portland SD 1J", "city": "Portland", "ncessch": "411004000925"}, {"name": "Portland Village School", "lat": 45.5786, "lon": -122.6919, "proficiency": 0.565, "district": "Portland SD 1J", "city": "Portland", "ncessch": "411004001649"}, {"name": "Roseway Heights School", "lat": 45.544, "lon": -122.5876, "proficiency": 0.213, "district": "Portland SD 1J", "city": "Portland", "ncessch": "411004000932"}, {"name": "Sellwood Middle School", "lat": 45.4626, "lon": -122.6506, "proficiency": 0.6, "district": "Portland SD 1J", "city": "Portland", "ncessch": "411004000936"}, {"name": "Skyline Elementary School", "lat": 45.6077, "lon": -122.856472, "proficiency": 0.81, "district": "Portland SD 1J", "city": "Portland", "ncessch": "411004000938"}, {"name": "Sunnyside Environmental School", "lat": 45.5146, "lon": -122.6289, "proficiency": 0.345, "district": "Portland SD 1J", "city": "Portland", "ncessch": "411004000941"}, {"name": "Vernon Elementary School", "lat": 45.5624, "lon": -122.6439, "proficiency": 0.533, "district": "Portland SD 1J", "city": "Portland", "ncessch": "411004000944"}, {"name": "West Sylvan Middle School", "lat": 45.504712, "lon": -122.760447, "proficiency": 0.659, "district": "Portland SD 1J", "city": "Portland", "ncessch": "411004000947"}, {"name": "Winterhaven School", "lat": 45.4949, "lon": -122.6509, "proficiency": 0.878, "district": "Portland SD 1J", "city": "Portland", "ncessch": "411004001102"}, {"name": "Oregon Connections Academy", "lat": 44.456003, "lon": -118.709161, "proficiency": 0.33, "district": "Prairie City SD 4", "city": "Prairie City", "ncessch": "411011001895"}, {"name": "Prairie City School", "lat": 44.456003, "lon": -118.709161, "proficiency": 0.133, "district": "Prairie City SD 4", "city": "Prairie City", "ncessch": "411011000352"}, {"name": "Virtual Preparatory Academy of Oregon", "lat": 44.456003, "lon": -118.709161, "proficiency": 0.063, "district": "Prairie City SD 4", "city": "Prairie City", "ncessch": "411011011352"}, {"name": "Prospect Charter School", "lat": 42.753469, "lon": -122.489501, "proficiency": 0.2, "district": "Prospect SD 59", "city": "Prospect", "ncessch": "411020000111"}, {"name": "Rainier Jr/Sr High School", "lat": 46.0921, "lon": -122.9898, "proficiency": 0.176, "district": "Rainier SD 13", "city": "Rainier", "ncessch": "410326500184"}, {"name": "Elton Gregory Middle School", "lat": 44.304605, "lon": -121.18161, "proficiency": 0.211, "district": "Redmond SD 2J", "city": "Redmond", "ncessch": "411035000647"}, {"name": "Obsidian Middle School", "lat": 44.2633, "lon": -121.1824, "proficiency": 0.361, "district": "Redmond SD 2J", "city": "Redmond", "ncessch": "411035000281"}, {"name": "Redmond Proficiency Academy", "lat": 44.270791, "lon": -121.175058, "proficiency": 0.151, "district": "Redmond SD 2J", "city": "Redmond", "ncessch": "411035001785"}, {"name": "Reedsport Community Charter School", "lat": 43.69403, "lon": -124.123728, "proficiency": 0.103, "district": "Reedsport SD 105", "city": "Reedsport", "ncessch": "411041000330"}, {"name": "Multnomah Learning Academy", "lat": 45.53599, "lon": -122.430931, "proficiency": 0.099, "district": "Reynolds SD 7", "city": "Fairview", "ncessch": "411052001434"}, {"name": "Walt Morey Middle School", "lat": 45.5228, "lon": -122.407, "proficiency": 0.261, "district": "Reynolds SD 7", "city": "Troutdale", "ncessch": "411052001397"}, {"name": "Riddle High School", "lat": 42.949073, "lon": -123.363605, "proficiency": 0.059, "district": "Riddle SD 70", "city": "Riddle", "ncessch": "411053000325"}, {"name": "Riverdale Grade School", "lat": 45.43996, "lon": -122.655996, "proficiency": 0.854, "district": "Riverdale SD 51J", "city": "Portland", "ncessch": "411056001039"}, {"name": "Rivers Edge Academy Charter School", "lat": 42.43886, "lon": -123.173341, "proficiency": 0.182, "district": "Rogue River SD 35", "city": "Rogue River", "ncessch": "411068001811"}, {"name": "Rogue River Junior/Senior High", "lat": 42.456179, "lon": -123.168186, "proficiency": 0.149, "district": "Rogue River SD 35", "city": "Rogue River", "ncessch": "411068000421"}, {"name": "Claggett Creek Middle School", "lat": 44.9847, "lon": -123.0113, "proficiency": 0.216, "district": "Salem-Keizer SD 24J", "city": "Keizer", "ncessch": "411082001440"}, {"name": "Crossler Middle School", "lat": 44.8745, "lon": -123.0636, "proficiency": 0.243, "district": "Salem-Keizer SD 24J", "city": "Salem", "ncessch": "411082000659"}, {"name": "Houck Middle School", "lat": 44.9158, "lon": -122.9715, "proficiency": 0.104, "district": "Salem-Keizer SD 24J", "city": "Salem", "ncessch": "411082000664"}, {"name": "Howard Street Charter", "lat": 44.944155, "lon": -123.032499, "proficiency": 0.604, "district": "Salem-Keizer SD 24J", "city": "Salem", "ncessch": "411082001048"}, {"name": "Jane Goodall Environmental Middle Charter School", "lat": 44.965793, "lon": -123.022181, "proficiency": 0.379, "district": "Salem-Keizer SD 24J", "city": "Salem", "ncessch": "411082001536"}, {"name": "Judson Middle School", "lat": 44.88939, "lon": -123.045062, "proficiency": 0.322, "district": "Salem-Keizer SD 24J", "city": "Salem", "ncessch": "411082000811"}, {"name": "Leslie Middle School", "lat": 44.9004, "lon": -123.0235, "proficiency": 0.254, "district": "Salem-Keizer SD 24J", "city": "Salem", "ncessch": "411082000812"}, {"name": "Parrish Middle School", "lat": 44.9455, "lon": -123.0242, "proficiency": 0.16, "district": "Salem-Keizer SD 24J", "city": "Salem", "ncessch": "411082000813"}, {"name": "Stephens Middle School", "lat": 44.9903, "lon": -122.96, "proficiency": 0.127, "district": "Salem-Keizer SD 24J", "city": "Salem", "ncessch": "411082000668"}, {"name": "Straub Middle School", "lat": 44.9622, "lon": -123.0762, "proficiency": 0.321, "district": "Salem-Keizer SD 24J", "city": "Salem", "ncessch": "411082001805"}, {"name": "Waldo Middle School", "lat": 44.961842, "lon": -122.998819, "proficiency": 0.16, "district": "Salem-Keizer SD 24J", "city": "Salem", "ncessch": "411082000814"}, {"name": "Walker Middle School", "lat": 44.947331, "lon": -123.059621, "proficiency": 0.38, "district": "Salem-Keizer SD 24J", "city": "Salem", "ncessch": "411082000815"}, {"name": "Whiteaker Middle School", "lat": 45.0073, "lon": -123.0112, "proficiency": 0.29, "district": "Salem-Keizer SD 24J", "city": "Keizer", "ncessch": "411082000816"}, {"name": "Oregon Charter Academy", "lat": 44.75759, "lon": -122.487161, "proficiency": 0.31, "district": "Santiam Canyon SD 129J", "city": "Mill City", "ncessch": "410810001680"}, {"name": "Santiam Junior/Senior High School", "lat": 44.752585, "lon": -122.480166, "proficiency": 0.073, "district": "Santiam Canyon SD 129J", "city": "Mill City", "ncessch": "410810000724"}, {"name": "Sauvie Island School", "lat": 45.6555, "lon": -122.8257, "proficiency": 0.696, "district": "Scappoose SD 1J", "city": "Portland", "ncessch": "411098001011"}, {"name": "Scappoose Middle School", "lat": 45.7536, "lon": -122.8788, "proficiency": 0.287, "district": "Scappoose SD 1J", "city": "Scappoose", "ncessch": "411098000171"}, {"name": "Scio Middle School", "lat": 44.705101, "lon": -122.850789, "proficiency": 0.159, "district": "Scio SD 95", "city": "Scio", "ncessch": "411104000717"}, {"name": "Willamette Connections Academy", "lat": 44.705894, "lon": -122.852482, "proficiency": 0.355, "district": "Scio SD 95", "city": "Scio", "ncessch": "411104001876"}, {"name": "Seaside Middle School", "lat": 45.986894, "lon": -123.900423, "proficiency": 0.173, "district": "Seaside SD 10", "city": "Seaside", "ncessch": "411110000159"}, {"name": "Faulconer-Chapman School", "lat": 45.092112, "lon": -123.40176, "proficiency": 0.089, "district": "Sheridan SD 48J", "city": "Sheridan", "ncessch": "411122001285"}, {"name": "Sheridan AllPrep Academy", "lat": 45.101437, "lon": -123.398661, "proficiency": 0.286, "district": "Sheridan SD 48J", "city": "Sheridan", "ncessch": "411122001803"}, {"name": "Sherman County School", "lat": 45.4739, "lon": -120.7416, "proficiency": 0.214, "district": "Sherman County SD", "city": "Moro", "ncessch": "411125001068"}, {"name": "Sherwood Charter School", "lat": 45.351814, "lon": -122.840914, "proficiency": 0.65, "district": "Sherwood SD 88J", "city": "Sherwood", "ncessch": "411129001684"}, {"name": "Sherwood Middle School", "lat": 45.356852, "lon": -122.850796, "proficiency": 0.503, "district": "Sherwood SD 88J", "city": "Sherwood", "ncessch": "411129001245"}, {"name": "Bethany Charter School", "lat": 45.0118, "lon": -122.819, "proficiency": 0.429, "district": "Silver Falls SD 4J", "city": "Silverton", "ncessch": "411145000829"}, {"name": "Butte Creek Elementary School", "lat": 45.0634, "lon": -122.6989, "proficiency": 0.217, "district": "Silver Falls SD 4J", "city": "Mt Angel", "ncessch": "411145000127"}, {"name": "Central Howell Elementary School", "lat": 44.9909, "lon": -122.8799, "proficiency": 0.286, "district": "Silver Falls SD 4J", "city": "Silverton", "ncessch": "411145000852"}, {"name": "Silver Crest Elementary School", "lat": 44.9264, "lon": -122.6667, "proficiency": 0.412, "district": "Silver Falls SD 4J", "city": "Silverton", "ncessch": "411145000840"}, {"name": "Silverton Middle School", "lat": 45.012466, "lon": -122.78909, "proficiency": 0.225, "district": "Silver Falls SD 4J", "city": "Silverton", "ncessch": "411145000763"}, {"name": "Victor Point Elementary School", "lat": 44.9159, "lon": -122.756, "proficiency": 0.519, "district": "Silver Falls SD 4J", "city": "Silverton", "ncessch": "411145000822"}, {"name": "Sisters Middle School", "lat": 44.2928, "lon": -121.5713, "proficiency": 0.432, "district": "Sisters SD 6", "city": "Sisters", "ncessch": "411149000943"}, {"name": "Siuslaw Middle School", "lat": 43.9885, "lon": -124.1047, "proficiency": 0.203, "district": "Siuslaw SD 97J", "city": "Florence", "ncessch": "410510000643"}, {"name": "Academy for Character Education", "lat": 43.798655, "lon": -123.062187, "proficiency": 0.4, "district": "South Lane SD 45J3", "city": "Cottage Grove", "ncessch": "411158001727"}, {"name": "Lincoln Middle School", "lat": 43.7842, "lon": -123.0655, "proficiency": 0.203, "district": "South Lane SD 45J3", "city": "Cottage Grove", "ncessch": "411158000614"}, {"name": "Canyonville School", "lat": 42.9281, "lon": -123.2804, "proficiency": 0.214, "district": "South Umpqua SD 19", "city": "Canyonville", "ncessch": "411161000309"}, {"name": "Coffenberry Middle School", "lat": 43.0294, "lon": -123.2816, "proficiency": 0.055, "district": "South Umpqua SD 19", "city": "Myrtle Creek", "ncessch": "411161000311"}, {"name": "South Wasco County High School", "lat": 45.1774, "lon": -121.0814, "proficiency": 0.067, "district": "South Wasco County SD 1", "city": "Maupin", "ncessch": "410002101167"}, {"name": "Agnes Stewart Middle School", "lat": 44.0372, "lon": -122.9823, "proficiency": 0.268, "district": "Springfield SD 19", "city": "Springfield", "ncessch": "411167000977"}, {"name": "Briggs Middle School", "lat": 44.0717, "lon": -122.9903, "proficiency": 0.333, "district": "Springfield SD 19", "city": "Springfield", "ncessch": "411167000590"}, {"name": "Hamlin Middle School", "lat": 44.059103, "lon": -123.021522, "proficiency": 0.141, "district": "Springfield SD 19", "city": "Springfield", "ncessch": "411167000591"}, {"name": "Thurston Middle School", "lat": 44.0543, "lon": -122.9164, "proficiency": 0.353, "district": "Springfield SD 19", "city": "Springfield", "ncessch": "411167000593"}, {"name": "St Helens Middle School", "lat": 45.8635, "lon": -122.8133, "proficiency": 0.195, "district": "St Helens SD 502", "city": "St Helens", "ncessch": "411172000195"}, {"name": "St Paul High School", "lat": 45.213948, "lon": -122.975433, "proficiency": 0.533, "district": "St Paul SD 45", "city": "St Paul", "ncessch": "411176000824"}, {"name": "Stanfield Secondary School", "lat": 45.79, "lon": -119.2242, "proficiency": 0.061, "district": "Stanfield SD 61", "city": "Stanfield", "ncessch": "411179001120"}, {"name": "Sutherlin Middle School", "lat": 43.3955, "lon": -123.3057, "proficiency": 0.239, "district": "Sutherlin SD 130", "city": "Sutherlin", "ncessch": "411194000339"}, {"name": "Sweet Home Junior High School", "lat": 44.393837, "lon": -122.719463, "proficiency": 0.24, "district": "Sweet Home SD 55", "city": "Sweet Home", "ncessch": "411197000707"}, {"name": "Fleming Middle School", "lat": 42.507114, "lon": -123.374053, "proficiency": 0.225, "district": "Three Rivers/Josephine County SD", "city": "Grants Pass", "ncessch": "410690000466"}, {"name": "Lincoln Savage Middle School", "lat": 42.348379, "lon": -123.334555, "proficiency": 0.162, "district": "Three Rivers/Josephine County SD", "city": "Grants Pass", "ncessch": "410690000470"}, {"name": "Lorna Byrne Middle School", "lat": 42.167, "lon": -123.6433, "proficiency": 0.188, "district": "Three Rivers/Josephine County SD", "city": "Cave Junction", "ncessch": "410690000471"}, {"name": "Woodland Charter School", "lat": 42.331386, "lon": -123.3323, "proficiency": 0.091, "district": "Three Rivers/Josephine County SD", "city": "Murphy", "ncessch": "410690001812"}, {"name": "Hazelbrook Middle School", "lat": 45.3924, "lon": -122.793, "proficiency": 0.195, "district": "Tigard-Tualatin SD 23J", "city": "Tualatin", "ncessch": "411224000381"}, {"name": "Thomas R Fowler Middle School", "lat": 45.4317, "lon": -122.7891, "proficiency": 0.354, "district": "Tigard-Tualatin SD 23J", "city": "Tigard", "ncessch": "411224001196"}, {"name": "Twality Middle School", "lat": 45.4141, "lon": -122.7751, "proficiency": 0.337, "district": "Tigard-Tualatin SD 23J", "city": "Tigard", "ncessch": "411224001197"}, {"name": "Tillamook Junior High School", "lat": 45.4549, "lon": -123.82, "proficiency": 0.304, "district": "Tillamook SD 9", "city": "Tillamook", "ncessch": "411232001074"}, {"name": "Clara Brownell Middle School", "lat": 45.917, "lon": -119.338, "proficiency": 0.069, "district": "Umatilla SD 6R", "city": "Umatilla", "ncessch": "411260001090"}, {"name": "Union High School", "lat": 45.206, "lon": -117.8661, "proficiency": 0.286, "district": "Union SD 5", "city": "Union", "ncessch": "411269001133"}, {"name": "Vale Middle School", "lat": 43.978893, "lon": -117.252461, "proficiency": 0.492, "district": "Vale SD 84", "city": "Vale", "ncessch": "410001401026"}, {"name": "Vernonia Middle School", "lat": 45.860734, "lon": -123.178762, "proficiency": 0.235, "district": "Vernonia SD 47J", "city": "Vernonia", "ncessch": "411293001673"}, {"name": "Wallowa Middle School", "lat": 45.570667, "lon": -117.532785, "proficiency": 0.333, "district": "Wallowa SD 12", "city": "Wallowa", "ncessch": "411299011359"}, {"name": "Warrenton Middle School", "lat": 46.14072, "lon": -123.915748, "proficiency": 0.203, "district": "Warrenton-Hammond SD 30", "city": "Warrenton", "ncessch": "411308001899"}, {"name": "Athey Creek Middle School", "lat": 45.3783, "lon": -122.7057, "proficiency": 0.524, "district": "West Linn-Wilsonville SD 3J", "city": "Tualatin", "ncessch": "411317000056"}, {"name": "Inza R Wood Middle School", "lat": 45.3016, "lon": -122.7929, "proficiency": 0.36, "district": "West Linn-Wilsonville SD 3J", "city": "Wilsonville", "ncessch": "411317001318"}, {"name": "Meridian Creek Middle School", "lat": 45.315108, "lon": -122.74119, "proficiency": 0.339, "district": "West Linn-Wilsonville SD 3J", "city": "Wilsonville", "ncessch": "411317001851"}, {"name": "Rosemont Ridge Middle School", "lat": 45.3691, "lon": -122.6477, "proficiency": 0.517, "district": "West Linn-Wilsonville SD 3J", "city": "West Linn", "ncessch": "411317001414"}, {"name": "Three Rivers Charter School", "lat": 45.367225, "lon": -122.703084, "proficiency": 0.65, "district": "West Linn-Wilsonville SD 3J", "city": "West Linn", "ncessch": "411317001437"}, {"name": "Willamina Middle School", "lat": 45.08569, "lon": -123.475317, "proficiency": 0.083, "district": "Willamina SD 30J", "city": "Willamina", "ncessch": "411335001338"}, {"name": "Winston Middle School", "lat": 43.11462, "lon": -123.408938, "proficiency": 0.125, "district": "Winston-Dillard SD 116", "city": "Winston", "ncessch": "411349000335"}, {"name": "French Prairie Middle School", "lat": 45.1504, "lon": -122.8604, "proficiency": 0.059, "district": "Woodburn SD 103", "city": "Woodburn", "ncessch": "411353000844"}, {"name": "Valor Middle School", "lat": 45.135237, "lon": -122.872319, "proficiency": 0.096, "district": "Woodburn SD 103", "city": "Woodburn", "ncessch": "411353001052"}, {"name": "Yamhill Carlton Intermediate School", "lat": 45.341875, "lon": -123.185773, "proficiency": 0.229, "district": "Yamhill Carlton SD 1", "city": "Yamhill", "ncessch": "410001601730"}, {"name": "Yoncalla Elementary School", "lat": 43.6012, "lon": -123.286, "proficiency": 0.176, "district": "Yoncalla SD 32", "city": "Yoncalla", "ncessch": "411365000319"}], "districts": [{"name": "Adrian SD 61", "lat": 43.7418, "lon": -117.069981, "proficiency": 0.773, "schoolCount": 1}, {"name": "Alsea SD 7J", "lat": 44.380855, "lon": -123.594658, "proficiency": 0.083, "schoolCount": 1}, {"name": "Amity SD 4J", "lat": 45.1135, "lon": -123.2052, "proficiency": 0.082, "schoolCount": 1}, {"name": "Ashland SD 5", "lat": 42.1929775, "lon": -122.6873215, "proficiency": 0.4535, "schoolCount": 2}, {"name": "Astoria SD 1", "lat": 46.1793, "lon": -123.831, "proficiency": 0.283, "schoolCount": 1}, {"name": "Athena-Weston SD 29RJ", "lat": 45.8128, "lon": -118.4221, "proficiency": 0.415, "schoolCount": 1}, {"name": "Baker SD 5J", "lat": 44.780839, "lon": -117.8365365, "proficiency": 0.328, "schoolCount": 2}, {"name": "Bandon SD 54", "lat": 43.1157, "lon": -124.4194, "proficiency": 0.395, "schoolCount": 1}, {"name": "Banks SD 13", "lat": 45.614125, "lon": -123.113699, "proficiency": 0.281, "schoolCount": 1}, {"name": "Beaverton SD 48J", "lat": 45.50104171428571, "lon": -122.82824842857143, "proficiency": 0.3574, "schoolCount": 14}, {"name": "Bend-LaPine Administrative SD 1", "lat": 44.005650100000004, "lon": -121.339805, "proficiency": 0.3702, "schoolCount": 10}, {"name": "Bethel SD 52", "lat": 44.07895, "lon": -123.183825, "proficiency": 0.2132, "schoolCount": 4}, {"name": "Blachly SD 90", "lat": 44.195198, "lon": -123.546086, "proficiency": 0.053, "schoolCount": 1}, {"name": "Brookings-Harbor SD 17C", "lat": 42.0564, "lon": -124.2813, "proficiency": 0.19, "schoolCount": 1}, {"name": "Camas Valley SD 21J", "lat": 43.03457, "lon": -123.675068, "proficiency": 0.357, "schoolCount": 1}, {"name": "Canby SD 86", "lat": 45.2172, "lon": -122.70885, "proficiency": 0.306, "schoolCount": 2}, {"name": "Cascade SD 5", "lat": 44.8081, "lon": -122.9165, "proficiency": 0.362, "schoolCount": 1}, {"name": "Centennial SD 28J", "lat": 45.5015, "lon": -122.4793, "proficiency": 0.204, "schoolCount": 1}, {"name": "Central Curry SD 1", "lat": 42.4079, "lon": -124.4218, "proficiency": 0.114, "schoolCount": 1}, {"name": "Central Linn SD 552", "lat": 44.3903, "lon": -123.0877, "proficiency": 0.148, "schoolCount": 1}, {"name": "Central Point SD 6", "lat": 42.410399999999996, "lon": -122.9886, "proficiency": 0.283, "schoolCount": 2}, {"name": "Central SD 13J", "lat": 44.855049, "lon": -123.210881, "proficiency": 0.125, "schoolCount": 1}, {"name": "Clatskanie SD 6J", "lat": 46.100923, "lon": -123.211326, "proficiency": 0.17, "schoolCount": 1}, {"name": "Colton SD 53", "lat": 45.1656, "lon": -122.423, "proficiency": 0.207, "schoolCount": 1}, {"name": "Coos Bay SD 9", "lat": 43.357608, "lon": -124.2099965, "proficiency": 0.259, "schoolCount": 2}, {"name": "Coquille SD 8", "lat": 43.1880165, "lon": -124.194977, "proficiency": 0.1545, "schoolCount": 2}, {"name": "Corbett SD 39", "lat": 45.530096, "lon": -122.295176, "proficiency": 0.239, "schoolCount": 1}, {"name": "Corvallis SD 509J", "lat": 44.587374000000004, "lon": -123.25815133333333, "proficiency": 0.4887, "schoolCount": 3}, {"name": "Cove SD 15", "lat": 45.296512, "lon": -117.809132, "proficiency": 0.304, "schoolCount": 1}, {"name": "Creswell SD 40", "lat": 43.916712, "lon": -123.026539, "proficiency": 0.296, "schoolCount": 1}, {"name": "Crook County SD", "lat": 44.274058, "lon": -120.92541600000001, "proficiency": 0.2855, "schoolCount": 2}, {"name": "Crow-Applegate-Lorane SD 66", "lat": 43.990458, "lon": -123.336631, "proficiency": 0.4, "schoolCount": 1}, {"name": "Dallas SD 2", "lat": 44.86127666666667, "lon": -123.35826033333335, "proficiency": 0.2263, "schoolCount": 3}, {"name": "David Douglas SD 40", "lat": 45.49708566666667, "lon": -122.54532833333333, "proficiency": 0.264, "schoolCount": 3}, {"name": "Dayton SD 8", "lat": 45.2162, "lon": -123.0848, "proficiency": 0.127, "schoolCount": 1}, {"name": "Douglas County SD 15", "lat": 42.96997, "lon": -123.16616, "proficiency": 0.231, "schoolCount": 1}, {"name": "Douglas County SD 4", "lat": 43.2234055, "lon": -123.358614, "proficiency": 0.2825, "schoolCount": 2}, {"name": "Dufur SD 29", "lat": 45.455037, "lon": -121.123466, "proficiency": 0.071, "schoolCount": 1}, {"name": "Eagle Point SD 9", "lat": 42.463233, "lon": -122.8118265, "proficiency": 0.132, "schoolCount": 4}, {"name": "Echo SD 5", "lat": 45.740058, "lon": -119.189719, "proficiency": 0.435, "schoolCount": 1}, {"name": "Elkton SD 34", "lat": 43.638147, "lon": -123.570246, "proficiency": 0.286, "schoolCount": 1}, {"name": "Enterprise SD 21", "lat": 45.4249, "lon": -117.272, "proficiency": 0.333, "schoolCount": 1}, {"name": "Estacada SD 108", "lat": 45.327645000000004, "lon": -122.34283049999999, "proficiency": 0.2595, "schoolCount": 2}, {"name": "Eugene SD 4J", "lat": 44.05908972727273, "lon": -123.098695, "proficiency": 0.4066, "schoolCount": 11}, {"name": "Falls City SD 57", "lat": 44.8677, "lon": -123.4323, "proficiency": 0.091, "schoolCount": 1}, {"name": "Fern Ridge SD 28J", "lat": 44.0687, "lon": -123.353, "proficiency": 0.158, "schoolCount": 1}, {"name": "Forest Grove SD 15", "lat": 45.5176685, "lon": -123.093992, "proficiency": 0.2525, "schoolCount": 2}, {"name": "Fossil SD 21J", "lat": 45.001485, "lon": -120.213335, "proficiency": 0.368, "schoolCount": 1}, {"name": "Gaston SD 511J", "lat": 45.4355, "lon": -123.1439, "proficiency": 0.167, "schoolCount": 1}, {"name": "Gervais SD 1", "lat": 45.103694, "lon": -122.893841, "proficiency": 0.183, "schoolCount": 1}, {"name": "Gladstone SD 115", "lat": 45.3941, "lon": -122.5867, "proficiency": 0.304, "schoolCount": 1}, {"name": "Glide SD 12", "lat": 43.300504, "lon": -123.095721, "proficiency": 0.224, "schoolCount": 1}, {"name": "Grants Pass SD 7", "lat": 42.433645000000006, "lon": -123.31994466666667, "proficiency": 0.238, "schoolCount": 3}, {"name": "Greater Albany Public SD 8J", "lat": 44.635055, "lon": -123.09023175, "proficiency": 0.2998, "schoolCount": 4}, {"name": "Gresham-Barlow SD 10J", "lat": 45.472828285714286, "lon": -122.41117842857143, "proficiency": 0.2313, "schoolCount": 7}, {"name": "Harney County SD 3", "lat": 43.5632, "lon": -119.0876, "proficiency": 0.086, "schoolCount": 1}, {"name": "Harney County SD 4", "lat": 43.7527985, "lon": -119.91178049999999, "proficiency": 0.4225, "schoolCount": 2}, {"name": "Harney County Union High SD 1J", "lat": 43.416789, "lon": -118.574915, "proficiency": 0.292, "schoolCount": 1}, {"name": "Harper SD 66", "lat": 43.865609, "lon": -117.608259, "proficiency": 0.294, "schoolCount": 1}, {"name": "Harrisburg SD 7J", "lat": 44.271653, "lon": -123.165656, "proficiency": 0.172, "schoolCount": 1}, {"name": "Hermiston SD 8", "lat": 45.8350465, "lon": -119.285899, "proficiency": 0.2495, "schoolCount": 2}, {"name": "Hillsboro SD 1J", "lat": 45.51976533333333, "lon": -122.95218966666668, "proficiency": 0.3492, "schoolCount": 6}, {"name": "Hood River County SD", "lat": 45.670950000000005, "lon": -121.5421, "proficiency": 0.239, "schoolCount": 2}, {"name": "Imbler SD 11", "lat": 45.462454, "lon": -117.96549, "proficiency": 0.522, "schoolCount": 1}, {"name": "Jefferson County SD 509J", "lat": 44.6342, "lon": -121.1056, "proficiency": 0.133, "schoolCount": 1}, {"name": "Joseph SD 6", "lat": 45.352658, "lon": -117.222877, "proficiency": 0.316, "schoolCount": 1}, {"name": "Junction City SD 69", "lat": 44.2265, "lon": -123.215, "proficiency": 0.336, "schoolCount": 1}, {"name": "Klamath County SD", "lat": 42.230121249999996, "lon": -121.696551, "proficiency": 0.2505, "schoolCount": 4}, {"name": "Klamath Falls City Schools", "lat": 42.2279, "lon": -121.7612, "proficiency": 0.217, "schoolCount": 1}, {"name": "Knappa SD 4", "lat": 46.163278, "lon": -123.625124, "proficiency": 0.143, "schoolCount": 1}, {"name": "La Grande SD 1", "lat": 45.3217, "lon": -118.0973, "proficiency": 0.223, "schoolCount": 1}, {"name": "Lake County SD 7", "lat": 42.186276, "lon": -120.350243, "proficiency": 0.241, "schoolCount": 1}, {"name": "Lake Oswego SD 7J", "lat": 45.4097, "lon": -122.7141, "proficiency": 0.6205, "schoolCount": 2}, {"name": "Lebanon Community SD 9", "lat": 44.52248175, "lon": -122.8346855, "proficiency": 0.3593, "schoolCount": 4}, {"name": "Lincoln County SD", "lat": 44.66227766666666, "lon": -123.95762983333333, "proficiency": 0.1152, "schoolCount": 6}, {"name": "Lowell SD 71", "lat": 43.917321, "lon": -122.78195, "proficiency": 0.1435, "schoolCount": 2}, {"name": "Marcola SD 79J", "lat": 44.008957, "lon": -123.034206, "proficiency": 0.462, "schoolCount": 1}, {"name": "McKenzie SD 68", "lat": 44.152514, "lon": -122.362797, "proficiency": 0.611, "schoolCount": 1}, {"name": "McMinnville SD 40", "lat": 45.2174, "lon": -123.19785, "proficiency": 0.445, "schoolCount": 2}, {"name": "Medford SD 549C", "lat": 42.32027057142857, "lon": -122.90561928571428, "proficiency": 0.3153, "schoolCount": 7}, {"name": "Milton-Freewater Unified SD 7", "lat": 45.933319, "lon": -118.392221, "proficiency": 0.125, "schoolCount": 1}, {"name": "Mitchell SD 55", "lat": 44.30323, "lon": -120.853255, "proficiency": 0.239, "schoolCount": 2}, {"name": "Molalla River SD 35", "lat": 45.136069, "lon": -122.55557250000001, "proficiency": 0.2825, "schoolCount": 2}, {"name": "Monroe SD 1J", "lat": 44.3122, "lon": -123.2985, "proficiency": 0.12, "schoolCount": 1}, {"name": "Morrow SD 1", "lat": 45.696993666666664, "lon": -119.58697933333333, "proficiency": 0.188, "schoolCount": 3}, {"name": "Mt Angel SD 91", "lat": 45.0724, "lon": -122.7936, "proficiency": 0.31, "schoolCount": 1}, {"name": "Neah-Kah-Nie SD 56", "lat": 45.639921, "lon": -123.939006, "proficiency": 0.379, "schoolCount": 1}, {"name": "Nestucca Valley SD 101J", "lat": 45.18821, "lon": -123.903957, "proficiency": 0.156, "schoolCount": 1}, {"name": "Newberg SD 29J", "lat": 45.31975, "lon": -122.96715, "proficiency": 0.4095, "schoolCount": 2}, {"name": "North Bend SD 13", "lat": 43.4027345, "lon": -124.2272255, "proficiency": 0.298, "schoolCount": 2}, {"name": "North Clackamas SD 12", "lat": 45.4273465, "lon": -122.56834500000001, "proficiency": 0.2652, "schoolCount": 6}, {"name": "North Douglas SD 22", "lat": 43.661795, "lon": -123.309182, "proficiency": 0.182, "schoolCount": 1}, {"name": "North Lake SD 14", "lat": 43.245033, "lon": -120.9026, "proficiency": 0.063, "schoolCount": 1}, {"name": "North Marion SD 15", "lat": 45.2131, "lon": -122.7956, "proficiency": 0.23, "schoolCount": 1}, {"name": "North Powder SD 8J", "lat": 45.027839, "lon": -117.924624, "proficiency": 0.474, "schoolCount": 1}, {"name": "North Santiam SD 29J", "lat": 44.80683333333334, "lon": -122.73586666666667, "proficiency": 0.348, "schoolCount": 3}, {"name": "North Wasco County SD 21", "lat": 45.63355333333333, "lon": -121.26715633333333, "proficiency": 0.0943, "schoolCount": 3}, {"name": "Nyssa SD 26", "lat": 43.8754155, "lon": -117.0051535, "proficiency": 0.3675, "schoolCount": 2}, {"name": "Oakland SD 1", "lat": 43.4306, "lon": -123.2985, "proficiency": 0.345, "schoolCount": 1}, {"name": "Oakridge SD 76", "lat": 43.748734, "lon": -122.469007, "proficiency": 0.188, "schoolCount": 1}, {"name": "Ontario SD 8C", "lat": 44.026252, "lon": -116.970085, "proficiency": 0.123, "schoolCount": 1}, {"name": "Oregon City SD 62", "lat": 45.3582228, "lon": -122.5640204, "proficiency": 0.3082, "schoolCount": 5}, {"name": "Oregon Department of Education", "lat": 45.02643233333333, "lon": -120.78313666666668, "proficiency": 0.34, "schoolCount": 3}, {"name": "Oregon Trail SD 46", "lat": 45.40758975, "lon": -122.2212505, "proficiency": 0.3935, "schoolCount": 4}, {"name": "Paisley SD 11", "lat": 42.693346, "lon": -120.542683, "proficiency": 0.333, "schoolCount": 1}, {"name": "Parkrose SD 3", "lat": 45.550137, "lon": -122.540587, "proficiency": 0.088, "schoolCount": 1}, {"name": "Pendleton SD 16", "lat": 45.6508, "lon": -118.7874, "proficiency": 0.299, "schoolCount": 1}, {"name": "Perrydale SD 21", "lat": 45.0417, "lon": -123.2572, "proficiency": 0.375, "schoolCount": 1}, {"name": "Philomath SD 17J", "lat": 44.61475, "lon": -123.3947, "proficiency": 0.29, "schoolCount": 2}, {"name": "Phoenix-Talent SD 4", "lat": 42.240132, "lon": -122.794226, "proficiency": 0.185, "schoolCount": 1}, {"name": "Pilot Rock SD 2", "lat": 45.482825, "lon": -118.830896, "proficiency": 0.5, "schoolCount": 1}, {"name": "Pine Eagle SD 61", "lat": 44.8828, "lon": -117.1164, "proficiency": 0.389, "schoolCount": 1}, {"name": "Pleasant Hill SD 1", "lat": 43.957093, "lon": -122.91594, "proficiency": 0.219, "schoolCount": 1}, {"name": "Port Orford-Langlois SD 2CJ", "lat": 42.7485, "lon": -124.4969, "proficiency": 0.143, "schoolCount": 1}, {"name": "Portland SD 1J", "lat": 45.52826955172414, "lon": -122.66300417241379, "proficiency": 0.4618, "schoolCount": 29}, {"name": "Prairie City SD 4", "lat": 44.456003, "lon": -118.709161, "proficiency": 0.1753, "schoolCount": 3}, {"name": "Prospect SD 59", "lat": 42.753469, "lon": -122.489501, "proficiency": 0.2, "schoolCount": 1}, {"name": "Rainier SD 13", "lat": 46.0921, "lon": -122.9898, "proficiency": 0.176, "schoolCount": 1}, {"name": "Redmond SD 2J", "lat": 44.27956533333333, "lon": -121.17968933333334, "proficiency": 0.241, "schoolCount": 3}, {"name": "Reedsport SD 105", "lat": 43.69403, "lon": -124.123728, "proficiency": 0.103, "schoolCount": 1}, {"name": "Reynolds SD 7", "lat": 45.529394999999994, "lon": -122.4189655, "proficiency": 0.18, "schoolCount": 2}, {"name": "Riddle SD 70", "lat": 42.949073, "lon": -123.363605, "proficiency": 0.059, "schoolCount": 1}, {"name": "Riverdale SD 51J", "lat": 45.43996, "lon": -122.655996, "proficiency": 0.854, "schoolCount": 1}, {"name": "Rogue River SD 35", "lat": 42.4475195, "lon": -123.17076349999999, "proficiency": 0.1655, "schoolCount": 2}, {"name": "Salem-Keizer SD 24J", "lat": 44.94532392307693, "lon": -123.02305246153847, "proficiency": 0.2738, "schoolCount": 13}, {"name": "Santiam Canyon SD 129J", "lat": 44.7550875, "lon": -122.4836635, "proficiency": 0.1915, "schoolCount": 2}, {"name": "Scappoose SD 1J", "lat": 45.70455, "lon": -122.85225, "proficiency": 0.4915, "schoolCount": 2}, {"name": "Scio SD 95", "lat": 44.7054975, "lon": -122.8516355, "proficiency": 0.257, "schoolCount": 2}, {"name": "Seaside SD 10", "lat": 45.986894, "lon": -123.900423, "proficiency": 0.173, "schoolCount": 1}, {"name": "Sheridan SD 48J", "lat": 45.096774499999995, "lon": -123.4002105, "proficiency": 0.1875, "schoolCount": 2}, {"name": "Sherman County SD", "lat": 45.4739, "lon": -120.7416, "proficiency": 0.214, "schoolCount": 1}, {"name": "Sherwood SD 88J", "lat": 45.354333, "lon": -122.845855, "proficiency": 0.5765, "schoolCount": 2}, {"name": "Silver Falls SD 4J", "lat": 44.986810999999996, "lon": -122.768265, "proficiency": 0.348, "schoolCount": 6}, {"name": "Sisters SD 6", "lat": 44.2928, "lon": -121.5713, "proficiency": 0.432, "schoolCount": 1}, {"name": "Siuslaw SD 97J", "lat": 43.9885, "lon": -124.1047, "proficiency": 0.203, "schoolCount": 1}, {"name": "South Lane SD 45J3", "lat": 43.7914275, "lon": -123.06384349999999, "proficiency": 0.3015, "schoolCount": 2}, {"name": "South Umpqua SD 19", "lat": 42.978750000000005, "lon": -123.281, "proficiency": 0.1345, "schoolCount": 2}, {"name": "South Wasco County SD 1", "lat": 45.1774, "lon": -121.0814, "proficiency": 0.067, "schoolCount": 1}, {"name": "Springfield SD 19", "lat": 44.05557575, "lon": -122.9776305, "proficiency": 0.2737, "schoolCount": 4}, {"name": "St Helens SD 502", "lat": 45.8635, "lon": -122.8133, "proficiency": 0.195, "schoolCount": 1}, {"name": "St Paul SD 45", "lat": 45.213948, "lon": -122.975433, "proficiency": 0.533, "schoolCount": 1}, {"name": "Stanfield SD 61", "lat": 45.79, "lon": -119.2242, "proficiency": 0.061, "schoolCount": 1}, {"name": "Sutherlin SD 130", "lat": 43.3955, "lon": -123.3057, "proficiency": 0.239, "schoolCount": 1}, {"name": "Sweet Home SD 55", "lat": 44.393837, "lon": -122.719463, "proficiency": 0.24, "schoolCount": 1}, {"name": "Three Rivers/Josephine County SD", "lat": 42.33846975, "lon": -123.421052, "proficiency": 0.1665, "schoolCount": 4}, {"name": "Tigard-Tualatin SD 23J", "lat": 45.412733333333335, "lon": -122.78573333333334, "proficiency": 0.2953, "schoolCount": 3}, {"name": "Tillamook SD 9", "lat": 45.4549, "lon": -123.82, "proficiency": 0.304, "schoolCount": 1}, {"name": "Umatilla SD 6R", "lat": 45.917, "lon": -119.338, "proficiency": 0.069, "schoolCount": 1}, {"name": "Union SD 5", "lat": 45.206, "lon": -117.8661, "proficiency": 0.286, "schoolCount": 1}, {"name": "Vale SD 84", "lat": 43.978893, "lon": -117.252461, "proficiency": 0.492, "schoolCount": 1}, {"name": "Vernonia SD 47J", "lat": 45.860734, "lon": -123.178762, "proficiency": 0.235, "schoolCount": 1}, {"name": "Wallowa SD 12", "lat": 45.570667, "lon": -117.532785, "proficiency": 0.333, "schoolCount": 1}, {"name": "Warrenton-Hammond SD 30", "lat": 46.14072, "lon": -123.915748, "proficiency": 0.203, "schoolCount": 1}, {"name": "West Linn-Wilsonville SD 3J", "lat": 45.3462666, "lon": -122.71811480000001, "proficiency": 0.478, "schoolCount": 5}, {"name": "Willamina SD 30J", "lat": 45.08569, "lon": -123.475317, "proficiency": 0.083, "schoolCount": 1}, {"name": "Winston-Dillard SD 116", "lat": 43.11462, "lon": -123.408938, "proficiency": 0.125, "schoolCount": 1}, {"name": "Woodburn SD 103", "lat": 45.1428185, "lon": -122.8663595, "proficiency": 0.0775, "schoolCount": 2}, {"name": "Yamhill Carlton SD 1", "lat": 45.341875, "lon": -123.185773, "proficiency": 0.229, "schoolCount": 1}, {"name": "Yoncalla SD 32", "lat": 43.6012, "lon": -123.286, "proficiency": 0.176, "schoolCount": 1}], "cities": [{"name": "Adrian", "lat": 43.7418, "lon": -117.069981, "proficiency": 0.773, "schoolCount": 1}, {"name": "Alsea", "lat": 44.380855, "lon": -123.594658, "proficiency": 0.083, "schoolCount": 1}, {"name": "Amity", "lat": 45.077600000000004, "lon": -123.2312, "proficiency": 0.2285, "schoolCount": 2}, {"name": "Ashland", "lat": 42.1929775, "lon": -122.6873215, "proficiency": 0.4535, "schoolCount": 2}, {"name": "Astoria", "lat": 46.171289, "lon": -123.728062, "proficiency": 0.213, "schoolCount": 2}, {"name": "Weston", "lat": 45.8128, "lon": -118.4221, "proficiency": 0.415, "schoolCount": 1}, {"name": "Baker City", "lat": 44.780839, "lon": -117.8365365, "proficiency": 0.328, "schoolCount": 2}, {"name": "Bandon", "lat": 43.1157, "lon": -124.4194, "proficiency": 0.395, "schoolCount": 1}, {"name": "Banks", "lat": 45.614125, "lon": -123.113699, "proficiency": 0.281, "schoolCount": 1}, {"name": "Beaverton", "lat": 45.48587777777778, "lon": -122.82709466666665, "proficiency": 0.29, "schoolCount": 9}, {"name": "Hillsboro", "lat": 45.521623, "lon": -122.931547, "proficiency": 0.3595, "schoolCount": 8}, {"name": "Portland", "lat": 45.52683804878048, "lon": -122.66172163414633, "proficiency": 0.4509, "schoolCount": 41}, {"name": "Bend", "lat": 44.064037625, "lon": -121.30700625, "proficiency": 0.4057, "schoolCount": 8}, {"name": "LaPine", "lat": 43.6763, "lon": -121.5083, "proficiency": 0.123, "schoolCount": 1}, {"name": "Sunriver", "lat": 43.8679, "lon": -121.4337, "proficiency": 0.333, "schoolCount": 1}, {"name": "Eugene", "lat": 44.056776588235294, "lon": -123.12892835294117, "proficiency": 0.364, "schoolCount": 17}, {"name": "Blachly", "lat": 44.195198, "lon": -123.546086, "proficiency": 0.053, "schoolCount": 1}, {"name": "Brookings", "lat": 42.0564, "lon": -124.2813, "proficiency": 0.19, "schoolCount": 1}, {"name": "Camas Valley", "lat": 43.03457, "lon": -123.675068, "proficiency": 0.357, "schoolCount": 1}, {"name": "Canby", "lat": 45.2576, "lon": -122.6703, "proficiency": 0.188, "schoolCount": 1}, {"name": "Hubbard", "lat": 45.1768, "lon": -122.7474, "proficiency": 0.424, "schoolCount": 1}, {"name": "Turner", "lat": 44.8081, "lon": -122.9165, "proficiency": 0.362, "schoolCount": 1}, {"name": "Gold Beach", "lat": 42.4079, "lon": -124.4218, "proficiency": 0.114, "schoolCount": 1}, {"name": "Halsey", "lat": 44.3903, "lon": -123.0877, "proficiency": 0.148, "schoolCount": 1}, {"name": "Gold Hill", "lat": 42.4344, "lon": -123.055, "proficiency": 0.275, "schoolCount": 1}, {"name": "Central Point", "lat": 42.3660275, "lon": -122.933868, "proficiency": 0.2135, "schoolCount": 2}, {"name": "Independence", "lat": 44.855049, "lon": -123.210881, "proficiency": 0.125, "schoolCount": 1}, {"name": "Clatskanie", "lat": 46.100923, "lon": -123.211326, "proficiency": 0.17, "schoolCount": 1}, {"name": "Colton", "lat": 45.1656, "lon": -122.423, "proficiency": 0.207, "schoolCount": 1}, {"name": "Coos Bay", "lat": 43.357608, "lon": -124.2099965, "proficiency": 0.259, "schoolCount": 2}, {"name": "Coquille", "lat": 43.1880165, "lon": -124.194977, "proficiency": 0.1545, "schoolCount": 2}, {"name": "Corbett", "lat": 45.530096, "lon": -122.295176, "proficiency": 0.239, "schoolCount": 1}, {"name": "Corvallis", "lat": 44.587374000000004, "lon": -123.25815133333333, "proficiency": 0.4887, "schoolCount": 3}, {"name": "Cove", "lat": 45.296512, "lon": -117.809132, "proficiency": 0.304, "schoolCount": 1}, {"name": "Creswell", "lat": 43.916712, "lon": -123.026539, "proficiency": 0.296, "schoolCount": 1}, {"name": "Prineville", "lat": 44.302115, "lon": -120.8434275, "proficiency": 0.306, "schoolCount": 2}, {"name": "Powell Butte", "lat": 44.247116, "lon": -121.017232, "proficiency": 0.211, "schoolCount": 1}, {"name": "Dallas", "lat": 44.86127666666667, "lon": -123.35826033333335, "proficiency": 0.2263, "schoolCount": 3}, {"name": "Dayton", "lat": 45.2162, "lon": -123.0848, "proficiency": 0.127, "schoolCount": 1}, {"name": "Days Creek", "lat": 42.96997, "lon": -123.16616, "proficiency": 0.231, "schoolCount": 1}, {"name": "Roseburg", "lat": 43.2234055, "lon": -123.358614, "proficiency": 0.2825, "schoolCount": 2}, {"name": "Dufur", "lat": 45.455037, "lon": -121.123466, "proficiency": 0.071, "schoolCount": 1}, {"name": "Eagle Point", "lat": 42.471744, "lon": -122.806402, "proficiency": 0.1487, "schoolCount": 3}, {"name": "White City", "lat": 42.4377, "lon": -122.8281, "proficiency": 0.082, "schoolCount": 1}, {"name": "Echo", "lat": 45.740058, "lon": -119.189719, "proficiency": 0.435, "schoolCount": 1}, {"name": "Elkton", "lat": 43.638147, "lon": -123.570246, "proficiency": 0.286, "schoolCount": 1}, {"name": "Enterprise", "lat": 45.4249, "lon": -117.272, "proficiency": 0.333, "schoolCount": 1}, {"name": "Estacada", "lat": 45.2937, "lon": -122.333, "proficiency": 0.205, "schoolCount": 1}, {"name": "Eagle Creek", "lat": 45.36159, "lon": -122.352661, "proficiency": 0.314, "schoolCount": 1}, {"name": "Falls City", "lat": 44.8677, "lon": -123.4323, "proficiency": 0.091, "schoolCount": 1}, {"name": "Elmira", "lat": 44.0687, "lon": -123.353, "proficiency": 0.158, "schoolCount": 1}, {"name": "Forest Grove", "lat": 45.5176685, "lon": -123.093992, "proficiency": 0.2525, "schoolCount": 2}, {"name": "Fossil", "lat": 45.001485, "lon": -120.213335, "proficiency": 0.368, "schoolCount": 1}, {"name": "Gaston", "lat": 45.4355, "lon": -123.1439, "proficiency": 0.167, "schoolCount": 1}, {"name": "Gervais", "lat": 45.103694, "lon": -122.893841, "proficiency": 0.183, "schoolCount": 1}, {"name": "Gladstone", "lat": 45.3941, "lon": -122.5867, "proficiency": 0.304, "schoolCount": 1}, {"name": "Glide", "lat": 43.300504, "lon": -123.095721, "proficiency": 0.224, "schoolCount": 1}, {"name": "Grants Pass", "lat": 42.4312856, "lon": -123.3336884, "proficiency": 0.2202, "schoolCount": 5}, {"name": "Albany", "lat": 44.635055, "lon": -123.09023175, "proficiency": 0.2998, "schoolCount": 4}, {"name": "Gresham", "lat": 45.495907, "lon": -122.4082, "proficiency": 0.1524, "schoolCount": 5}, {"name": "Damascus", "lat": 45.4151315, "lon": -122.41862449999999, "proficiency": 0.4285, "schoolCount": 2}, {"name": "Hines", "lat": 43.5632, "lon": -119.0876, "proficiency": 0.086, "schoolCount": 1}, {"name": "Crane", "lat": 43.64079533333334, "lon": -119.46615866666667, "proficiency": 0.379, "schoolCount": 3}, {"name": "Harper", "lat": 43.865609, "lon": -117.608259, "proficiency": 0.294, "schoolCount": 1}, {"name": "Harrisburg", "lat": 44.271653, "lon": -123.165656, "proficiency": 0.172, "schoolCount": 1}, {"name": "Hermiston", "lat": 45.8350465, "lon": -119.285899, "proficiency": 0.2495, "schoolCount": 2}, {"name": "Hood River", "lat": 45.670950000000005, "lon": -121.5421, "proficiency": 0.239, "schoolCount": 2}, {"name": "Imbler", "lat": 45.462454, "lon": -117.96549, "proficiency": 0.522, "schoolCount": 1}, {"name": "Madras", "lat": 44.6342, "lon": -121.1056, "proficiency": 0.133, "schoolCount": 1}, {"name": "Joseph", "lat": 45.352658, "lon": -117.222877, "proficiency": 0.316, "schoolCount": 1}, {"name": "Junction City", "lat": 44.2265, "lon": -123.215, "proficiency": 0.336, "schoolCount": 1}, {"name": "Klamath Falls", "lat": 42.18836666666667, "lon": -121.72670000000001, "proficiency": 0.242, "schoolCount": 3}, {"name": "Chiloquin", "lat": 42.5674, "lon": -121.8634, "proficiency": 0.057, "schoolCount": 1}, {"name": "Merrill", "lat": 42.015885, "lon": -121.503904, "proficiency": 0.436, "schoolCount": 1}, {"name": "La Grande", "lat": 45.3217, "lon": -118.0973, "proficiency": 0.223, "schoolCount": 1}, {"name": "Lakeview", "lat": 42.186276, "lon": -120.350243, "proficiency": 0.241, "schoolCount": 1}, {"name": "Lake Oswego", "lat": 45.4097, "lon": -122.7141, "proficiency": 0.6205, "schoolCount": 2}, {"name": "Lebanon", "lat": 44.52248175, "lon": -122.8346855, "proficiency": 0.3593, "schoolCount": 4}, {"name": "Eddyville", "lat": 44.6343, "lon": -123.778, "proficiency": 0.077, "schoolCount": 1}, {"name": "Newport", "lat": 44.641472, "lon": -124.04138, "proficiency": 0.13, "schoolCount": 1}, {"name": "Siletz", "lat": 44.723476, "lon": -123.920442, "proficiency": 0.067, "schoolCount": 1}, {"name": "Lincoln City", "lat": 44.935392, "lon": -124.017245, "proficiency": 0.11, "schoolCount": 1}, {"name": "Toledo", "lat": 44.633638, "lon": -123.921657, "proficiency": 0.051, "schoolCount": 1}, {"name": "Waldport", "lat": 44.405388, "lon": -124.067055, "proficiency": 0.256, "schoolCount": 1}, {"name": "Lowell", "lat": 43.917321, "lon": -122.78195, "proficiency": 0.1435, "schoolCount": 2}, {"name": "Finn Rock", "lat": 44.152514, "lon": -122.362797, "proficiency": 0.611, "schoolCount": 1}, {"name": "McMinnville", "lat": 45.2174, "lon": -123.19785, "proficiency": 0.445, "schoolCount": 2}, {"name": "Medford", "lat": 42.3321278, "lon": -122.86977979999999, "proficiency": 0.3226, "schoolCount": 5}, {"name": "Jacksonville", "lat": 42.2356, "lon": -123.0449, "proficiency": 0.458, "schoolCount": 1}, {"name": "Milton-Freewater", "lat": 45.933319, "lon": -118.392221, "proficiency": 0.125, "schoolCount": 1}, {"name": "Mitchell", "lat": 44.30323, "lon": -120.853255, "proficiency": 0.226, "schoolCount": 1}, {"name": "Molalla", "lat": 45.136069, "lon": -122.55557250000001, "proficiency": 0.2825, "schoolCount": 2}, {"name": "Monroe", "lat": 44.3122, "lon": -123.2985, "proficiency": 0.12, "schoolCount": 1}, {"name": "Heppner", "lat": 45.361629, "lon": -119.565057, "proficiency": 0.346, "schoolCount": 1}, {"name": "Irrigon", "lat": 45.887652, "lon": -119.498181, "proficiency": 0.064, "schoolCount": 1}, {"name": "Boardman", "lat": 45.8417, "lon": -119.6977, "proficiency": 0.154, "schoolCount": 1}, {"name": "Mt Angel", "lat": 45.0679, "lon": -122.74625, "proficiency": 0.2635, "schoolCount": 2}, {"name": "Rockaway Beach", "lat": 45.639921, "lon": -123.939006, "proficiency": 0.379, "schoolCount": 1}, {"name": "Cloverdale", "lat": 45.18821, "lon": -123.903957, "proficiency": 0.156, "schoolCount": 1}, {"name": "Newberg", "lat": 45.31975, "lon": -122.96715, "proficiency": 0.4095, "schoolCount": 2}, {"name": "North Bend", "lat": 43.4027345, "lon": -124.2272255, "proficiency": 0.298, "schoolCount": 2}, {"name": "Milwaukie", "lat": 45.4281, "lon": -122.6104, "proficiency": 0.177, "schoolCount": 2}, {"name": "Clackamas", "lat": 45.42006466666667, "lon": -122.55713633333333, "proficiency": 0.277, "schoolCount": 3}, {"name": "Happy Valley", "lat": 45.447685, "lon": -122.517861, "proficiency": 0.406, "schoolCount": 1}, {"name": "Drain", "lat": 43.661795, "lon": -123.309182, "proficiency": 0.182, "schoolCount": 1}, {"name": "Silver Lake", "lat": 43.245033, "lon": -120.9026, "proficiency": 0.063, "schoolCount": 1}, {"name": "Aurora", "lat": 45.2131, "lon": -122.7956, "proficiency": 0.23, "schoolCount": 1}, {"name": "North Powder", "lat": 45.027839, "lon": -117.924624, "proficiency": 0.474, "schoolCount": 1}, {"name": "Lyons", "lat": 44.7793, "lon": -122.6168, "proficiency": 0.471, "schoolCount": 1}, {"name": "Stayton", "lat": 44.8107, "lon": -122.8038, "proficiency": 0.14, "schoolCount": 1}, {"name": "Sublimity", "lat": 44.8305, "lon": -122.787, "proficiency": 0.433, "schoolCount": 1}, {"name": "The Dalles", "lat": 45.60888, "lon": -121.2004845, "proficiency": 0.108, "schoolCount": 2}, {"name": "Mosier", "lat": 45.6829, "lon": -121.4005, "proficiency": 0.067, "schoolCount": 1}, {"name": "Nyssa", "lat": 43.8754155, "lon": -117.0051535, "proficiency": 0.3675, "schoolCount": 2}, {"name": "Oakland", "lat": 43.4306, "lon": -123.2985, "proficiency": 0.345, "schoolCount": 1}, {"name": "Oakridge", "lat": 43.748734, "lon": -122.469007, "proficiency": 0.188, "schoolCount": 1}, {"name": "Ontario", "lat": 44.025326, "lon": -116.9829925, "proficiency": 0.1475, "schoolCount": 2}, {"name": "Oregon City", "lat": 45.3582228, "lon": -122.5640204, "proficiency": 0.3082, "schoolCount": 5}, {"name": "Sandy", "lat": 45.40758975, "lon": -122.2212505, "proficiency": 0.3935, "schoolCount": 4}, {"name": "Paisley", "lat": 42.693346, "lon": -120.542683, "proficiency": 0.333, "schoolCount": 1}, {"name": "Pendleton", "lat": 45.6508, "lon": -118.7874, "proficiency": 0.299, "schoolCount": 1}, {"name": "Philomath", "lat": 44.61475, "lon": -123.3947, "proficiency": 0.29, "schoolCount": 2}, {"name": "Talent", "lat": 42.240132, "lon": -122.794226, "proficiency": 0.185, "schoolCount": 1}, {"name": "Pilot Rock", "lat": 45.482825, "lon": -118.830896, "proficiency": 0.5, "schoolCount": 1}, {"name": "Halfway", "lat": 44.8828, "lon": -117.1164, "proficiency": 0.389, "schoolCount": 1}, {"name": "Pleasant Hill", "lat": 43.957093, "lon": -122.91594, "proficiency": 0.219, "schoolCount": 1}, {"name": "Port Orford", "lat": 42.7485, "lon": -124.4969, "proficiency": 0.143, "schoolCount": 1}, {"name": "Prairie City", "lat": 44.456003, "lon": -118.709161, "proficiency": 0.1753, "schoolCount": 3}, {"name": "Prospect", "lat": 42.753469, "lon": -122.489501, "proficiency": 0.2, "schoolCount": 1}, {"name": "Rainier", "lat": 46.0921, "lon": -122.9898, "proficiency": 0.176, "schoolCount": 1}, {"name": "Redmond", "lat": 44.27956533333333, "lon": -121.17968933333334, "proficiency": 0.241, "schoolCount": 3}, {"name": "Reedsport", "lat": 43.69403, "lon": -124.123728, "proficiency": 0.103, "schoolCount": 1}, {"name": "Fairview", "lat": 45.53599, "lon": -122.430931, "proficiency": 0.099, "schoolCount": 1}, {"name": "Troutdale", "lat": 45.5228, "lon": -122.407, "proficiency": 0.261, "schoolCount": 1}, {"name": "Riddle", "lat": 42.949073, "lon": -123.363605, "proficiency": 0.059, "schoolCount": 1}, {"name": "Rogue River", "lat": 42.4475195, "lon": -123.17076349999999, "proficiency": 0.1655, "schoolCount": 2}, {"name": "Keizer", "lat": 44.995999999999995, "lon": -123.01125, "proficiency": 0.253, "schoolCount": 2}, {"name": "Salem", "lat": 44.93611009090909, "lon": -123.02519836363636, "proficiency": 0.2776, "schoolCount": 11}, {"name": "Mill City", "lat": 44.7550875, "lon": -122.4836635, "proficiency": 0.1915, "schoolCount": 2}, {"name": "Scappoose", "lat": 45.7536, "lon": -122.8788, "proficiency": 0.287, "schoolCount": 1}, {"name": "Scio", "lat": 44.7054975, "lon": -122.8516355, "proficiency": 0.257, "schoolCount": 2}, {"name": "Seaside", "lat": 45.986894, "lon": -123.900423, "proficiency": 0.173, "schoolCount": 1}, {"name": "Sheridan", "lat": 45.096774499999995, "lon": -123.4002105, "proficiency": 0.1875, "schoolCount": 2}, {"name": "Moro", "lat": 45.4739, "lon": -120.7416, "proficiency": 0.214, "schoolCount": 1}, {"name": "Sherwood", "lat": 45.354333, "lon": -122.845855, "proficiency": 0.5765, "schoolCount": 2}, {"name": "Silverton", "lat": 44.971493200000005, "lon": -122.782138, "proficiency": 0.3742, "schoolCount": 5}, {"name": "Sisters", "lat": 44.2928, "lon": -121.5713, "proficiency": 0.432, "schoolCount": 1}, {"name": "Florence", "lat": 43.9885, "lon": -124.1047, "proficiency": 0.203, "schoolCount": 1}, {"name": "Cottage Grove", "lat": 43.7914275, "lon": -123.06384349999999, "proficiency": 0.3015, "schoolCount": 2}, {"name": "Canyonville", "lat": 42.9281, "lon": -123.2804, "proficiency": 0.214, "schoolCount": 1}, {"name": "Myrtle Creek", "lat": 43.0294, "lon": -123.2816, "proficiency": 0.055, "schoolCount": 1}, {"name": "Maupin", "lat": 45.1774, "lon": -121.0814, "proficiency": 0.067, "schoolCount": 1}, {"name": "Springfield", "lat": 44.05557575, "lon": -122.9776305, "proficiency": 0.2737, "schoolCount": 4}, {"name": "St Helens", "lat": 45.8635, "lon": -122.8133, "proficiency": 0.195, "schoolCount": 1}, {"name": "St Paul", "lat": 45.213948, "lon": -122.975433, "proficiency": 0.533, "schoolCount": 1}, {"name": "Stanfield", "lat": 45.79, "lon": -119.2242, "proficiency": 0.061, "schoolCount": 1}, {"name": "Sutherlin", "lat": 43.3955, "lon": -123.3057, "proficiency": 0.239, "schoolCount": 1}, {"name": "Sweet Home", "lat": 44.393837, "lon": -122.719463, "proficiency": 0.24, "schoolCount": 1}, {"name": "Cave Junction", "lat": 42.167, "lon": -123.6433, "proficiency": 0.188, "schoolCount": 1}, {"name": "Murphy", "lat": 42.331386, "lon": -123.3323, "proficiency": 0.091, "schoolCount": 1}, {"name": "Tualatin", "lat": 45.38535, "lon": -122.74934999999999, "proficiency": 0.3595, "schoolCount": 2}, {"name": "Tigard", "lat": 45.4229, "lon": -122.7821, "proficiency": 0.3455, "schoolCount": 2}, {"name": "Tillamook", "lat": 45.4549, "lon": -123.82, "proficiency": 0.304, "schoolCount": 1}, {"name": "Umatilla", "lat": 45.917, "lon": -119.338, "proficiency": 0.069, "schoolCount": 1}, {"name": "Union", "lat": 45.206, "lon": -117.8661, "proficiency": 0.286, "schoolCount": 1}, {"name": "Vale", "lat": 43.978893, "lon": -117.252461, "proficiency": 0.492, "schoolCount": 1}, {"name": "Vernonia", "lat": 45.860734, "lon": -123.178762, "proficiency": 0.235, "schoolCount": 1}, {"name": "Wallowa", "lat": 45.570667, "lon": -117.532785, "proficiency": 0.333, "schoolCount": 1}, {"name": "Warrenton", "lat": 46.14072, "lon": -123.915748, "proficiency": 0.203, "schoolCount": 1}, {"name": "Wilsonville", "lat": 45.308354, "lon": -122.767045, "proficiency": 0.3495, "schoolCount": 2}, {"name": "West Linn", "lat": 45.3681625, "lon": -122.675392, "proficiency": 0.5835, "schoolCount": 2}, {"name": "Willamina", "lat": 45.08569, "lon": -123.475317, "proficiency": 0.083, "schoolCount": 1}, {"name": "Winston", "lat": 43.11462, "lon": -123.408938, "proficiency": 0.125, "schoolCount": 1}, {"name": "Woodburn", "lat": 45.1428185, "lon": -122.8663595, "proficiency": 0.0775, "schoolCount": 2}, {"name": "Yamhill", "lat": 45.341875, "lon": -123.185773, "proficiency": 0.229, "schoolCount": 1}, {"name": "Yoncalla", "lat": 43.6012, "lon": -123.286, "proficiency": 0.176, "schoolCount": 1}]}