{"state": "PA", "stateName": "Pennsylvania", "year": 2024, "naep": {"text": "7 out of 10", "numerator": 7, "denominator": 10}, "schools": [{"name": "Bermudian Springs MS", "lat": 39.9818, "lon": -77.0808, "proficiency": 0.331, "district": "Bermudian Springs SD", "city": "York Springs", "ncessch": "420345006921"}, {"name": "New Oxford MS", "lat": 39.870246, "lon": -77.053966, "proficiency": 0.387, "district": "Conewago Valley SD", "city": "New Oxford", "ncessch": "420655006898"}, {"name": "Fairfield Area MS", "lat": 39.7819, "lon": -77.3754, "proficiency": 0.169, "district": "Fairfield Area SD", "city": "Fairfield", "ncessch": "420954009987"}, {"name": "Gettysburg Area MS", "lat": 39.82651, "lon": -77.2275, "proficiency": 0.496, "district": "Gettysburg Area SD", "city": "Gettysburg", "ncessch": "421071000010"}, {"name": "Maple Avenue MS", "lat": 39.7479, "lon": -77.0872, "proficiency": 0.186, "district": "Littlestown Area SD", "city": "Littlestown", "ncessch": "421398000013"}, {"name": "Upper Adams MS", "lat": 39.934068, "lon": -77.246492, "proficiency": 0.358, "district": "Upper Adams SD", "city": "Biglerville", "ncessch": "422430000155"}, {"name": "Springdale JSHS", "lat": 40.5477, "lon": -79.7823, "proficiency": 0.271, "district": "Allegheny Valley SD", "city": "Springdale", "ncessch": "420219000029"}, {"name": "Avonworth MS", "lat": 40.532492, "lon": -80.078255, "proficiency": 0.594, "district": "Avonworth SD", "city": "Pittsburgh", "ncessch": "420282000559"}, {"name": "Baldwin SHS", "lat": 40.3556, "lon": -79.9779, "proficiency": 0.152, "district": "Baldwin-Whitehall SD", "city": "Pittsburgh", "ncessch": "420297000050"}, {"name": "Independence MS", "lat": 40.3381, "lon": -80.0422, "proficiency": 0.42, "district": "Bethel Park SD", "city": "Bethel Park", "ncessch": "420351000061"}, {"name": "Brentwood MS", "lat": 40.3743, "lon": -79.9742, "proficiency": 0.419, "district": "Brentwood Borough SD", "city": "Pittsburgh", "ncessch": "420414009979"}, {"name": "Carlynton JSHS", "lat": 40.4249, "lon": -80.0969, "proficiency": 0.143, "district": "Carlynton SD", "city": "Carnegie", "ncessch": "420504000079"}, {"name": "Chartiers Valley MS", "lat": 40.379709, "lon": -80.100663, "proficiency": 0.275, "district": "Chartiers Valley SD", "city": "Bridgeville", "ncessch": "420570000094"}, {"name": "Clairton MS/HS", "lat": 40.2944, "lon": -79.8861, "proficiency": 0.021, "district": "Clairton City SD", "city": "Clairton", "ncessch": "420603007346"}, {"name": "Cornell HS", "lat": 40.5084, "lon": -80.1626, "proficiency": 0.032, "district": "Cornell SD", "city": "Coraopolis", "ncessch": "420681007335"}, {"name": "Deer Lakes MS", "lat": 40.6246, "lon": -79.8577, "proficiency": 0.288, "district": "Deer Lakes SD", "city": "Cheswick", "ncessch": "420754000431"}, {"name": "East Allegheny JSHS", "lat": 40.365759, "lon": -79.787103, "proficiency": 0.011, "district": "East Allegheny SD", "city": "North Versailles", "ncessch": "420806007559"}, {"name": "Elizabeth Forward MS", "lat": 40.2745, "lon": -79.8258, "proficiency": 0.339, "district": "Elizabeth Forward SD", "city": "Elizabeth", "ncessch": "420909004804"}, {"name": "Dorseyville MS", "lat": 40.5769, "lon": -79.884, "proficiency": 0.675, "district": "Fox Chapel Area SD", "city": "Pittsburgh", "ncessch": "421007000147"}, {"name": "Gateway MS", "lat": 40.4438, "lon": -79.7609, "proficiency": 0.261, "district": "Gateway SD", "city": "Monroeville", "ncessch": "421062000167"}, {"name": "Hampton MS", "lat": 40.588043, "lon": -79.945976, "proficiency": 0.558, "district": "Hampton Township SD", "city": "Allison Park", "ncessch": "421140000179"}, {"name": "Highlands MS", "lat": 40.617, "lon": -79.7324, "proficiency": 0.203, "district": "Highlands SD", "city": "Natrona Heights", "ncessch": "421188007275"}, {"name": "Keystone Oaks MS", "lat": 40.3867, "lon": -80.0294, "proficiency": 0.407, "district": "Keystone Oaks SD", "city": "Pittsburgh", "ncessch": "421275000197"}, {"name": "Life Male STEAM Academy CS", "lat": 40.425749, "lon": -79.81136, "proficiency": 0.0, "district": "Life Male STEAM Academy CS", "city": "Pittsburgh", "ncessch": "420090607697"}, {"name": "Manchester Academic CS", "lat": 40.4565, "lon": -80.0265, "proficiency": 0.077, "district": "Manchester Academic CS", "city": "Pittsburgh", "ncessch": "420001700336"}, {"name": "Founders Hall Middle Sch", "lat": 40.346282, "lon": -79.833259, "proficiency": 0.092, "district": "McKeesport Area SD", "city": "McKeesport", "ncessch": "421494000565"}, {"name": "David E Williams MS", "lat": 40.484642, "lon": -80.101176, "proficiency": 0.719, "district": "Montour SD", "city": "Coraopolis", "ncessch": "421572007410"}, {"name": "Moon Area Upper MS", "lat": 40.5129, "lon": -80.2179, "proficiency": 0.49, "district": "Moon Area SD", "city": "Moon Township", "ncessch": "421583007430"}, {"name": "Jefferson MS", "lat": 40.3825, "lon": -80.061, "proficiency": 0.679, "district": "Mt Lebanon SD", "city": "Pittsburgh", "ncessch": "421611000340"}, {"name": "Mellon MS", "lat": 40.3782, "lon": -80.0453, "proficiency": 0.611, "district": "Mt Lebanon SD", "city": "Pittsburgh", "ncessch": "421611000339"}, {"name": "Carson MS", "lat": 40.5662, "lon": -80.0312, "proficiency": 0.378, "district": "North Allegheny SD", "city": "Pittsburgh", "ncessch": "421701005108"}, {"name": "Ingomar MS", "lat": 40.581486, "lon": -80.072525, "proficiency": 0.551, "district": "North Allegheny SD", "city": "Pittsburgh", "ncessch": "421701000270"}, {"name": "Marshall MS", "lat": 40.6438, "lon": -80.0948, "proficiency": 0.604, "district": "North Allegheny SD", "city": "Wexford", "ncessch": "421701000080"}, {"name": "North Hills MS", "lat": 40.5242, "lon": -80.0254, "proficiency": 0.447, "district": "North Hills SD", "city": "Pittsburgh", "ncessch": "421722006106"}, {"name": "Northgate MSHS", "lat": 40.5063, "lon": -80.0566, "proficiency": 0.119, "district": "Northgate SD", "city": "Pittsburgh", "ncessch": "421777000053"}, {"name": "Linton MS", "lat": 40.48121, "lon": -79.813136, "proficiency": 0.111, "district": "Penn Hills SD", "city": "Pittsburgh", "ncessch": "421859005019"}, {"name": "Pennsylvania Distance Learning CS", "lat": 40.611103, "lon": -80.101124, "proficiency": 0.078, "district": "Pennsylvania Distance Learning CS", "city": "Sewickley", "ncessch": "420012500839"}, {"name": "Pine-Richland MS", "lat": 40.6565, "lon": -80.0142, "proficiency": 0.599, "district": "Pine-Richland SD", "city": "Gibsonia", "ncessch": "420285000314"}, {"name": "Academy at Westinghouse", "lat": 40.4609, "lon": -79.9012, "proficiency": 0.033, "district": "Pittsburgh SD", "city": "Pittsburgh", "ncessch": "421917007412"}, {"name": "Pittsburgh Allegheny 6-8", "lat": 40.453159, "lon": -80.008712, "proficiency": 0.063, "district": "Pittsburgh SD", "city": "Pittsburgh", "ncessch": "421917000414"}, {"name": "Pittsburgh Arlington K-8", "lat": 40.409079, "lon": -79.979216, "proficiency": 0.077, "district": "Pittsburgh SD", "city": "Pittsburgh", "ncessch": "421917006769"}, {"name": "Pittsburgh Arsenal 6-8", "lat": 40.4681, "lon": -79.9619, "proficiency": 0.122, "district": "Pittsburgh SD", "city": "Pittsburgh", "ncessch": "421917006751"}, {"name": "Pittsburgh Brookline K-8", "lat": 40.3941, "lon": -80.0247, "proficiency": 0.171, "district": "Pittsburgh SD", "city": "Pittsburgh", "ncessch": "421917006755"}, {"name": "Pittsburgh CAPA 6-12", "lat": 40.445, "lon": -79.9987, "proficiency": 0.482, "district": "Pittsburgh SD", "city": "Pittsburgh", "ncessch": "421917007014"}, {"name": "Pittsburgh Carmalt K-8", "lat": 40.3874, "lon": -80.0068, "proficiency": 0.143, "district": "Pittsburgh SD", "city": "Pittsburgh", "ncessch": "421917000326"}, {"name": "Pittsburgh Classical 6-8", "lat": 40.4486, "lon": -80.0498, "proficiency": 0.094, "district": "Pittsburgh SD", "city": "Pittsburgh", "ncessch": "421917000598"}, {"name": "Pittsburgh Colfax K-8", "lat": 40.4331, "lon": -79.9154, "proficiency": 0.612, "district": "Pittsburgh SD", "city": "Pittsburgh", "ncessch": "421917006022"}, {"name": "Pittsburgh Greenfield K-8", "lat": 40.4257, "lon": -79.944, "proficiency": 0.233, "district": "Pittsburgh SD", "city": "Pittsburgh", "ncessch": "421917006028"}, {"name": "Pittsburgh King K-8", "lat": 40.4548, "lon": -80.0046, "proficiency": 0.034, "district": "Pittsburgh SD", "city": "Pittsburgh", "ncessch": "421917006761"}, {"name": "Pittsburgh Langley K-8", "lat": 40.4543, "lon": -80.0558, "proficiency": 0.029, "district": "Pittsburgh SD", "city": "Pittsburgh", "ncessch": "421917007468"}, {"name": "Pittsburgh Mifflin K-8", "lat": 40.37, "lon": -79.9152, "proficiency": 0.091, "district": "Pittsburgh SD", "city": "Pittsburgh", "ncessch": "421917006766"}, {"name": "Pittsburgh Milliones 6-12", "lat": 40.4499, "lon": -79.9625, "proficiency": 0.0, "district": "Pittsburgh SD", "city": "Pittsburgh", "ncessch": "421917007345"}, {"name": "Pittsburgh Morrow K-8", "lat": 40.48, "lon": -80.0398, "proficiency": 0.048, "district": "Pittsburgh SD", "city": "Pittsburgh", "ncessch": "421917000365"}, {"name": "Pittsburgh Obama 6-12", "lat": 40.46844, "lon": -79.922641, "proficiency": 0.091, "district": "Pittsburgh SD", "city": "Pittsburgh", "ncessch": "421917006995"}, {"name": "Pittsburgh Online Academy", "lat": 40.44468, "lon": -79.950661, "proficiency": 0.091, "district": "Pittsburgh SD", "city": "Pittsburgh", "ncessch": "421917007505"}, {"name": "Pittsburgh Schiller 6-8", "lat": 40.4565, "lon": -79.9932, "proficiency": 0.229, "district": "Pittsburgh SD", "city": "Pittsburgh", "ncessch": "421917007132"}, {"name": "Pittsburgh South Brook 6-8", "lat": 40.4032, "lon": -80.01, "proficiency": 0.039, "district": "Pittsburgh SD", "city": "Pittsburgh", "ncessch": "421917000599"}, {"name": "Pittsburgh South Hills 6-8", "lat": 40.4197, "lon": -80.0182, "proficiency": 0.101, "district": "Pittsburgh SD", "city": "Pittsburgh", "ncessch": "421917006749"}, {"name": "Pittsburgh Sterrett 6-8", "lat": 40.4466, "lon": -79.9053, "proficiency": 0.021, "district": "Pittsburgh SD", "city": "Pittsburgh", "ncessch": "421917007039"}, {"name": "Pittsburgh Sunnyside K-8", "lat": 40.4814, "lon": -79.9336, "proficiency": 0.235, "district": "Pittsburgh SD", "city": "Pittsburgh", "ncessch": "421917006757"}, {"name": "Plum MS", "lat": 40.4706, "lon": -79.7152, "proficiency": 0.341, "district": "Plum Borough SD", "city": "Pittsburgh", "ncessch": "421935005105"}, {"name": "Propel CS-Braddock Hills", "lat": 40.415, "lon": -79.8531, "proficiency": 0.109, "district": "Propel CS-Braddock Hills", "city": "Pittsburgh", "ncessch": "420083307363"}, {"name": "Propel CS-East", "lat": 40.4094, "lon": -79.8154, "proficiency": 0.081, "district": "Propel CS-East", "city": "Pittsburgh", "ncessch": "420013500869"}, {"name": "Propel CS-Homestead", "lat": 40.4053, "lon": -79.9105, "proficiency": 0.049, "district": "Propel CS-Homestead", "city": "Pittsburgh", "ncessch": "420011100749"}, {"name": "Propel CS-McKeesport", "lat": 40.3455, "lon": -79.8481, "proficiency": 0.03, "district": "Propel CS-McKeesport", "city": "Pittsburgh", "ncessch": "420013400867"}, {"name": "Propel CS-Montour", "lat": 40.4543, "lon": -80.1061, "proficiency": 0.037, "district": "Propel CS-Montour", "city": "Pittsburgh", "ncessch": "420075206095"}, {"name": "Propel CS-Northside", "lat": 40.460079, "lon": -80.015907, "proficiency": 0.029, "district": "Propel CS-Northside", "city": "Pittsburgh", "ncessch": "420084907380"}, {"name": "Propel CS-Pitcairn", "lat": 40.4042, "lon": -79.7793, "proficiency": 0.048, "district": "Propel CS-Pitcairn", "city": "Pittsburgh", "ncessch": "420085907427"}, {"name": "Provident CS", "lat": 40.460749, "lon": -79.985489, "proficiency": 0.091, "district": "Provident CS", "city": "Pittsburgh", "ncessch": "420089007574"}, {"name": "Quaker Valley MS", "lat": 40.536, "lon": -80.1807, "proficiency": 0.657, "district": "Quaker Valley SD", "city": "Sewickley", "ncessch": "421986000447"}, {"name": "Riverview JSHS", "lat": 40.5256, "lon": -79.8441, "proficiency": 0.377, "district": "Riverview SD", "city": "Oakmont", "ncessch": "422043006928"}, {"name": "Shaler Area MS", "lat": 40.527802, "lon": -79.963483, "proficiency": 0.333, "district": "Shaler Area SD", "city": "Glenshaw", "ncessch": "422120006774"}, {"name": "South Allegheny MS", "lat": 40.324155, "lon": -79.867345, "proficiency": 0.173, "district": "South Allegheny SD", "city": "McKeesport", "ncessch": "422191007668"}, {"name": "South Fayette MS", "lat": 40.377589, "lon": -80.171166, "proficiency": 0.518, "district": "South Fayette Township SD", "city": "McDonald", "ncessch": "422058000258"}, {"name": "South Park MS", "lat": 40.295, "lon": -80.0133, "proficiency": 0.44, "district": "South Park SD", "city": "South Park", "ncessch": "422206006906"}, {"name": "Steel Valley MS", "lat": 40.3886, "lon": -79.8979, "proficiency": 0.191, "district": "Steel Valley SD", "city": "Munhall", "ncessch": "422279000260"}, {"name": "Sto-Rox JSHS", "lat": 40.4703, "lon": -80.0745, "proficiency": 0.018, "district": "Sto-Rox SD", "city": "McKees Rocks", "ncessch": "422283000477"}, {"name": "Fort Couch MS", "lat": 40.3538, "lon": -80.0644, "proficiency": 0.682, "district": "Upper St. Clair SD", "city": "Pittsburgh", "ncessch": "422457000491"}, {"name": "Urban Pathways 6-12 CS", "lat": 40.443697, "lon": -79.997337, "proficiency": 0.023, "district": "Urban Pathways 6-12 CS", "city": "Pittsburgh", "ncessch": "420001800337"}, {"name": "West Allegheny MS", "lat": 40.4471, "lon": -80.2377, "proficiency": 0.598, "district": "West Allegheny SD", "city": "Imperial", "ncessch": "422520006895"}, {"name": "Pleasant Hills MS", "lat": 40.330319, "lon": -79.962227, "proficiency": 0.439, "district": "West Jefferson Hills SD", "city": "Pittsburgh", "ncessch": "422559004867"}, {"name": "West Mifflin Area MS", "lat": 40.380081, "lon": -79.871944, "proficiency": 0.172, "district": "West Mifflin Area SD", "city": "West Mifflin", "ncessch": "422568000535"}, {"name": "Dickson Prep STEAM Academy", "lat": 40.423494, "lon": -79.893719, "proficiency": 0.126, "district": "Woodland Hills SD", "city": "Swissvale", "ncessch": "421650007670"}, {"name": "Young Scholars of Greater Allegheny CS", "lat": 40.314116, "lon": -79.831491, "proficiency": 0.267, "district": "Young Scholars of Greater Allegheny CS", "city": "Pittsburgh", "ncessch": "420088407552"}, {"name": "Apollo-Ridge MS", "lat": 40.605478, "lon": -79.47414, "proficiency": 0.171, "district": "Apollo-Ridge SD", "city": "Spring Church", "ncessch": "420255006570"}, {"name": "Armstrong JSHS", "lat": 40.797634, "lon": -79.507282, "proficiency": 0.271, "district": "Armstrong SD", "city": "Kittanning", "ncessch": "420259007569"}, {"name": "West Shamokin JSHS", "lat": 40.7943, "lon": -79.2705, "proficiency": 0.168, "district": "Armstrong SD", "city": "Rural Valley", "ncessch": "420259000517"}, {"name": "Freeport Area MS", "lat": 40.705132, "lon": -79.718317, "proficiency": 0.477, "district": "Freeport Area SD", "city": "Freeport", "ncessch": "421044007566"}, {"name": "Leechburg Area MS", "lat": 40.628082, "lon": -79.603607, "proficiency": 0.264, "district": "Leechburg Area SD", "city": "Leechburg", "ncessch": "421347007618"}, {"name": "Aliquippa JSHS", "lat": 40.61066, "lon": -80.25861, "proficiency": 0.029, "district": "Aliquippa SD", "city": "Aliquippa", "ncessch": "420213007336"}, {"name": "Ambridge Area MS", "lat": 40.6673, "lon": -80.2112, "proficiency": 0.112, "district": "Ambridge Area SD", "city": "Freedom", "ncessch": "420244000633"}, {"name": "Beaver Area MS", "lat": 40.6968, "lon": -80.3194, "proficiency": 0.468, "district": "Beaver Area SD", "city": "Beaver", "ncessch": "420312000106"}, {"name": "Beaver Falls MS", "lat": 40.757309, "lon": -80.321117, "proficiency": 0.24, "district": "Big Beaver Falls Area SD", "city": "Beaver Falls", "ncessch": "420363000648"}, {"name": "Highland MS", "lat": 40.7598, "lon": -80.3724, "proficiency": 0.166, "district": "Blackhawk SD", "city": "Beaver Falls", "ncessch": "420368806558"}, {"name": "Central Valley MS", "lat": 40.68207, "lon": -80.27467, "proficiency": 0.265, "district": "Central Valley SD", "city": "Monaca", "ncessch": "420082407317"}, {"name": "Freedom Area MS", "lat": 40.677185, "lon": -80.244028, "proficiency": 0.179, "district": "Freedom Area SD", "city": "Freedom", "ncessch": "421038007565"}, {"name": "Hopewell JHS", "lat": 40.5907, "lon": -80.2619, "proficiency": 0.265, "district": "Hopewell Area SD", "city": "Aliquippa", "ncessch": "421203000674"}, {"name": "Lincoln Park Performing Arts CS", "lat": 40.6356, "lon": -80.4496, "proficiency": 0.298, "district": "Lincoln Park Performing Arts CS", "city": "Midland", "ncessch": "420014300906"}, {"name": "Midland El/MS", "lat": 40.6404, "lon": -80.4521, "proficiency": 0.0, "district": "Midland Borough SD", "city": "Midland", "ncessch": "421527006566"}, {"name": "New Brighton Area MS", "lat": 40.736, "lon": -80.3062, "proficiency": 0.264, "district": "New Brighton Area SD", "city": "New Brighton", "ncessch": "421653000694"}, {"name": "Pennsylvania Cyber CS", "lat": 40.63772, "lon": -80.454571, "proficiency": 0.103, "district": "Pennsylvania Cyber CS", "city": "Midland", "ncessch": "420007100534"}, {"name": "Riverside MS", "lat": 40.8324, "lon": -80.2605, "proficiency": 0.419, "district": "Riverside Beaver County SD", "city": "Ellwood City", "ncessch": "421743007419"}, {"name": "Rochester MS", "lat": 40.7079, "lon": -80.2787, "proficiency": 0.189, "district": "Rochester Area SD", "city": "Rochester", "ncessch": "422046007516"}, {"name": "South Side MS", "lat": 40.5683, "lon": -80.4359, "proficiency": 0.422, "district": "South Side Area SD", "city": "Hookstown", "ncessch": "422223006937"}, {"name": "Western Beaver Co JSHS", "lat": 40.6691, "lon": -80.4208, "proficiency": 0.316, "district": "Western Beaver County SD", "city": "Industry", "ncessch": "422604000719"}, {"name": "Bedford MS", "lat": 40.0139, "lon": -78.4967, "proficiency": 0.241, "district": "Bedford Area SD", "city": "Bedford", "ncessch": "420318007021"}, {"name": "Chestnut Ridge SHS", "lat": 40.1422, "lon": -78.5819, "proficiency": 0.441, "district": "Chestnut Ridge SD", "city": "New Paris", "ncessch": "420588000732"}, {"name": "Everett Area MS", "lat": 40.0142, "lon": -78.3662, "proficiency": 0.198, "district": "Everett Area SD", "city": "Everett", "ncessch": "420936000989"}, {"name": "Northern Bedford County MS", "lat": 40.178053, "lon": -78.380251, "proficiency": 0.189, "district": "Northern Bedford County SD", "city": "Loysburg", "ncessch": "421758007642"}, {"name": "Tussey Mountain MS", "lat": 40.221755, "lon": -78.238425, "proficiency": 0.177, "district": "Tussey Mountain SD", "city": "Saxton", "ncessch": "422397007611"}, {"name": "Antietam MS/HS", "lat": 40.3479, "lon": -75.8674, "proficiency": 0.026, "district": "Antietam SD", "city": "Reading", "ncessch": "420248000820"}, {"name": "Boyertown Area MS-East", "lat": 40.3153, "lon": -75.5775, "proficiency": 0.428, "district": "Boyertown Area SD", "city": "Gilbertsville", "ncessch": "420396006804"}, {"name": "Boyertown Area MS-West", "lat": 40.324, "lon": -75.632, "proficiency": 0.395, "district": "Boyertown Area SD", "city": "Boyertown", "ncessch": "420396006305"}, {"name": "Brandywine Heights Intrmd/MS", "lat": 40.497022, "lon": -75.702711, "proficiency": 0.221, "district": "Brandywine Heights Area SD", "city": "Topton", "ncessch": "420405007585"}, {"name": "Conrad Weiser MS", "lat": 40.3502, "lon": -76.1239, "proficiency": 0.357, "district": "Conrad Weiser Area SD", "city": "Robesonia", "ncessch": "420678000537"}, {"name": "Daniel Boone Area MS", "lat": 40.304, "lon": -75.7443, "proficiency": 0.349, "district": "Daniel Boone Area SD", "city": "Douglassville", "ncessch": "420729000364"}, {"name": "Exeter Twp JHS", "lat": 40.3176, "lon": -75.8666, "proficiency": 0.284, "district": "Exeter Township SD", "city": "Reading", "ncessch": "420948000787"}, {"name": "Fleetwood MS", "lat": 40.458872, "lon": -75.824134, "proficiency": 0.204, "district": "Fleetwood Area SD", "city": "Fleetwood", "ncessch": "420978006311"}, {"name": "Governor Mifflin MS", "lat": 40.3044, "lon": -75.9642, "proficiency": 0.245, "district": "Governor Mifflin SD", "city": "Shillington", "ncessch": "421086000801"}, {"name": "Hamburg Area Middle School", "lat": 40.5523, "lon": -75.97, "proficiency": 0.194, "district": "Hamburg Area SD", "city": "Hamburg", "ncessch": "421134000216"}, {"name": "Kutztown Area MS", "lat": 40.5118, "lon": -75.7683, "proficiency": 0.218, "district": "Kutztown Area SD", "city": "Kutztown", "ncessch": "421293006315"}, {"name": "Oley Valley MS", "lat": 40.379882, "lon": -75.799377, "proficiency": 0.394, "district": "Oley Valley SD", "city": "Oley", "ncessch": "421815006319"}, {"name": "Central MS", "lat": 40.3387, "lon": -75.9133, "proficiency": 0.023, "district": "Reading SD", "city": "Reading", "ncessch": "422004006958"}, {"name": "Northeast MS", "lat": 40.3539, "lon": -75.9124, "proficiency": 0.068, "district": "Reading SD", "city": "Reading", "ncessch": "422004000858"}, {"name": "Northwest MS", "lat": 40.3512, "lon": -75.9356, "proficiency": 0.079, "district": "Reading SD", "city": "Reading", "ncessch": "422004000856"}, {"name": "Southern MS", "lat": 39.771, "lon": -76.7323, "proficiency": 0.412, "district": "Southern York County SD", "city": "Glen Rock", "ncessch": "422238006286"}, {"name": "Southwest MS", "lat": 40.331922, "lon": -75.931525, "proficiency": 0.015, "district": "Reading SD", "city": "Reading", "ncessch": "422004007675"}, {"name": "Schuylkill Valley MS", "lat": 40.4462, "lon": -75.9445, "proficiency": 0.241, "district": "Schuylkill Valley SD", "city": "Leesport", "ncessch": "422097006888"}, {"name": "Twin Valley MS", "lat": 40.1645, "lon": -75.8612, "proficiency": 0.455, "district": "Twin Valley SD", "city": "Elverson", "ncessch": "422400009991"}, {"name": "Wilson Southern MS", "lat": 40.317836, "lon": -76.011133, "proficiency": 0.253, "district": "Wilson SD", "city": "West Lawn", "ncessch": "422658006982"}, {"name": "Wilson West MS", "lat": 40.337161, "lon": -76.047911, "proficiency": 0.424, "district": "Wilson SD", "city": "West Lawn", "ncessch": "422658006981"}, {"name": "Wyomissing Area JSHS", "lat": 40.3244, "lon": -75.9713, "proficiency": 0.283, "district": "Wyomissing Area SD", "city": "Wyomissing", "ncessch": "422676000887"}, {"name": "Altoona Area Jr HS", "lat": 40.511581, "lon": -78.399197, "proficiency": 0.28, "district": "Altoona Area SD", "city": "Altoona", "ncessch": "420234006850"}, {"name": "Bellwood Antis MS", "lat": 40.594959, "lon": -78.331819, "proficiency": 0.308, "district": "Bellwood-Antis SD", "city": "Bellwood", "ncessch": "420330007170"}, {"name": "Claysburg-Kimmel Jr HS", "lat": 40.284906, "lon": -78.452317, "proficiency": 0.206, "district": "Claysburg-Kimmel SD", "city": "Claysburg", "ncessch": "420612010021"}, {"name": "Hollidaysburg Area JHS", "lat": 40.4364, "lon": -78.3948, "proficiency": 0.443, "district": "Hollidaysburg Area SD", "city": "Hollidaysburg", "ncessch": "421194000927"}, {"name": "Spring Cove MS", "lat": 40.331163, "lon": -78.3848, "proficiency": 0.174, "district": "Spring Cove SD", "city": "Roaring Spring", "ncessch": "422253005130"}, {"name": "Tyrone Area MS", "lat": 40.6741, "lon": -78.2496, "proficiency": 0.435, "district": "Tyrone Area SD", "city": "Tyrone", "ncessch": "422403000277"}, {"name": "Williamsburg Community JSHS", "lat": 40.4605, "lon": -78.2051, "proficiency": 0.438, "district": "Williamsburg Community SD", "city": "Williamsburg", "ncessch": "422643000951"}, {"name": "Harlan Rowe MS", "lat": 41.9678, "lon": -76.533, "proficiency": 0.331, "district": "Athens Area SD", "city": "Athens", "ncessch": "420267007466"}, {"name": "Canton JSHS", "lat": 41.6574, "lon": -76.8435, "proficiency": 0.38, "district": "Canton Area SD", "city": "Canton", "ncessch": "420492000988"}, {"name": "Northeast Bradford JSHS", "lat": 41.8638, "lon": -76.2357, "proficiency": 0.41, "district": "Northeast Bradford SD", "city": "Rome", "ncessch": "421746000964"}, {"name": "Sayre Area HS", "lat": 41.9815, "lon": -76.5233, "proficiency": 0.203, "district": "Sayre Area SD", "city": "Sayre", "ncessch": "422085000965"}, {"name": "Towanda Area JSHS", "lat": 41.7713, "lon": -76.4515, "proficiency": 0.38, "district": "Towanda Area SD", "city": "Towanda", "ncessch": "422355005208"}, {"name": "Troy Area JSHS", "lat": 41.7889, "lon": -76.7854, "proficiency": 0.229, "district": "Troy Area SD", "city": "Troy", "ncessch": "422379001000"}, {"name": "Wyalusing Valley JSHS", "lat": 41.658636, "lon": -76.256015, "proficiency": 0.241, "district": "Wyalusing Area SD", "city": "Wyalusing", "ncessch": "422670001005"}, {"name": "Cecelia Snyder MS", "lat": 40.1028, "lon": -74.9422, "proficiency": 0.059, "district": "Bensalem Township SD", "city": "Bensalem", "ncessch": "420333006451"}, {"name": "Robert K Shafer MS", "lat": 40.1006, "lon": -74.9386, "proficiency": 0.17, "district": "Bensalem Township SD", "city": "Bensalem", "ncessch": "420333007030"}, {"name": "Bristol MS", "lat": 40.108331, "lon": -74.845074, "proficiency": 0.176, "district": "Bristol Borough SD", "city": "Bristol", "ncessch": "420420000686"}, {"name": "Benjamin Franklin MS", "lat": 40.137225, "lon": -74.855043, "proficiency": 0.069, "district": "Bristol Township SD", "city": "Levittown", "ncessch": "420423001027"}, {"name": "Neil A Armstrong MS", "lat": 40.16572, "lon": -74.854921, "proficiency": 0.069, "district": "Bristol Township SD", "city": "Fairless Hills", "ncessch": "420423007633"}, {"name": "Klinger MS", "lat": 40.1857, "lon": -75.0316, "proficiency": 0.344, "district": "Centennial SD", "city": "Southampton", "ncessch": "420519009937"}, {"name": "Log College MS", "lat": 40.216808, "lon": -75.105895, "proficiency": 0.271, "district": "Centennial SD", "city": "Warminster", "ncessch": "420519009938"}, {"name": "Center for Student Lrng CS Pennsbury", "lat": 40.1485, "lon": -74.8153, "proficiency": 0.0, "district": "Center for Student Learning CS at Pennsbury", "city": "Levittown", "ncessch": "420010000662"}, {"name": "Holicong MS", "lat": 40.3409, "lon": -75.0582, "proficiency": 0.59, "district": "Central Bucks SD", "city": "Doylestown", "ncessch": "420531005307"}, {"name": "Lenape MS", "lat": 40.307119, "lon": -75.142624, "proficiency": 0.369, "district": "Central Bucks SD", "city": "Doylestown", "ncessch": "420531001041"}, {"name": "Tamanend MS", "lat": 40.2553, "lon": -75.1295, "proficiency": 0.399, "district": "Central Bucks SD", "city": "Warrington", "ncessch": "420531001042"}, {"name": "Tohickon MS", "lat": 40.362, "lon": -75.1315, "proficiency": 0.434, "district": "Central Bucks SD", "city": "Doylestown", "ncessch": "420531000643"}, {"name": "Unami MS", "lat": 40.2839, "lon": -75.1974, "proficiency": 0.537, "district": "Central Bucks SD", "city": "Chalfont", "ncessch": "420531004678"}, {"name": "Holland MS", "lat": 40.193962, "lon": -74.969539, "proficiency": 0.41, "district": "Council Rock SD", "city": "Holland", "ncessch": "420696007656"}, {"name": "Newtown MS", "lat": 40.2272, "lon": -74.9498, "proficiency": 0.661, "district": "Council Rock SD", "city": "Newtown", "ncessch": "420696006453"}, {"name": "Morrisville HS", "lat": 40.207942, "lon": -74.7889, "proficiency": 0.089, "district": "Morrisville Borough SD", "city": "Morrisville", "ncessch": "421590007587"}, {"name": "Maple Point MS", "lat": 40.206, "lon": -74.8985, "proficiency": 0.226, "district": "Neshaminy SD", "city": "Langhorne", "ncessch": "421641000103"}, {"name": "Poquessing MS", "lat": 40.1513, "lon": -74.9956, "proficiency": 0.256, "district": "Neshaminy SD", "city": "Feasterville Trevose", "ncessch": "421641001077"}, {"name": "Sandburg MS", "lat": 40.1653, "lon": -74.8846, "proficiency": 0.198, "district": "Neshaminy SD", "city": "Levittown", "ncessch": "421641001076"}, {"name": "New Hope-Solebury MS", "lat": 40.3668, "lon": -74.9586, "proficiency": 0.623, "district": "New Hope-Solebury SD", "city": "New Hope", "ncessch": "421686000381"}, {"name": "Palisades MS", "lat": 40.5223, "lon": -75.2055, "proficiency": 0.267, "district": "Palisades SD", "city": "Kintnersville", "ncessch": "421833010005"}, {"name": "Pennridge Central MS", "lat": 40.3476, "lon": -75.2767, "proficiency": 0.368, "district": "Pennridge SD", "city": "Perkasie", "ncessch": "421875004681"}, {"name": "Pennridge North MS", "lat": 40.3898, "lon": -75.2712, "proficiency": 0.434, "district": "Pennridge SD", "city": "Perkasie", "ncessch": "421875006093"}, {"name": "Pennridge South MS", "lat": 40.3664, "lon": -75.3055, "proficiency": 0.224, "district": "Pennridge SD", "city": "Perkasie", "ncessch": "421875001099"}, {"name": "Charles H Boehm MS", "lat": 40.2091, "lon": -74.8271, "proficiency": 0.429, "district": "Pennsbury SD", "city": "Yardley", "ncessch": "421884009959"}, {"name": "Pennwood MS", "lat": 40.2122, "lon": -74.8233, "proficiency": 0.335, "district": "Pennsbury SD", "city": "Yardley", "ncessch": "421884001116"}, {"name": "William Penn MS", "lat": 40.2115, "lon": -74.8298, "proficiency": 0.386, "district": "Pennsbury SD", "city": "Yardley", "ncessch": "421884001113"}, {"name": "Strayer MS", "lat": 40.431963, "lon": -75.323847, "proficiency": 0.296, "district": "Quakertown Community SD", "city": "Quakertown", "ncessch": "421989004965"}, {"name": "School Lane CS", "lat": 40.079925, "lon": -74.94755, "proficiency": 0.196, "district": "School Lane CS", "city": "Bensalem", "ncessch": "420003000379"}, {"name": "Butler Area IHS", "lat": 40.859008, "lon": -79.915717, "proficiency": 0.315, "district": "Butler Area SD", "city": "Butler", "ncessch": "420459006690"}, {"name": "Karns City HS", "lat": 40.9878, "lon": -79.7265, "proficiency": 0.232, "district": "Karns City Area SD", "city": "Karns City", "ncessch": "420960001154"}, {"name": "Knoch MS", "lat": 40.7483, "lon": -79.826, "proficiency": 0.228, "district": "Knoch SD", "city": "Saxonburg", "ncessch": "422193000198"}, {"name": "Mars Area MS", "lat": 40.695582, "lon": -79.976169, "proficiency": 0.384, "district": "Mars Area SD", "city": "Mars", "ncessch": "421479005363"}, {"name": "Moniteau JSHS", "lat": 41.0589, "lon": -79.8992, "proficiency": 0.141, "district": "Moniteau SD", "city": "West Sunbury", "ncessch": "421710001164"}, {"name": "Ryan Gloyer MS", "lat": 40.8088, "lon": -80.1114, "proficiency": 0.295, "district": "Seneca Valley SD", "city": "Harmony", "ncessch": "422244005311"}, {"name": "Slippery Rock Area MS", "lat": 41.05786, "lon": -80.042229, "proficiency": 0.379, "district": "Slippery Rock Area SD", "city": "Slippery Rock", "ncessch": "422166006647"}, {"name": "Blacklick Valley JSHS", "lat": 40.47819, "lon": -78.835965, "proficiency": 0.167, "district": "Blacklick Valley SD", "city": "Nanty Glo", "ncessch": "420369005135"}, {"name": "Cambria Heights MS", "lat": 40.6335, "lon": -78.6295, "proficiency": 0.474, "district": "Cambria Heights SD", "city": "Patton", "ncessch": "420474001199"}, {"name": "Central Cambria MS", "lat": 40.491604, "lon": -78.742208, "proficiency": 0.579, "district": "Central Cambria SD", "city": "Ebensburg", "ncessch": "420534001202"}, {"name": "Conemaugh Valley JSHS", "lat": 40.3598, "lon": -78.8849, "proficiency": 0.353, "district": "Conemaugh Valley SD", "city": "Johnstown", "ncessch": "420643005136"}, {"name": "Ferndale Area JSHS", "lat": 40.2872, "lon": -78.9161, "proficiency": 0.233, "district": "Ferndale Area SD", "city": "Johnstown", "ncessch": "420975001225"}, {"name": "Forest Hills JSHS", "lat": 40.332129, "lon": -78.754241, "proficiency": 0.333, "district": "Forest Hills SD", "city": "Sidman", "ncessch": "420994007586"}, {"name": "Greater Johnstown SHS", "lat": 40.3034, "lon": -78.9096, "proficiency": 0.015, "district": "Greater Johnstown SD", "city": "Johnstown", "ncessch": "421095001251"}, {"name": "Northern Cambria MS", "lat": 40.65664, "lon": -78.789003, "proficiency": 0.436, "district": "Northern Cambria SD", "city": "Northern Cambria", "ncessch": "421761006860"}, {"name": "Penn Cambria MS", "lat": 40.48051, "lon": -78.555645, "proficiency": 0.421, "district": "Penn Cambria SD", "city": "Gallitzin", "ncessch": "421377006990"}, {"name": "Portage Area JSHS", "lat": 40.383, "lon": -78.6654, "proficiency": 0.341, "district": "Portage Area SD", "city": "Portage", "ncessch": "421956001270"}, {"name": "Richland HS", "lat": 40.267159, "lon": -78.840216, "proficiency": 0.519, "district": "Richland SD", "city": "Johnstown", "ncessch": "422025006079"}, {"name": "Westmont Hilltop JSHS", "lat": 40.317446, "lon": -78.978358, "proficiency": 0.216, "district": "Westmont Hilltop SD", "city": "Johnstown", "ncessch": "422613007578"}, {"name": "Cameron County JSHS", "lat": 41.5135, "lon": -78.247, "proficiency": 0.259, "district": "Cameron County SD", "city": "Emporium", "ncessch": "420483001299"}, {"name": "L B Morris El Sch", "lat": 40.882091, "lon": -75.730708, "proficiency": 0.065, "district": "Jim Thorpe Area SD", "city": "Jim Thorpe", "ncessch": "421254006965"}, {"name": "Penn-Kidder Campus", "lat": 41.027718, "lon": -75.585788, "proficiency": 0.276, "district": "Jim Thorpe Area SD", "city": "Albrightsville", "ncessch": "421254000776"}, {"name": "Lehighton Area MS", "lat": 40.834, "lon": -75.7236, "proficiency": 0.209, "district": "Lehighton Area SD", "city": "Lehighton", "ncessch": "421350001314"}, {"name": "Palmerton Area JHS", "lat": 40.8119, "lon": -75.6074, "proficiency": 0.321, "district": "Palmerton Area SD", "city": "Palmerton", "ncessch": "421836007174"}, {"name": "Panther Valley JSHS", "lat": 40.842186, "lon": -75.850406, "proficiency": 0.121, "district": "Panther Valley SD", "city": "Lansford", "ncessch": "421845007560"}, {"name": "Weatherly Area MS", "lat": 40.9389, "lon": -75.8181, "proficiency": 0.25, "district": "Weatherly Area SD", "city": "Weatherly", "ncessch": "422514006838"}, {"name": "Bald Eagle Area JSHS", "lat": 40.9371, "lon": -77.8114, "proficiency": 0.287, "district": "Bald Eagle Area SD", "city": "Wingate", "ncessch": "420291001335"}, {"name": "Bellefonte Area MS", "lat": 40.9131, "lon": -77.7615, "proficiency": 0.349, "district": "Bellefonte Area SD", "city": "Bellefonte", "ncessch": "420324001342"}, {"name": "Centre Learning Community CS", "lat": 40.765015, "lon": -77.88425, "proficiency": 0.421, "district": "Centre Learning Community CS", "city": "State College", "ncessch": "420002300350"}, {"name": "Penns Valley Area JSHS", "lat": 40.8777, "lon": -77.5302, "proficiency": 0.516, "district": "Penns Valley Area SD", "city": "Spring Mills", "ncessch": "421881006231"}, {"name": "Mount Nittany MS", "lat": 40.7865, "lon": -77.8073, "proficiency": 0.468, "district": "State College Area SD", "city": "State College", "ncessch": "422277000154"}, {"name": "Park Forest MS", "lat": 40.8054, "lon": -77.9224, "proficiency": 0.596, "district": "State College Area SD", "city": "State College", "ncessch": "422277006234"}, {"name": "Young Scholars of Central PA CS", "lat": 40.7762, "lon": -77.8749, "proficiency": 0.483, "district": "Young Scholars of Central PA CS", "city": "State College", "ncessch": "420013700879"}, {"name": "21st Century Cyber CS", "lat": 39.98831, "lon": -75.574369, "proficiency": 0.288, "district": "21st Century Cyber CS", "city": "West Chester", "ncessch": "420009100597"}, {"name": "Achievement House CS", "lat": 40.057125, "lon": -75.646654, "proficiency": 0.042, "district": "Achievement House CS", "city": "Exton", "ncessch": "420012800843"}, {"name": "Agora Cyber CS", "lat": 40.100036, "lon": -75.414557, "proficiency": 0.038, "district": "Agora Cyber CS", "city": "King of Prussia", "ncessch": "420014000896"}, {"name": "Avon Grove CS", "lat": 39.824874, "lon": -75.804123, "proficiency": 0.177, "district": "Avon Grove CS", "city": "West Grove", "ncessch": "420010100656"}, {"name": "Coatesville Intermediate HS", "lat": 39.992189, "lon": -75.797715, "proficiency": 0.074, "district": "Coatesville Area SD", "city": "Coatsville", "ncessch": "420624007628"}, {"name": "Collegium CS", "lat": 40.020113, "lon": -75.659885, "proficiency": 0.163, "district": "Collegium CS", "city": "Exton", "ncessch": "420005000485"}, {"name": "Downingtown MS", "lat": 40.0135, "lon": -75.7183, "proficiency": 0.488, "district": "Downingtown Area SD", "city": "Downingtown", "ncessch": "420771000308"}, {"name": "Lionville MS", "lat": 40.048, "lon": -75.6605, "proficiency": 0.497, "district": "Downingtown Area SD", "city": "Exton", "ncessch": "420771000307"}, {"name": "Great Valley MS", "lat": 40.0591, "lon": -75.5646, "proficiency": 0.516, "district": "Great Valley SD", "city": "Malvern", "ncessch": "421087001422"}, {"name": "Insight PA Cyber CS", "lat": 40.056789, "lon": -75.67102, "proficiency": 0.017, "district": "Insight PA Cyber CS", "city": "Exton", "ncessch": "420089807635"}, {"name": "Kennett MS", "lat": 39.7956, "lon": -75.7463, "proficiency": 0.285, "district": "Kennett Consolidated SD", "city": "Landenberg", "ncessch": "421269006834"}, {"name": "Octorara Area JSHS", "lat": 39.9275, "lon": -75.9462, "proficiency": 0.1, "district": "Octorara Area SD", "city": "Atglen", "ncessch": "421803001414"}, {"name": "Owen J Roberts MS", "lat": 40.1769, "lon": -75.653, "proficiency": 0.419, "district": "Owen J Roberts SD", "city": "Pottstown", "ncessch": "421827005010"}, {"name": "Penn's Grove Sch", "lat": 39.77983, "lon": -75.972971, "proficiency": 0.284, "district": "Oxford Area SD", "city": "Oxford", "ncessch": "421830001418"}, {"name": "Pennsylvania Leadership CS", "lat": 39.98925, "lon": -75.555601, "proficiency": 0.278, "district": "Pennsylvania Leadership CS", "city": "West Chester", "ncessch": "420012700837"}, {"name": "Phoenixville Area MS", "lat": 40.119927, "lon": -75.523916, "proficiency": 0.386, "district": "Phoenixville Area SD", "city": "Phoenixville", "ncessch": "421905001425"}, {"name": "Renaissance Academy CS", "lat": 40.141386, "lon": -75.52218, "proficiency": 0.229, "district": "Renaissance Academy CS", "city": "Phoenixville", "ncessch": "420006700511"}, {"name": "Tredyffrin-Easttown MS", "lat": 40.0476, "lon": -75.4477, "proficiency": 0.655, "district": "Tredyffrin-Easttown SD", "city": "Berwyn", "ncessch": "422364001421"}, {"name": "Valley Forge MS", "lat": 40.0746, "lon": -75.4426, "proficiency": 0.596, "district": "Tredyffrin-Easttown SD", "city": "Wayne", "ncessch": "422364004689"}, {"name": "Charles F Patton MS", "lat": 39.8859, "lon": -75.7199, "proficiency": 0.559, "district": "Unionville-Chadds Ford SD", "city": "Kennett Square", "ncessch": "422421006719"}, {"name": "E N Peirce MS", "lat": 39.9969, "lon": -75.6218, "proficiency": 0.365, "district": "West Chester Area SD", "city": "West Chester", "ncessch": "422529001452"}, {"name": "J R Fugett MS", "lat": 39.98, "lon": -75.5656, "proficiency": 0.373, "district": "West Chester Area SD", "city": "West Chester", "ncessch": "422529005137"}, {"name": "Stetson MS", "lat": 39.9284, "lon": -75.5887, "proficiency": 0.293, "district": "West Chester Area SD", "city": "West Chester", "ncessch": "422529001451"}, {"name": "Allegheny-Clarion Valley HS", "lat": 41.1444, "lon": -79.6752, "proficiency": 0.459, "district": "Allegheny-Clarion Valley SD", "city": "Foxburg", "ncessch": "420231004664"}, {"name": "Clarion Area JSHS", "lat": 41.2187, "lon": -79.3892, "proficiency": 0.347, "district": "Clarion Area SD", "city": "Clarion", "ncessch": "420606001475"}, {"name": "Clarion-Limestone Area JSHS", "lat": 41.184158, "lon": -79.276347, "proficiency": 0.333, "district": "Clarion-Limestone Area SD", "city": "Strattanville", "ncessch": "420609001480"}, {"name": "Keystone JSHS", "lat": 41.231995, "lon": -79.530581, "proficiency": 0.308, "district": "Keystone SD", "city": "Knox", "ncessch": "421272001486"}, {"name": "North Clarion Co JSHS", "lat": 41.3943, "lon": -79.3559, "proficiency": 0.372, "district": "North Clarion County SD", "city": "Tionesta", "ncessch": "421713001489"}, {"name": "Redbank Valley HS", "lat": 41.0045, "lon": -79.3173, "proficiency": 0.2, "district": "Redbank Valley SD", "city": "New Bethlehem", "ncessch": "422013001495"}, {"name": "Union HS", "lat": 41.034306, "lon": -79.500697, "proficiency": 0.188, "district": "Union SD", "city": "Rimersburg", "ncessch": "422412001501"}, {"name": "Clearfield Area JSHS", "lat": 40.99282, "lon": -78.482745, "proficiency": 0.255, "district": "Clearfield Area SD", "city": "Clearfield", "ncessch": "420615006236"}, {"name": "Curwensville Area JSHS", "lat": 40.967693, "lon": -78.518925, "proficiency": 0.538, "district": "Curwensville Area SD", "city": "Curwensville", "ncessch": "420714001529"}, {"name": "DuBois Area MS", "lat": 41.1232, "lon": -78.7548, "proficiency": 0.367, "district": "DuBois Area SD", "city": "DuBois", "ncessch": "420783001541"}, {"name": "Glendale JSHS", "lat": 40.700597, "lon": -78.541223, "proficiency": 0.214, "district": "Glendale SD", "city": "Flinton", "ncessch": "421083005219"}, {"name": "Harmony Area JSHS", "lat": 40.77837, "lon": -78.726951, "proficiency": 0.333, "district": "Harmony Area SD", "city": "Westover", "ncessch": "421152007545"}, {"name": "Moshannon Valley JSHS", "lat": 40.8296, "lon": -78.4028, "proficiency": 0.273, "district": "Moshannon Valley SD", "city": "Houtzdale", "ncessch": "421596001550"}, {"name": "Philipsburg-Osceola Area MS", "lat": 40.8881, "lon": -78.2364, "proficiency": 0.252, "district": "Philipsburg-Osceola Area SD", "city": "Philipsburg", "ncessch": "421902007475"}, {"name": "West Branch MS", "lat": 40.979198, "lon": -78.203084, "proficiency": 0.333, "district": "West Branch Area SD", "city": "Morrisdale", "ncessch": "422523007672"}, {"name": "Bucktail Area MS", "lat": 41.3363, "lon": -77.7084, "proficiency": 0.19, "district": "Keystone Central SD", "city": "Renovo", "ncessch": "421272500797"}, {"name": "Central Mountain MS", "lat": 41.1076, "lon": -77.4948, "proficiency": 0.167, "district": "Keystone Central SD", "city": "Mill Hall", "ncessch": "421272500449"}, {"name": "Sugar Valley Rural CS", "lat": 41.0346, "lon": -77.2977, "proficiency": 0.108, "district": "Sugar Valley Rural CS", "city": "Loganton", "ncessch": "420006300510"}, {"name": "Benton Area MS", "lat": 41.19781, "lon": -76.380561, "proficiency": 0.135, "district": "Benton Area SD", "city": "Benton", "ncessch": "420339007644"}, {"name": "Berwick Area MS", "lat": 41.066834, "lon": -76.227492, "proficiency": 0.23, "district": "Berwick Area SD", "city": "Berwick", "ncessch": "420348006808"}, {"name": "Bloomsburg Area MS", "lat": 40.990655, "lon": -76.455471, "proficiency": 0.356, "district": "Bloomsburg Area SD", "city": "Bloomsburg", "ncessch": "420384001611"}, {"name": "Central Columbia MS", "lat": 41.022651, "lon": -76.366681, "proficiency": 0.561, "district": "Central Columbia SD", "city": "Bloomsburg", "ncessch": "420537005390"}, {"name": "Millville Area JSHS", "lat": 41.1238, "lon": -76.5269, "proficiency": 0.46, "district": "Millville Area SD", "city": "Millville", "ncessch": "421545001623"}, {"name": "Southern Columbia MS", "lat": 40.9048, "lon": -76.4954, "proficiency": 0.313, "district": "Southern Columbia Area SD", "city": "Catawissa", "ncessch": "422226000558"}, {"name": "Conneaut Valley MS", "lat": 41.7758, "lon": -80.3628, "proficiency": 0.321, "district": "Conneaut SD", "city": "Conneautville", "ncessch": "420659007431"}, {"name": "Cochranton JSHS", "lat": 41.5234, "lon": -80.0538, "proficiency": 0.293, "district": "Crawford Central SD", "city": "Cochranton", "ncessch": "420708001632"}, {"name": "Meadville MS", "lat": 41.6346, "lon": -80.128, "proficiency": 0.239, "district": "Crawford Central SD", "city": "Meadville", "ncessch": "420708001653"}, {"name": "Cambridge Springs JSHS", "lat": 41.799486, "lon": -80.067252, "proficiency": 0.218, "district": "Penncrest SD", "city": "Cambridge Springs", "ncessch": "421874001629"}, {"name": "Maplewood JSHS", "lat": 41.655, "lon": -79.9389, "proficiency": 0.136, "district": "Penncrest SD", "city": "Guys Mills", "ncessch": "421874006942"}, {"name": "Saegertown JSHS", "lat": 41.7235, "lon": -80.1667, "proficiency": 0.283, "district": "Penncrest SD", "city": "Saegertown", "ncessch": "421874006136"}, {"name": "Big Spring MS", "lat": 40.175328, "lon": -77.382808, "proficiency": 0.361, "district": "Big Spring SD", "city": "Newville", "ncessch": "420366006326"}, {"name": "Camp Hill MS", "lat": 40.2386, "lon": -76.9258, "proficiency": 0.41, "district": "Camp Hill SD", "city": "Camp Hill", "ncessch": "420486000289"}, {"name": "Lamberton MS", "lat": 40.1908, "lon": -77.1881, "proficiency": 0.31, "district": "Carlisle Area SD", "city": "Carlisle", "ncessch": "420501007011"}, {"name": "Wilson MS", "lat": 40.2125, "lon": -77.2062, "proficiency": 0.183, "district": "Carlisle Area SD", "city": "Carlisle", "ncessch": "420501007010"}, {"name": "Eagle View MS", "lat": 40.244, "lon": -77.063316, "proficiency": 0.519, "district": "Cumberland Valley SD", "city": "Mechanicsburg", "ncessch": "420711006714"}, {"name": "Mountain View MS", "lat": 40.268567, "lon": -77.009583, "proficiency": 0.535, "district": "Cumberland Valley SD", "city": "Mechanicsburg", "ncessch": "420711004849"}, {"name": "East Pennsboro Area MS", "lat": 40.299459, "lon": -76.941356, "proficiency": 0.159, "district": "East Pennsboro Area SD", "city": "Enola", "ncessch": "420858005220"}, {"name": "Mechanicsburg MS", "lat": 40.1847, "lon": -76.9943, "proficiency": 0.279, "district": "Mechanicsburg Area SD", "city": "Mechanicsburg", "ncessch": "421503001715"}, {"name": "Shippensburg Area MS", "lat": 40.0405, "lon": -77.5403, "proficiency": 0.253, "district": "Shippensburg Area SD", "city": "Shippensburg", "ncessch": "422157001729"}, {"name": "Yellow Breeches MS", "lat": 40.15235, "lon": -77.139423, "proficiency": 0.345, "district": "South Middleton SD", "city": "Boiling Springs", "ncessch": "422205000455"}, {"name": "Central Dauphin East MS", "lat": 40.2856, "lon": -76.7954, "proficiency": 0.109, "district": "Central Dauphin SD", "city": "Harrisburg", "ncessch": "420540001744"}, {"name": "Central Dauphin MS", "lat": 40.2937, "lon": -76.8107, "proficiency": 0.318, "district": "Central Dauphin SD", "city": "Harrisburg", "ncessch": "420540000838"}, {"name": "Linglestown MS", "lat": 40.3386, "lon": -76.7947, "proficiency": 0.302, "district": "Central Dauphin SD", "city": "Harrisburg", "ncessch": "420540006783"}, {"name": "Swatara MS", "lat": 40.2396, "lon": -76.8179, "proficiency": 0.072, "district": "Central Dauphin SD", "city": "Steelton", "ncessch": "420540001742"}, {"name": "Commonwealth Charter Academy CS", "lat": 40.292337, "lon": -76.883256, "proficiency": 0.108, "district": "Commonwealth Charter Academy CS", "city": "Harrisburg", "ncessch": "420011900756"}, {"name": "Hershey MS", "lat": 40.279839, "lon": -76.640912, "proficiency": 0.617, "district": "Derry Township SD", "city": "Hershey", "ncessch": "420759006678"}, {"name": "Halifax Area MS", "lat": 40.462107, "lon": -76.929034, "proficiency": 0.412, "district": "Halifax Area SD", "city": "Halifax", "ncessch": "421131006331"}, {"name": "Camp Curtin Academy", "lat": 40.29271, "lon": -76.896031, "proficiency": 0.0, "district": "Harrisburg City SD", "city": "Harrisburg", "ncessch": "421158007485"}, {"name": "Cougar Academy", "lat": 40.270678, "lon": -76.867574, "proficiency": 0.057, "district": "Harrisburg City SD", "city": "Harrisburg", "ncessch": "421158007583"}, {"name": "Marshall Math Science Academy", "lat": 40.26787, "lon": -76.846444, "proficiency": 0.151, "district": "Harrisburg City SD", "city": "Harrisburg", "ncessch": "421158000981"}, {"name": "Rowland Academy", "lat": 40.262, "lon": -76.8593, "proficiency": 0.0, "district": "Harrisburg City SD", "city": "Harrisburg", "ncessch": "421158000456"}, {"name": "Infinity CS", "lat": 40.292558, "lon": -76.797387, "proficiency": 0.76, "district": "Infinity CS", "city": "Harrisburg", "ncessch": "420011800724"}, {"name": "Lower Dauphin MS", "lat": 40.2621, "lon": -76.6969, "proficiency": 0.367, "district": "Lower Dauphin SD", "city": "Hummelstown", "ncessch": "421410000122"}, {"name": "Middletown Area MS", "lat": 40.212744, "lon": -76.745623, "proficiency": 0.175, "district": "Middletown Area SD", "city": "Middletown", "ncessch": "421524001785"}, {"name": "Millersburg Area MS", "lat": 40.543071, "lon": -76.951909, "proficiency": 0.255, "district": "Millersburg Area SD", "city": "Millersburg", "ncessch": "421536006682"}, {"name": "Reach Cyber CS", "lat": 40.271, "lon": -76.813771, "proficiency": 0.043, "district": "Reach Cyber CS", "city": "Harrisburg", "ncessch": "420088707580"}, {"name": "Steelton-Highspire HS", "lat": 40.2388, "lon": -76.83, "proficiency": 0.013, "district": "Steelton-Highspire SD", "city": "Steelton", "ncessch": "422280001801"}, {"name": "Susquehanna Twp MS", "lat": 40.2806, "lon": -76.8343, "proficiency": 0.103, "district": "Susquehanna Township SD", "city": "Harrisburg", "ncessch": "422301001805"}, {"name": "Upper Dauphin Area MS", "lat": 40.5664, "lon": -76.7565, "proficiency": 0.261, "district": "Upper Dauphin Area SD", "city": "Lykens", "ncessch": "422436006339"}, {"name": "Chester Charter Scholars Academy CS", "lat": 39.838805, "lon": -75.399428, "proficiency": 0.02, "district": "Chester Charter Scholars Academy CS", "city": "Chester", "ncessch": "420085707437"}, {"name": "Chester Community CS", "lat": 39.850524, "lon": -75.356379, "proficiency": 0.02, "district": "Chester Community CS", "city": "Chester", "ncessch": "420003500388"}, {"name": "Edgmont Scholars Academy", "lat": 39.859158, "lon": -75.362475, "proficiency": 0.0, "district": "Chester-Upland SD", "city": "Chester", "ncessch": "420586010026"}, {"name": "STEM at Showalter", "lat": 39.8477, "lon": -75.3776, "proficiency": 0.095, "district": "Chester-Upland SD", "city": "Chester", "ncessch": "420586007499"}, {"name": "Toby Farms Intermediate School", "lat": 39.858449, "lon": -75.391652, "proficiency": 0.025, "district": "Chester-Upland SD", "city": "Chester Twp", "ncessch": "420586007510"}, {"name": "Chichester MS", "lat": 39.832068, "lon": -75.434659, "proficiency": 0.149, "district": "Chichester SD", "city": "Boothwyn", "ncessch": "420591009943"}, {"name": "Garnet Valley MS", "lat": 39.8689, "lon": -75.5138, "proficiency": 0.569, "district": "Garnet Valley SD", "city": "Glen Mills", "ncessch": "421059010013"}, {"name": "Haverford MS", "lat": 39.9835, "lon": -75.3055, "proficiency": 0.561, "district": "Haverford Township SD", "city": "Havertown", "ncessch": "421167001878"}, {"name": "Glenolden Sch", "lat": 39.9045, "lon": -75.2964, "proficiency": 0.153, "district": "Interboro SD", "city": "Glenolden", "ncessch": "421217001881"}, {"name": "Norwood Sch", "lat": 39.8851, "lon": -75.2968, "proficiency": 0.297, "district": "Interboro SD", "city": "Norwood", "ncessch": "421217001883"}, {"name": "Prospect Park Sch", "lat": 39.8868, "lon": -75.3057, "proficiency": 0.239, "district": "Interboro SD", "city": "Prospect Park", "ncessch": "421217006508"}, {"name": "Tinicum Sch", "lat": 39.8701, "lon": -75.2911, "proficiency": 0.206, "district": "Interboro SD", "city": "Essington", "ncessch": "421217004847"}, {"name": "Paxon Hollow MS", "lat": 39.9574, "lon": -75.3641, "proficiency": 0.397, "district": "Marple Newtown SD", "city": "Broomall", "ncessch": "421476001901"}, {"name": "Northley MS", "lat": 39.86, "lon": -75.4121, "proficiency": 0.182, "district": "Penn-Delco SD", "city": "Aston", "ncessch": "421858005143"}, {"name": "Radnor MS", "lat": 40.041736, "lon": -75.386243, "proficiency": 0.754, "district": "Radnor Township SD", "city": "Wayne", "ncessch": "421992006511"}, {"name": "Ridley MS", "lat": 39.878674, "lon": -75.330129, "proficiency": 0.217, "district": "Ridley SD", "city": "Ridley Park", "ncessch": "422037007299"}, {"name": "Springton Lake MS", "lat": 39.9405, "lon": -75.3988, "proficiency": 0.562, "district": "Rose Tree Media SD", "city": "Media", "ncessch": "422055006625"}, {"name": "Darby Twp Sch", "lat": 39.91, "lon": -75.2967, "proficiency": 0.184, "district": "Southeast Delco SD", "city": "Glenolden", "ncessch": "422240001861"}, {"name": "Delcroft Sch", "lat": 39.8902, "lon": -75.2814, "proficiency": 0.068, "district": "Southeast Delco SD", "city": "Folcroft", "ncessch": "422240006505"}, {"name": "Harris Sch", "lat": 39.916, "lon": -75.2781, "proficiency": 0.165, "district": "Southeast Delco SD", "city": "Collingdale", "ncessch": "422240006501"}, {"name": "Sharon Hill Sch", "lat": 39.9095, "lon": -75.2683, "proficiency": 0.094, "district": "Southeast Delco SD", "city": "Sharon Hill", "ncessch": "422240001943"}, {"name": "Richardson MS", "lat": 39.9249, "lon": -75.3428, "proficiency": 0.511, "district": "Springfield SD", "city": "Springfield", "ncessch": "422260001949"}, {"name": "Beverly Hills MS", "lat": 39.9549, "lon": -75.2719, "proficiency": 0.087, "district": "Upper Darby SD", "city": "Upper Darby", "ncessch": "422432001970"}, {"name": "Drexel Hill MS", "lat": 39.957, "lon": -75.2976, "proficiency": 0.128, "district": "Upper Darby SD", "city": "Drexel Hill", "ncessch": "422432001971"}, {"name": "Strath Haven MS", "lat": 39.8954, "lon": -75.3702, "proficiency": 0.469, "district": "Wallingford-Swarthmore SD", "city": "Wallingford", "ncessch": "422479001908"}, {"name": "Penn Wood MS", "lat": 39.9203, "lon": -75.2571, "proficiency": 0.074, "district": "William Penn SD", "city": "Darby", "ncessch": "422639000943"}, {"name": "Johnsonburg Area HS", "lat": 41.506804, "lon": -78.683671, "proficiency": 0.525, "district": "Johnsonburg Area SD", "city": "Johnsonburg", "ncessch": "421257006218"}, {"name": "Ridgway Area MS", "lat": 41.432801, "lon": -78.719153, "proficiency": 0.441, "district": "Ridgway Area SD", "city": "Ridgway", "ncessch": "422031006805"}, {"name": "St Marys Area MS", "lat": 41.4019, "lon": -78.5483, "proficiency": 0.118, "district": "Saint Marys Area SD", "city": "Saint Marys", "ncessch": "422064001992"}, {"name": "Corry Area MS", "lat": 41.918214, "lon": -79.625669, "proficiency": 0.198, "district": "Corry Area SD", "city": "Corry", "ncessch": "420686000795"}, {"name": "East MS", "lat": 42.13738, "lon": -80.061501, "proficiency": 0.016, "district": "Erie City SD", "city": "Erie", "ncessch": "420930007610"}, {"name": "Strong Vincent MS", "lat": 42.117373, "lon": -80.113403, "proficiency": 0.154, "district": "Erie City SD", "city": "Erie", "ncessch": "420930007609"}, {"name": "Woodrow Wilson MS", "lat": 42.1166, "lon": -80.0566, "proficiency": 0.09, "district": "Erie City SD", "city": "Erie", "ncessch": "420930002025"}, {"name": "Fairview MS", "lat": 42.025, "lon": -80.2497, "proficiency": 0.628, "district": "Fairview SD", "city": "Fairview", "ncessch": "420957002032"}, {"name": "Fort LeBoeuf MS", "lat": 41.9511, "lon": -79.9868, "proficiency": 0.482, "district": "Fort LeBoeuf SD", "city": "Waterford", "ncessch": "420999005328"}, {"name": "James W Parker MS", "lat": 41.9153, "lon": -80.1211, "proficiency": 0.538, "district": "General McLane SD", "city": "Edinboro", "ncessch": "421065005225"}, {"name": "Rice Avenue MS", "lat": 42.0086, "lon": -80.3298, "proficiency": 0.333, "district": "Girard SD", "city": "Girard", "ncessch": "421074006777"}, {"name": "Harbor Creek Junior HS", "lat": 42.1624, "lon": -79.9544, "proficiency": 0.446, "district": "Harbor Creek SD", "city": "Harborcreek", "ncessch": "421149002048"}, {"name": "Iroquois JSHS", "lat": 42.1507, "lon": -80.0109, "proficiency": 0.338, "district": "Iroquois SD", "city": "Erie", "ncessch": "421221004817"}, {"name": "James S Wilson MS", "lat": 42.078954, "lon": -80.076217, "proficiency": 0.528, "district": "Millcreek Township SD", "city": "Erie", "ncessch": "421533004954"}, {"name": "Walnut Creek MS", "lat": 42.0437, "lon": -80.1722, "proficiency": 0.47, "district": "Millcreek Township SD", "city": "Fairview", "ncessch": "421533000085"}, {"name": "Westlake MS", "lat": 42.0895, "lon": -80.1836, "proficiency": 0.299, "district": "Millcreek Township SD", "city": "Erie", "ncessch": "421533002062"}, {"name": "Montessori Regional CS", "lat": 42.105442, "lon": -80.137246, "proficiency": 0.167, "district": "Montessori Regional CS", "city": "Erie", "ncessch": "420012400818"}, {"name": "North East MS", "lat": 42.2238, "lon": -79.8269, "proficiency": 0.458, "district": "North East SD", "city": "North East", "ncessch": "421716000043"}, {"name": "Northwestern MS", "lat": 41.887777, "lon": -80.353903, "proficiency": 0.228, "district": "Northwestern SD", "city": "Albion", "ncessch": "421788006146"}, {"name": "Perseus House CS of Excellence", "lat": 42.12031, "lon": -80.080041, "proficiency": 0.049, "district": "Perseus House CS of Excellence", "city": "Erie", "ncessch": "420011500738"}, {"name": "Robert Benjamin Wiley Community CS", "lat": 42.1422, "lon": -80.0548, "proficiency": 0.196, "district": "Robert Benjamin Wiley Community CS", "city": "Erie", "ncessch": "420002000342"}, {"name": "Union City MS", "lat": 41.89, "lon": -79.8383, "proficiency": 0.282, "district": "Union City Area SD", "city": "Union City", "ncessch": "422409009966"}, {"name": "Wattsburg Area MS", "lat": 42.054, "lon": -79.9036, "proficiency": 0.544, "district": "Wattsburg Area SD", "city": "Erie", "ncessch": "422508006654"}, {"name": "Albert Gallatin North MS", "lat": 39.884972, "lon": -79.871932, "proficiency": 0.35, "district": "Albert Gallatin Area SD", "city": "McClellandtown", "ncessch": "420210000407"}, {"name": "Albert Gallatin South MS", "lat": 39.7783, "lon": -79.9185, "proficiency": 0.368, "district": "Albert Gallatin Area SD", "city": "Point Marion", "ncessch": "420210000408"}, {"name": "Brownsville Area MS", "lat": 40.007569, "lon": -79.893388, "proficiency": 0.108, "district": "Brownsville Area SD", "city": "Brownsville", "ncessch": "420408002154"}, {"name": "Connellsville Area MS", "lat": 40.0224, "lon": -79.5703, "proficiency": 0.269, "district": "Connellsville Area SD", "city": "Connellsville", "ncessch": "420666002105"}, {"name": "Frazier MS", "lat": 40.088132, "lon": -79.754155, "proficiency": 0.111, "district": "Frazier SD", "city": "Perryopolis", "ncessch": "421035007203"}, {"name": "Laurel Highlands MS", "lat": 39.8937, "lon": -79.7531, "proficiency": 0.205, "district": "Laurel Highlands SD", "city": "Uniontown", "ncessch": "421332005146"}, {"name": "A J McMullen Sch", "lat": 39.7742, "lon": -79.4866, "proficiency": 0.361, "district": "Uniontown Area SD", "city": "Markleysburg", "ncessch": "422415006933"}, {"name": "Ben Franklin Sch", "lat": 39.8915, "lon": -79.7335, "proficiency": 0.074, "district": "Uniontown Area SD", "city": "Uniontown", "ncessch": "422415002182"}, {"name": "Lafayette MS", "lat": 39.901383, "lon": -79.70594, "proficiency": 0.314, "district": "Uniontown Area SD", "city": "Uniontown", "ncessch": "422415006101"}, {"name": "West Forest JSHS", "lat": 41.545119, "lon": -79.432719, "proficiency": 0.071, "district": "Forest Area SD", "city": "Tionesta", "ncessch": "420828006161"}, {"name": "Chambersburg Area MS - North", "lat": 39.956, "lon": -77.6362, "proficiency": 0.267, "district": "Chambersburg Area SD", "city": "Chambersburg", "ncessch": "420555002190"}, {"name": "Chambersburg Area MS - South", "lat": 39.9237, "lon": -77.6403, "proficiency": 0.329, "district": "Chambersburg Area SD", "city": "Chambersburg", "ncessch": "420555006615"}, {"name": "Fannett-Metal MS", "lat": 40.119719, "lon": -77.783929, "proficiency": 0.121, "district": "Fannett-Metal SD", "city": "Willow Hill", "ncessch": "420966000283"}, {"name": "Greencastle-Antrim MS", "lat": 39.7831, "lon": -77.7242, "proficiency": 0.414, "district": "Greencastle-Antrim SD", "city": "Greencastle", "ncessch": "421101005117"}, {"name": "James Buchanan MS", "lat": 39.850133, "lon": -77.897146, "proficiency": 0.3, "district": "Tuscarora SD", "city": "Mercersburg", "ncessch": "422274006281"}, {"name": "Waynesboro Area MS", "lat": 39.746974, "lon": -77.567678, "proficiency": 0.308, "district": "Waynesboro Area SD", "city": "Waynesboro", "ncessch": "422511007619"}, {"name": "McConnellsburg MS", "lat": 39.928452, "lon": -77.997576, "proficiency": 0.362, "district": "Central Fulton SD", "city": "McConnellsburg", "ncessch": "421485000673"}, {"name": "Forbes Road JSHS", "lat": 40.0831, "lon": -78.0655, "proficiency": 0.207, "district": "Forbes Road SD", "city": "Waterfall", "ncessch": "420987002246"}, {"name": "Southern Fulton JSHS", "lat": 39.7537, "lon": -78.1877, "proficiency": 0.185, "district": "Southern Fulton SD", "city": "Warfordsburg", "ncessch": "422229002253"}, {"name": "Carmichaels Area MS", "lat": 39.897103, "lon": -79.978369, "proficiency": 0.181, "district": "Carmichaels Area SD", "city": "Carmichaels", "ncessch": "420507007550"}, {"name": "Jefferson-Morgan MS/HS", "lat": 39.9284, "lon": -80.0649, "proficiency": 0.377, "district": "Jefferson-Morgan SD", "city": "Jefferson", "ncessch": "421239002280"}, {"name": "Mapletown JSHS", "lat": 39.8041, "lon": -79.9384, "proficiency": 0.323, "district": "Southeastern Greene SD", "city": "Greensboro", "ncessch": "422220002284"}, {"name": "West Greene JSHS", "lat": 39.867452, "lon": -80.282469, "proficiency": 0.021, "district": "West Greene SD", "city": "Waynesburg", "ncessch": "422544007638"}, {"name": "Huntingdon Area MS", "lat": 40.5046, "lon": -78.0115, "proficiency": 0.35, "district": "Huntingdon Area SD", "city": "Huntingdon", "ncessch": "421209005333"}, {"name": "Juniata Valley JSHS", "lat": 40.563, "lon": -78.0764, "proficiency": 0.051, "district": "Juniata Valley SD", "city": "Alexandria", "ncessch": "421263002308"}, {"name": "Mount Union Area JHS", "lat": 40.3898, "lon": -77.8762, "proficiency": 0.082, "district": "Mount Union Area SD", "city": "Mount Union", "ncessch": "421602002297"}, {"name": "Southern Huntingdon Co HS/MS", "lat": 40.214735, "lon": -77.923907, "proficiency": 0.117, "district": "Southern Huntingdon County SD", "city": "Three Springs", "ncessch": "422232002313"}, {"name": "Homer-Center JSHS", "lat": 40.532219, "lon": -79.158615, "proficiency": 0.619, "district": "Homer-Center SD", "city": "Homer City", "ncessch": "421329002331"}, {"name": "Indiana Area JHS", "lat": 40.6267, "lon": -79.1475, "proficiency": 0.452, "district": "Indiana Area SD", "city": "Indiana", "ncessch": "421215002324"}, {"name": "Marion Center Area JR/SR HS", "lat": 40.7696, "lon": -79.0555, "proficiency": 0.259, "district": "Marion Center Area SD", "city": "Marion Center", "ncessch": "421473002339"}, {"name": "Penns Manor Area JSHS", "lat": 40.640531, "lon": -78.944617, "proficiency": 0.235, "district": "Penns Manor Area SD", "city": "Clymer", "ncessch": "421878002345"}, {"name": "Purchase Line JSHS", "lat": 40.7352, "lon": -78.9173, "proficiency": 0.125, "district": "Purchase Line SD", "city": "Commodore", "ncessch": "421983002350"}, {"name": "River Valley MS", "lat": 40.449199, "lon": -79.218909, "proficiency": 0.296, "district": "River Valley SD", "city": "Blairsville", "ncessch": "420375007705"}, {"name": "United JSHS", "lat": 40.4661, "lon": -79.045, "proficiency": 0.357, "district": "United SD", "city": "Armagh", "ncessch": "422424002358"}, {"name": "Brockway Area JSHS", "lat": 41.251239, "lon": -78.804495, "proficiency": 0.395, "district": "Brockway Area SD", "city": "Brockway", "ncessch": "420426002362"}, {"name": "Brookville JSHS", "lat": 41.1731, "lon": -79.0865, "proficiency": 0.242, "district": "Brookville Area SD", "city": "Brookville", "ncessch": "420432006162"}, {"name": "Punxsutawney Area HS", "lat": 40.951732, "lon": -78.977802, "proficiency": 0.404, "district": "Punxsutawney Area SD", "city": "Punxsutawney", "ncessch": "421980006165"}, {"name": "East Juniata JSHS", "lat": 40.658393, "lon": -77.216905, "proficiency": 0.159, "district": "Juniata County SD", "city": "McAlisterville", "ncessch": "421260002394"}, {"name": "Tuscarora MS", "lat": 40.564432, "lon": -77.394551, "proficiency": 0.33, "district": "Juniata County SD", "city": "Mifflintown", "ncessch": "421260007276"}, {"name": "Abington Heights MS", "lat": 41.4746, "lon": -75.7514, "proficiency": 0.383, "district": "Abington Heights SD", "city": "Clarks Summit", "ncessch": "420201006839"}, {"name": "Carbondale Area JSHS", "lat": 41.568082, "lon": -75.512423, "proficiency": 0.175, "district": "Carbondale Area SD", "city": "Carbondale", "ncessch": "420498002420"}, {"name": "Dunmore JSHS", "lat": 41.428464, "lon": -75.633869, "proficiency": 0.31, "district": "Dunmore SD", "city": "Dunmore", "ncessch": "420798007540"}, {"name": "Howard Gardner Multiple Intelligence CS", "lat": 41.383199, "lon": -75.648122, "proficiency": 0.147, "district": "Howard Gardner Multiple Intelligence CS", "city": "Scranton", "ncessch": "420086707435"}, {"name": "Lakeland JSHS", "lat": 41.559628, "lon": -75.604702, "proficiency": 0.12, "district": "Lakeland SD", "city": "Scott Township", "ncessch": "421305006404"}, {"name": "Mid Valley Secondary Center", "lat": 41.448696, "lon": -75.601601, "proficiency": 0.429, "district": "Mid Valley SD", "city": "Throop", "ncessch": "421517007518"}, {"name": "North Pocono MS", "lat": 41.336452, "lon": -75.529362, "proficiency": 0.305, "district": "North Pocono SD", "city": "Moscow", "ncessch": "421731005233"}, {"name": "Old Forge JSHS", "lat": 41.3714, "lon": -75.7415, "proficiency": 0.171, "district": "Old Forge SD", "city": "Old Forge", "ncessch": "421812002449"}, {"name": "Riverside JSHS", "lat": 41.3812, "lon": -75.7194, "proficiency": 0.389, "district": "Riverside SD", "city": "Taylor", "ncessch": "422325002496"}, {"name": "Northeast Intrmd Sch", "lat": 41.414203, "lon": -75.654991, "proficiency": 0.042, "district": "Scranton SD", "city": "Scranton", "ncessch": "422109000612"}, {"name": "Scranton HS", "lat": 41.4181, "lon": -75.6689, "proficiency": 0.455, "district": "Scranton SD", "city": "Scranton", "ncessch": "422109006413"}, {"name": "South Scranton Intrmd Sch", "lat": 41.3978, "lon": -75.6709, "proficiency": 0.041, "district": "Scranton SD", "city": "Scranton", "ncessch": "422109002487"}, {"name": "West Scranton Intrmd Sch", "lat": 41.4088, "lon": -75.6916, "proficiency": 0.05, "district": "Scranton SD", "city": "Scranton", "ncessch": "422109006791"}, {"name": "Valley View MS", "lat": 41.499132, "lon": -75.55746, "proficiency": 0.184, "district": "Valley View SD", "city": "Archbald", "ncessch": "422465009969"}, {"name": "Cocalico MS", "lat": 40.2288, "lon": -76.1485, "proficiency": 0.395, "district": "Cocalico SD", "city": "Denver", "ncessch": "420627006289"}, {"name": "Columbia MS Hill Campus", "lat": 40.045752, "lon": -76.497435, "proficiency": 0.061, "district": "Columbia Borough SD", "city": "Columbia", "ncessch": "420636010023"}, {"name": "Gerald G Huesken MS", "lat": 40.047272, "lon": -76.217842, "proficiency": 0.375, "district": "Conestoga Valley SD", "city": "Lancaster", "ncessch": "420648002531"}, {"name": "Donegal JHS", "lat": 40.091989, "lon": -76.518137, "proficiency": 0.392, "district": "Donegal SD", "city": "Mount Joy", "ncessch": "420765007201"}, {"name": "Garden Spot MS", "lat": 40.1108, "lon": -76.0699, "proficiency": 0.323, "district": "Eastern Lancaster County SD", "city": "New Holland", "ncessch": "420882007267"}, {"name": "Elizabethtown Area MS", "lat": 40.155968, "lon": -76.594184, "proficiency": 0.357, "district": "Elizabethtown Area SD", "city": "Elizabethtown", "ncessch": "420912006862"}, {"name": "Ephrata MS", "lat": 40.184634, "lon": -76.194283, "proficiency": 0.413, "district": "Ephrata Area SD", "city": "Ephrata", "ncessch": "420927006712"}, {"name": "Centerville MS", "lat": 40.0647, "lon": -76.395, "proficiency": 0.452, "district": "Hempfield SD", "city": "Lancaster", "ncessch": "421179005055"}, {"name": "Landisville MS", "lat": 40.085586, "lon": -76.415436, "proficiency": 0.469, "district": "Hempfield SD", "city": "Landisville", "ncessch": "421179000118"}, {"name": "Martin Meylin MS", "lat": 39.9937, "lon": -76.2344, "proficiency": 0.495, "district": "Lampeter-Strasburg SD", "city": "Lampeter", "ncessch": "421311006297"}, {"name": "Jackson MS", "lat": 40.03277, "lon": -76.293141, "proficiency": 0.071, "district": "Lancaster SD", "city": "Lancaster", "ncessch": "421314002593"}, {"name": "Lincoln MS", "lat": 40.046872, "lon": -76.285296, "proficiency": 0.146, "district": "Lancaster SD", "city": "Lancaster", "ncessch": "421314002595"}, {"name": "Martin School", "lat": 40.00841, "lon": -76.34021, "proficiency": 0.123, "district": "Lancaster SD", "city": "Lancaster", "ncessch": "421314002599"}, {"name": "Reynolds MS", "lat": 40.041969, "lon": -76.318751, "proficiency": 0.152, "district": "Lancaster SD", "city": "Lancaster", "ncessch": "421314002594"}, {"name": "Wheatland MS", "lat": 40.031894, "lon": -76.32751, "proficiency": 0.142, "district": "Lancaster SD", "city": "Lancaster", "ncessch": "421314002600"}, {"name": "Manheim Central MS", "lat": 40.175289, "lon": -76.386961, "proficiency": 0.367, "district": "Manheim Central SD", "city": "Manheim", "ncessch": "421455006076"}, {"name": "Manheim Twp MS", "lat": 40.1047, "lon": -76.2997, "proficiency": 0.461, "district": "Manheim Township SD", "city": "Lancaster", "ncessch": "421458005114"}, {"name": "Manor Middle School", "lat": 40.0179, "lon": -76.3852, "proficiency": 0.445, "district": "Penn Manor SD", "city": "Lancaster", "ncessch": "421863000119"}, {"name": "Marticville MS", "lat": 39.9244, "lon": -76.3111, "proficiency": 0.506, "district": "Penn Manor SD", "city": "Pequea", "ncessch": "421863005238"}, {"name": "Pequea Valley Intrmd Sch", "lat": 40.0229, "lon": -76.0609, "proficiency": 0.284, "district": "Pequea Valley SD", "city": "Kinzers", "ncessch": "421890006300"}, {"name": "Smith MS", "lat": 39.8952, "lon": -76.1469, "proficiency": 0.158, "district": "Solanco SD", "city": "Quarryville", "ncessch": "422181002657"}, {"name": "Swift MS", "lat": 39.8101, "lon": -76.1582, "proficiency": 0.113, "district": "Solanco SD", "city": "Quarryville", "ncessch": "422181005054"}, {"name": "Warwick MS", "lat": 40.15749, "lon": -76.319709, "proficiency": 0.341, "district": "Warwick SD", "city": "Lititz", "ncessch": "422496005336"}, {"name": "Lincoln JSHS", "lat": 40.8566, "lon": -80.2869, "proficiency": 0.248, "district": "Ellwood City Area SD", "city": "Ellwood City", "ncessch": "420924002675"}, {"name": "Laurel MS", "lat": 41.014431, "lon": -80.260131, "proficiency": 0.38, "district": "Laurel SD", "city": "New Castle", "ncessch": "421338007639"}, {"name": "Mohawk JHS", "lat": 40.979632, "lon": -80.452825, "proficiency": 0.304, "district": "Mohawk Area SD", "city": "New Castle", "ncessch": "421554007605"}, {"name": "Neshannock JSHS", "lat": 41.0663, "lon": -80.3464, "proficiency": 0.253, "district": "Neshannock Township SD", "city": "New Castle", "ncessch": "421644002689"}, {"name": "New Castle JHS", "lat": 41.0048, "lon": -80.3404, "proficiency": 0.075, "district": "New Castle Area SD", "city": "New Castle", "ncessch": "421662007480"}, {"name": "Shenango HS", "lat": 40.9674, "lon": -80.3119, "proficiency": 0.443, "district": "Shenango Area SD", "city": "New Castle", "ncessch": "422151002708"}, {"name": "Union Area MS", "lat": 41.0004, "lon": -80.3845, "proficiency": 0.317, "district": "Union Area SD", "city": "New Castle", "ncessch": "422406007036"}, {"name": "Wilmington Area MS", "lat": 41.1247, "lon": -80.3374, "proficiency": 0.151, "district": "Wilmington Area SD", "city": "New Wilmington", "ncessch": "422652000033"}, {"name": "Annville-Cleona MS", "lat": 40.3244, "lon": -76.5095, "proficiency": 0.301, "district": "Annville-Cleona SD", "city": "Annville", "ncessch": "420249007417"}, {"name": "Cedar Crest MS", "lat": 40.3116, "lon": -76.4014, "proficiency": 0.368, "district": "Cornwall-Lebanon SD", "city": "Lebanon", "ncessch": "420684006301"}, {"name": "Eastern Lebanon Co MS", "lat": 40.3407, "lon": -76.2891, "proficiency": 0.211, "district": "Eastern Lebanon County SD", "city": "Myerstown", "ncessch": "420846006612"}, {"name": "Northern Lebanon SHS", "lat": 40.4349, "lon": -76.4481, "proficiency": 0.288, "district": "Northern Lebanon SD", "city": "Fredericksburg", "ncessch": "421764002760"}, {"name": "Palmyra Area MS", "lat": 40.3051, "lon": -76.5957, "proficiency": 0.546, "district": "Palmyra Area SD", "city": "Palmyra", "ncessch": "421839002765"}, {"name": "Francis D Raub MS", "lat": 40.5943, "lon": -75.4933, "proficiency": 0.015, "district": "Allentown City SD", "city": "Allentown", "ncessch": "420228002792"}, {"name": "Harrison-Morton MS", "lat": 40.6081, "lon": -75.4605, "proficiency": 0.01, "district": "Allentown City SD", "city": "Allentown", "ncessch": "420228002791"}, {"name": "South Mountain MS", "lat": 40.5759, "lon": -75.461, "proficiency": 0.032, "district": "Allentown City SD", "city": "Allentown", "ncessch": "420228002793"}, {"name": "Trexler MS", "lat": 40.6105, "lon": -75.4933, "proficiency": 0.026, "district": "Allentown City SD", "city": "Allentown", "ncessch": "420228004929"}, {"name": "Arts Academy CS", "lat": 40.59, "lon": -75.4179, "proficiency": 0.012, "district": "Arts Academy CS", "city": "Allentown", "ncessch": "420086007470"}, {"name": "Catasauqua MS", "lat": 40.6585, "lon": -75.4642, "proficiency": 0.186, "district": "Catasauqua Area SD", "city": "Catasauqua", "ncessch": "420516002797"}, {"name": "Eyer MS", "lat": 40.5151, "lon": -75.5433, "proficiency": 0.385, "district": "East Penn SD", "city": "Macungie", "ncessch": "420855000377"}, {"name": "Lower Macungie MS", "lat": 40.5501, "lon": -75.573, "proficiency": 0.308, "district": "East Penn SD", "city": "Macungie", "ncessch": "420855000376"}, {"name": "Innovative Arts Academy CS", "lat": 40.65353, "lon": -75.469961, "proficiency": 0.0, "district": "Innovative Arts Academy CS", "city": "Catasauqua", "ncessch": "420089407594"}, {"name": "Northern Lehigh MS", "lat": 40.760605, "lon": -75.610735, "proficiency": 0.223, "district": "Northern Lehigh SD", "city": "Slatington", "ncessch": "421767006829"}, {"name": "Northwestern Lehigh MS", "lat": 40.6849, "lon": -75.7237, "proficiency": 0.255, "district": "Northwestern Lehigh SD", "city": "New Tripoli", "ncessch": "421785000035"}, {"name": "Orefield MS", "lat": 40.6298, "lon": -75.5807, "proficiency": 0.338, "district": "Parkland SD", "city": "Orefield", "ncessch": "421851000478"}, {"name": "Springhouse MS", "lat": 40.6057, "lon": -75.549, "proficiency": 0.547, "district": "Parkland SD", "city": "Allentown", "ncessch": "421851000476"}, {"name": "Roberto Clemente CS", "lat": 40.601105, "lon": -75.464916, "proficiency": 0.05, "district": "Roberto Clemente CS", "city": "Allentown", "ncessch": "420006807636"}, {"name": "Salisbury MS", "lat": 40.56, "lon": -75.503, "proficiency": 0.184, "district": "Salisbury Township SD", "city": "Allentown", "ncessch": "422073005365"}, {"name": "Southern Lehigh MS", "lat": 40.5375, "lon": -75.4006, "proficiency": 0.483, "district": "Southern Lehigh SD", "city": "Center Valley", "ncessch": "422235004808"}, {"name": "Whitehall-Coplay MS", "lat": 40.6464, "lon": -75.5017, "proficiency": 0.261, "district": "Whitehall-Coplay SD", "city": "Whitehall", "ncessch": "422625005241"}, {"name": "Bear Creek Community CS", "lat": 41.187358, "lon": -75.777162, "proficiency": 0.265, "district": "Bear Creek Community CS", "city": "Bear Creek Township", "ncessch": "420012600848"}, {"name": "Crestwood Secondary Campus", "lat": 41.139712, "lon": -75.903415, "proficiency": 0.487, "district": "Crestwood SD", "city": "Mountain Top", "ncessch": "420546007651"}, {"name": "Dallas MS", "lat": 41.3428, "lon": -75.9519, "proficiency": 0.263, "district": "Dallas SD", "city": "Dallas", "ncessch": "420720005150"}, {"name": "Greater Nanticoke Area Ed Ctr", "lat": 41.203071, "lon": -75.990608, "proficiency": 0.138, "district": "Greater Nanticoke Area SD", "city": "Nanticoke", "ncessch": "421629007649"}, {"name": "Hanover Area JSHS", "lat": 41.2141, "lon": -75.9496, "proficiency": 0.151, "district": "Hanover Area SD", "city": "Hanover Township", "ncessch": "421142002891"}, {"name": "Drums El/MS", "lat": 41.0108, "lon": -76.0013, "proficiency": 0.218, "district": "Hazleton Area SD", "city": "Drums", "ncessch": "421170000547"}, {"name": "Freeland El/MS", "lat": 41.0215, "lon": -75.8924, "proficiency": 0.123, "district": "Hazleton Area SD", "city": "Freeland", "ncessch": "421170006718"}, {"name": "Hazleton El/MS", "lat": 40.9661, "lon": -75.9726, "proficiency": 0.034, "district": "Hazleton Area SD", "city": "Hazleton", "ncessch": "421170006115"}, {"name": "Heights Terrace El/MS", "lat": 40.94527, "lon": -75.968819, "proficiency": 0.163, "district": "Hazleton Area SD", "city": "Hazleton", "ncessch": "421170006930"}, {"name": "Maple Manor El/MS", "lat": 40.969583, "lon": -75.995705, "proficiency": 0.134, "district": "Hazleton Area SD", "city": "Hazle Township", "ncessch": "421170007527"}, {"name": "McAdoo-Kelayres El/MS", "lat": 40.896, "lon": -75.9998, "proficiency": 0.033, "district": "Hazleton Area SD", "city": "McAdoo", "ncessch": "421170007456"}, {"name": "Valley El/MS", "lat": 40.9887, "lon": -76.0753, "proficiency": 0.357, "district": "Hazleton Area SD", "city": "Sugarloaf", "ncessch": "421170009996"}, {"name": "West Hazleton El/MS", "lat": 40.9605, "lon": -76.0, "proficiency": 0.064, "district": "Hazleton Area SD", "city": "West Hazleton", "ncessch": "421170000370"}, {"name": "Lake-Lehman JSHS", "lat": 41.31045, "lon": -76.023943, "proficiency": 0.281, "district": "Lake-Lehman SD", "city": "Lehman", "ncessch": "421302002924"}, {"name": "Northwest Area HS", "lat": 41.183, "lon": -76.1894, "proficiency": 0.164, "district": "Northwest Area SD", "city": "Shickshinny", "ncessch": "421779002958"}, {"name": "Pittston Area MS", "lat": 41.33301, "lon": -75.778393, "proficiency": 0.176, "district": "Pittston Area SD", "city": "Pittston", "ncessch": "421920006385"}, {"name": "G A R MS", "lat": 41.234073, "lon": -75.882662, "proficiency": 0.059, "district": "Wilkes-Barre Area SD", "city": "Wilkes-Barre", "ncessch": "422630003008"}, {"name": "Solomon/Plains MS", "lat": 41.27181, "lon": -75.850045, "proficiency": 0.059, "district": "Wilkes-Barre Area SD", "city": "Plains", "ncessch": "422630000296"}, {"name": "Wyoming Area Sec Ctr", "lat": 41.322297, "lon": -75.810746, "proficiency": 0.174, "district": "Wyoming Area SD", "city": "Exeter", "ncessch": "422673006390"}, {"name": "Wyoming Valley West MS", "lat": 41.261551, "lon": -75.891257, "proficiency": 0.07, "district": "Wyoming Valley West SD", "city": "Kingston", "ncessch": "422595006986"}, {"name": "Hughesville JSHS", "lat": 41.24, "lon": -76.7329, "proficiency": 0.482, "district": "East Lycoming SD", "city": "Hughesville", "ncessch": "420849006364"}, {"name": "Jersey Shore MS", "lat": 41.2004, "lon": -77.2634, "proficiency": 0.323, "district": "Jersey Shore Area SD", "city": "Jersey Shore", "ncessch": "421248003033"}, {"name": "Loyalsock Twp MS", "lat": 41.2607, "lon": -76.9675, "proficiency": 0.614, "district": "Loyalsock Township SD", "city": "Williamsport", "ncessch": "421431003037"}, {"name": "Montgomery JSHS", "lat": 41.175106, "lon": -76.873552, "proficiency": 0.364, "district": "Montgomery Area SD", "city": "Montgomery", "ncessch": "421566003040"}, {"name": "C E McCall MS", "lat": 41.2555, "lon": -76.9055, "proficiency": 0.472, "district": "Montoursville Area SD", "city": "Montoursville", "ncessch": "421575005343"}, {"name": "Muncy JSHS", "lat": 41.2013, "lon": -76.7904, "proficiency": 0.463, "district": "Muncy SD", "city": "Muncy", "ncessch": "421623003048"}, {"name": "South Williamsport Area JSHS", "lat": 41.2261, "lon": -76.9965, "proficiency": 0.2, "district": "South Williamsport Area SD", "city": "South Williamsport", "ncessch": "422214003056"}, {"name": "Williamsport Area MS", "lat": 41.2383, "lon": -77.0681, "proficiency": 0.268, "district": "Williamsport Area SD", "city": "Williamsport", "ncessch": "422646007508"}, {"name": "Floyd C Fretz MS", "lat": 41.966906, "lon": -78.619102, "proficiency": 0.299, "district": "Bradford Area SD", "city": "Bradford", "ncessch": "420402000281"}, {"name": "Kane Area MS", "lat": 41.655211, "lon": -78.813026, "proficiency": 0.377, "district": "Kane Area SD", "city": "Kane", "ncessch": "421266003100"}, {"name": "Otto-Eldred JSHS", "lat": 41.9377, "lon": -78.4746, "proficiency": 0.525, "district": "Otto-Eldred SD", "city": "Duke Center", "ncessch": "421824003107"}, {"name": "Port Allegany JSHS", "lat": 41.8161, "lon": -78.270919, "proficiency": 0.109, "district": "Port Allegany SD", "city": "Port Allegany", "ncessch": "421953003111"}, {"name": "Smethport Area JSHS", "lat": 41.8036, "lon": -78.4425, "proficiency": 0.421, "district": "Smethport Area SD", "city": "Smethport", "ncessch": "422169003117"}, {"name": "Commodore Perry JSHS", "lat": 41.4278, "lon": -80.208, "proficiency": 0.143, "district": "Commodore Perry SD", "city": "Hadley", "ncessch": "420639006122"}, {"name": "Farrell Area HS/UMS", "lat": 41.2128, "lon": -80.4838, "proficiency": 0.025, "district": "Farrell Area SD", "city": "Farrell", "ncessch": "420969005248"}, {"name": "Greenville JSHS", "lat": 41.4031, "lon": -80.3724, "proficiency": 0.21, "district": "Greenville Area SD", "city": "Greenville", "ncessch": "421116003137"}, {"name": "Grove City Area MS", "lat": 41.14822, "lon": -80.076352, "proficiency": 0.471, "district": "Grove City Area SD", "city": "Grove City", "ncessch": "421122007389"}, {"name": "Hickory HS", "lat": 41.2423, "lon": -80.4484, "proficiency": 0.373, "district": "Hermitage SD", "city": "Hermitage", "ncessch": "421182003150"}, {"name": "Jamestown Area JSHS", "lat": 41.4853, "lon": -80.4331, "proficiency": 0.079, "district": "Jamestown Area SD", "city": "Jamestown", "ncessch": "421230006126"}, {"name": "Keystone Education Center CS", "lat": 41.40184, "lon": -80.44907, "proficiency": 0.0, "district": "Keystone Education Center CS", "city": "Greenville", "ncessch": "420001100272"}, {"name": "Lakeview Middle-HS", "lat": 41.340154, "lon": -80.088907, "proficiency": 0.224, "district": "Lakeview SD", "city": "Stoneboro", "ncessch": "421308007682"}, {"name": "Mercer Area MS", "lat": 41.2243, "lon": -80.2481, "proficiency": 0.104, "district": "Mercer Area SD", "city": "Mercer", "ncessch": "421512000792"}, {"name": "Reynolds JSHS", "lat": 41.340694, "lon": -80.396715, "proficiency": 0.247, "district": "Reynolds SD", "city": "Greenville", "ncessch": "422022003165"}, {"name": "Sharon MS", "lat": 41.2342, "lon": -80.4885, "proficiency": 0.146, "district": "Sharon City SD", "city": "Sharon", "ncessch": "422133007318"}, {"name": "Sharpsville Area MS", "lat": 41.2552, "lon": -80.4756, "proficiency": 0.186, "district": "Sharpsville Area SD", "city": "Sharpsville", "ncessch": "422142000084"}, {"name": "West Middlesex Area JSHS", "lat": 41.1735, "lon": -80.4496, "proficiency": 0.146, "district": "West Middlesex Area SD", "city": "West Middlesex", "ncessch": "422565006129"}, {"name": "Mifflin Co JHS", "lat": 40.6228, "lon": -77.5672, "proficiency": 0.201, "district": "Mifflin County SD", "city": "Lewistown", "ncessch": "421529007397"}, {"name": "J T Lambert Intermediate Sch", "lat": 41.021, "lon": -75.1719, "proficiency": 0.145, "district": "East Stroudsburg Area SD", "city": "East Stroudsburg", "ncessch": "420867000051"}, {"name": "Lehman Intermediate Sch", "lat": 41.176121, "lon": -75.018959, "proficiency": 0.145, "district": "East Stroudsburg Area SD", "city": "Dingmans Ferry", "ncessch": "420867000522"}, {"name": "Evergreen Community CS", "lat": 41.14892, "lon": -75.286034, "proficiency": 0.143, "district": "Evergreen Community CS", "city": "Mountainhome", "ncessch": "420074900960"}, {"name": "Pleasant Valley MS", "lat": 40.9247, "lon": -75.4082, "proficiency": 0.313, "district": "Pleasant Valley SD", "city": "Brodheadsville", "ncessch": "421929007297"}, {"name": "Pocono Mountain East JHS", "lat": 41.099735, "lon": -75.325214, "proficiency": 0.283, "district": "Pocono Mountain SD", "city": "Swiftwater", "ncessch": "421950006820"}, {"name": "Pocono Mountain West JHS", "lat": 41.11, "lon": -75.4265, "proficiency": 0.19, "district": "Pocono Mountain SD", "city": "Pocono Summit", "ncessch": "421950000961"}, {"name": "Stroudsburg JHS", "lat": 40.998687, "lon": -75.232277, "proficiency": 0.356, "district": "Stroudsburg Area SD", "city": "Stroudsburg", "ncessch": "422286000472"}, {"name": "Abington MS", "lat": 40.1156, "lon": -75.1296, "proficiency": 0.431, "district": "Abington SD", "city": "Abington", "ncessch": "420204003242"}, {"name": "Cedarbrook MS", "lat": 40.0791, "lon": -75.1575, "proficiency": 0.32, "district": "Cheltenham SD", "city": "Wyncote", "ncessch": "420576005250"}, {"name": "Colonial MS", "lat": 40.127, "lon": -75.3079, "proficiency": 0.598, "district": "Colonial SD", "city": "Plymouth Meeting", "ncessch": "421947005077"}, {"name": "Keith Valley MS", "lat": 40.185938, "lon": -75.127009, "proficiency": 0.403, "district": "Hatboro-Horsham SD", "city": "Horsham", "ncessch": "421161006639"}, {"name": "Jenkintown Middle/High School", "lat": 40.095469, "lon": -75.133211, "proficiency": 0.212, "district": "Jenkintown SD", "city": "Jenkintown", "ncessch": "421242007327"}, {"name": "Bala-Cynwyd MS", "lat": 40.0135, "lon": -75.243, "proficiency": 0.651, "district": "Lower Merion SD", "city": "Bala Cynwyd", "ncessch": "421416003293"}, {"name": "Black Rock MS", "lat": 40.048901, "lon": -75.33993, "proficiency": 0.77, "district": "Lower Merion SD", "city": "Villanova", "ncessch": "421416010025"}, {"name": "Welsh Valley MS", "lat": 40.0291, "lon": -75.2553, "proficiency": 0.73, "district": "Lower Merion SD", "city": "Narberth", "ncessch": "421416003294"}, {"name": "Murray Avenue Sch", "lat": 40.1223, "lon": -75.0621, "proficiency": 0.585, "district": "Lower Moreland Township SD", "city": "Huntingdon Valley", "ncessch": "421419007282"}, {"name": "Arcola Intrmd Sch", "lat": 40.1486, "lon": -75.4239, "proficiency": 0.404, "district": "Methacton SD", "city": "Eagleville", "ncessch": "421425006716"}, {"name": "East Norriton MS", "lat": 40.153612, "lon": -75.320414, "proficiency": 0.312, "district": "Norristown Area SD", "city": "Norristown", "ncessch": "421698003265"}, {"name": "Eisenhower MS", "lat": 40.130553, "lon": -75.336181, "proficiency": 0.131, "district": "Norristown Area SD", "city": "Norristown", "ncessch": "421698003321"}, {"name": "Pennbrook MS", "lat": 40.2208, "lon": -75.2688, "proficiency": 0.385, "district": "North Penn SD", "city": "North Wales", "ncessch": "421728003322"}, {"name": "Penndale MS", "lat": 40.2356, "lon": -75.2792, "proficiency": 0.236, "district": "North Penn SD", "city": "Lansdale", "ncessch": "421728003324"}, {"name": "Pennfield MS", "lat": 40.273, "lon": -75.3114, "proficiency": 0.304, "district": "North Penn SD", "city": "Hatfield", "ncessch": "421728003323"}, {"name": "Pennsylvania Virtual CS", "lat": 40.093685, "lon": -75.409137, "proficiency": 0.175, "district": "Pennsylvania Virtual CS", "city": "King of Prussia", "ncessch": "420008800587"}, {"name": "Perkiomen Valley MS-East", "lat": 40.220227, "lon": -75.463452, "proficiency": 0.509, "district": "Perkiomen Valley SD", "city": "Collegeville", "ncessch": "421893003326"}, {"name": "Perkiomen Valley MS-West", "lat": 40.277715, "lon": -75.496182, "proficiency": 0.418, "district": "Perkiomen Valley SD", "city": "Zieglerville", "ncessch": "421893000796"}, {"name": "Pottsgrove MS", "lat": 40.2716, "lon": -75.6349, "proficiency": 0.292, "district": "Pottsgrove SD", "city": "Pottstown", "ncessch": "421965006746"}, {"name": "Pottstown MS", "lat": 40.2534, "lon": -75.6389, "proficiency": 0.116, "district": "Pottstown SD", "city": "Pottstown", "ncessch": "421968003346"}, {"name": "Indian Crest MS", "lat": 40.3166, "lon": -75.3348, "proficiency": 0.312, "district": "Souderton Area SD", "city": "Souderton", "ncessch": "422187004721"}, {"name": "Indian Valley MS", "lat": 40.2855, "lon": -75.3791, "proficiency": 0.491, "district": "Souderton Area SD", "city": "Harleysville", "ncessch": "422187004722"}, {"name": "Souderton CS Collaborative", "lat": 40.309652, "lon": -75.319928, "proficiency": 0.75, "district": "Souderton CS Collaborative", "city": "Souderton", "ncessch": "420007000514"}, {"name": "Springfield Twp MS", "lat": 40.103977, "lon": -75.194398, "proficiency": 0.547, "district": "Springfield Township SD", "city": "Oreland", "ncessch": "422262003375"}, {"name": "Spring-Ford MS 8th Grade Ctr", "lat": 40.1871, "lon": -75.5317, "proficiency": 0.434, "district": "Spring-Ford Area SD", "city": "Royersford", "ncessch": "422256000836"}, {"name": "Sandy Run MS", "lat": 40.1283, "lon": -75.1706, "proficiency": 0.478, "district": "Upper Dublin SD", "city": "Dresher", "ncessch": "422439004943"}, {"name": "Upper Merion MS", "lat": 40.099043, "lon": -75.381698, "proficiency": 0.167, "district": "Upper Merion Area SD", "city": "King of Prussia", "ncessch": "422448003394"}, {"name": "Upper Moreland MS", "lat": 40.1713, "lon": -75.0891, "proficiency": 0.394, "district": "Upper Moreland Township SD", "city": "Hatboro", "ncessch": "422451005249"}, {"name": "Upper Perkiomen MS", "lat": 40.385381, "lon": -75.496366, "proficiency": 0.436, "district": "Upper Perkiomen SD", "city": "Pennsburg", "ncessch": "422454003406"}, {"name": "Wissahickon MS", "lat": 40.1695, "lon": -75.2267, "proficiency": 0.404, "district": "Wissahickon SD", "city": "Ambler", "ncessch": "420240003245"}, {"name": "Danville Area MS", "lat": 40.964159, "lon": -76.620015, "proficiency": 0.409, "district": "Danville Area SD", "city": "Danville", "ncessch": "420732003424"}, {"name": "Bangor Area MS", "lat": 40.8755, "lon": -75.1514, "proficiency": 0.348, "district": "Bangor Area SD", "city": "Bangor", "ncessch": "420300005257"}, {"name": "Broughal MS", "lat": 40.6084, "lon": -75.3807, "proficiency": 0.03, "district": "Bethlehem Area SD", "city": "Bethlehem", "ncessch": "420357003464"}, {"name": "East Hills MS", "lat": 40.6641, "lon": -75.344, "proficiency": 0.161, "district": "Bethlehem Area SD", "city": "Bethlehem", "ncessch": "420357004956"}, {"name": "Nitschmann MS", "lat": 40.626714, "lon": -75.397711, "proficiency": 0.272, "district": "Bethlehem Area SD", "city": "Bethlehem", "ncessch": "420357003463"}, {"name": "Easton Area MS", "lat": 40.70558, "lon": -75.230541, "proficiency": 0.161, "district": "Easton Area SD", "city": "Easton", "ncessch": "420885007563"}, {"name": "Lehigh Valley Academy Regional CS", "lat": 40.6544, "lon": -75.4099, "proficiency": 0.159, "district": "Lehigh Valley Academy Regional CS", "city": "Bethlehem", "ncessch": "420009800635"}, {"name": "Nazareth Area MS", "lat": 40.739, "lon": -75.2886, "proficiency": 0.385, "district": "Nazareth Area SD", "city": "Nazareth", "ncessch": "421638003494"}, {"name": "Northampton Area MS", "lat": 40.686129, "lon": -75.488323, "proficiency": 0.179, "district": "Northampton Area SD", "city": "Northampton", "ncessch": "421737005258"}, {"name": "Wind Gap MS", "lat": 40.839, "lon": -75.2838, "proficiency": 0.455, "district": "Pen Argyl Area SD", "city": "Pen Argyl", "ncessch": "421857005351"}, {"name": "Saucon Valley MS", "lat": 40.5713, "lon": -75.3295, "proficiency": 0.466, "district": "Saucon Valley SD", "city": "Hellertown", "ncessch": "421173007274"}, {"name": "Wilson Area Intermediate Sch", "lat": 40.671571, "lon": -75.242957, "proficiency": 0.219, "district": "Wilson Area SD", "city": "Easton", "ncessch": "422655006785"}, {"name": "Line Mountain MS", "lat": 40.667695, "lon": -76.827324, "proficiency": 0.237, "district": "Line Mountain SD", "city": "Herndon", "ncessch": "421446007494"}, {"name": "Milton Area MS", "lat": 41.0094, "lon": -76.8422, "proficiency": 0.378, "district": "Milton Area SD", "city": "Milton", "ncessch": "421548006863"}, {"name": "Mount Carmel Area JH", "lat": 40.7911, "lon": -76.4229, "proficiency": 0.297, "district": "Mount Carmel Area SD", "city": "Mount Carmel", "ncessch": "421599007369"}, {"name": "Shamokin Area MS", "lat": 40.78167, "lon": -76.584148, "proficiency": 0.1, "district": "Shamokin Area SD", "city": "Shamokin", "ncessch": "422124000966"}, {"name": "Shikellamy MS", "lat": 40.896293, "lon": -76.796322, "proficiency": 0.23, "district": "Shikellamy SD", "city": "Northumberland", "ncessch": "422154007584"}, {"name": "Greenwood MS", "lat": 40.5513, "lon": -77.1524, "proficiency": 0.23, "district": "Greenwood SD", "city": "Millerstown", "ncessch": "421119000220"}, {"name": "Newport MS", "lat": 40.4802, "lon": -77.1376, "proficiency": 0.235, "district": "Newport SD", "city": "Newport", "ncessch": "421689006078"}, {"name": "Susquenita MS", "lat": 40.355104, "lon": -77.000546, "proficiency": 0.164, "district": "Susquenita SD", "city": "Duncannon", "ncessch": "422304000052"}, {"name": "West Perry MS", "lat": 40.3833, "lon": -77.302, "proficiency": 0.41, "district": "West Perry SD", "city": "Elliottsburg", "ncessch": "422574003597"}, {"name": "Ad Prima CS", "lat": 39.984775, "lon": -75.247738, "proficiency": 0.123, "district": "Ad Prima CS", "city": "Philadelphia", "ncessch": "420012900846"}, {"name": "Alliance for Progress CS", "lat": 39.9799, "lon": -75.1654, "proficiency": 0.064, "district": "Alliance for Progress CS", "city": "Philadelphia", "ncessch": "420003900398"}, {"name": "Boys Latin of Philadelphia CS", "lat": 39.9518, "lon": -75.2334, "proficiency": 0.068, "district": "Boys Latin of Philadelphia CS", "city": "Philadelphia", "ncessch": "420076006107"}, {"name": "Christopher Columbus CS", "lat": 39.93418, "lon": -75.165656, "proficiency": 0.184, "district": "Christopher Columbus CS", "city": "Philadelphia", "ncessch": "420005200489"}, {"name": "Community Academy of Philadelphia CS", "lat": 40.0045, "lon": -75.1067, "proficiency": 0.067, "district": "Community Academy of Philadelphia CS", "city": "Philadelphia", "ncessch": "420001300318"}, {"name": "Esperanza Cyber CS", "lat": 40.016, "lon": -75.1339, "proficiency": 0.0, "district": "Esperanza Cyber CS", "city": "Philadelphia", "ncessch": "420085807447"}, {"name": "Eugenio Maria DE Hostos CS", "lat": 40.046789, "lon": -75.121873, "proficiency": 0.289, "district": "Eugenio Maria De Hostos CS", "city": "Philadelphia", "ncessch": "420004300405"}, {"name": "Folk Arts-Cultural Treasures CS", "lat": 39.959, "lon": -75.1561, "proficiency": 0.415, "district": "Folk Arts-Cultural Treasures CS", "city": "Philadelphia", "ncessch": "420014100897"}, {"name": "Franklin Towne Charter Elementary School", "lat": 39.99562, "lon": -75.07497, "proficiency": 0.183, "district": "Franklin Towne Charter Elementary School", "city": "Philadelphia", "ncessch": "420081706985"}, {"name": "Freire CS", "lat": 39.9524, "lon": -75.1745, "proficiency": 0.095, "district": "Freire CS", "city": "Philadelphia", "ncessch": "420006000502"}, {"name": "Global Leadership Academy CS", "lat": 39.973319, "lon": -75.215599, "proficiency": 0.043, "district": "Global Leadership Academy CS", "city": "Philadelphia", "ncessch": "420007300515"}, {"name": "Green Woods CS", "lat": 40.043121, "lon": -75.233983, "proficiency": 0.379, "district": "Green Woods CS", "city": "Philadelphia", "ncessch": "420010400690"}, {"name": "Independence CS", "lat": 39.944972, "lon": -75.168903, "proficiency": 0.392, "district": "Independence CS", "city": "Philadelphia", "ncessch": "420008700584"}, {"name": "Independence CS West", "lat": 39.93709, "lon": -75.225581, "proficiency": 0.046, "district": "Independence CS West", "city": "Philadelphia", "ncessch": "420089307600"}, {"name": "KIPP West Philadelphia CS", "lat": 39.98, "lon": -75.221122, "proficiency": 0.04, "district": "KIPP West Philadelphia CS", "city": "Philadelphia", "ncessch": "420088807693"}, {"name": "Laboratory CS", "lat": 40.00148, "lon": -75.145229, "proficiency": 0.0, "district": "Laboratory CS", "city": "Philadelphia", "ncessch": "420004400406"}, {"name": "Lindley Academy CS at Birney", "lat": 40.0292, "lon": -75.1385, "proficiency": 0.03, "district": "Lindley Academy CS at Birney", "city": "Philadelphia", "ncessch": "420085007405"}, {"name": "Mariana Bracetti Academy CS", "lat": 40.00561, "lon": -75.09386, "proficiency": 0.171, "district": "Mariana Bracetti Academy CS", "city": "Philadelphia", "ncessch": "420007900564"}, {"name": "MaST Community CS II", "lat": 40.048267, "lon": -75.097222, "proficiency": 0.097, "district": "MaST Community CS II", "city": "Philadelphia", "ncessch": "420089107602"}, {"name": "MaST Community CS III", "lat": 40.109451, "lon": -74.991696, "proficiency": 0.115, "district": "MaST Community CS III", "city": "Philadelphia", "ncessch": "420090307674"}, {"name": "Mastery CS - Thomas Campus", "lat": 39.9147, "lon": -75.1636, "proficiency": 0.258, "district": "Mastery CS-Thomas Campus", "city": "Philadelphia", "ncessch": "420014400925"}, {"name": "Mastery CS -Shoemaker Campus", "lat": 39.9761, "lon": -75.2286, "proficiency": 0.056, "district": "Mastery CS-Shoemaker Campus", "city": "Philadelphia", "ncessch": "420014500944"}, {"name": "Mastery CS-Gratz Campus", "lat": 40.014137, "lon": -75.155828, "proficiency": 0.106, "district": "Mastery CS-Gratz Campus", "city": "Phialdelphia", "ncessch": "420085107414"}, {"name": "Mastery CS-Harrity Campus", "lat": 39.9488, "lon": -75.2358, "proficiency": 0.13, "district": "Mastery CS-Harrity Campus", "city": "Philadelphia", "ncessch": "420082807351"}, {"name": "Mastery CS-Pickett Campus", "lat": 40.032161, "lon": -75.180554, "proficiency": 0.157, "district": "Mastery CS-Pickett Campus", "city": "Philadelphia", "ncessch": "420076106025"}, {"name": "Math Civics and Sciences CS", "lat": 39.9612, "lon": -75.1612, "proficiency": 0.017, "district": "Math Civics and Sciences CS", "city": "Philadelphia", "ncessch": "420005600496"}, {"name": "Memphis Street Academy CS @ JP Jones", "lat": 39.9863, "lon": -75.1129, "proficiency": 0.021, "district": "Memphis Street Academy CS @ JP Jones", "city": "Philadelphia", "ncessch": "420087007454"}, {"name": "New Foundations CS", "lat": 40.0351, "lon": -75.0242, "proficiency": 0.479, "district": "New Foundations CS", "city": "Philadelphia", "ncessch": "420007500531"}, {"name": "Northwood Academy CS", "lat": 40.0204, "lon": -75.0945, "proficiency": 0.075, "district": "Northwood Academy CS", "city": "Philadelphia", "ncessch": "420013900894"}, {"name": "Pan American Academy CS", "lat": 39.994505, "lon": -75.13593, "proficiency": 0.06, "district": "Pan American Academy CS", "city": "Philadelphia", "ncessch": "420081006871"}, {"name": "People for People CS", "lat": 39.968103, "lon": -75.160613, "proficiency": 0.0, "district": "People for People CS", "city": "Philadelphia", "ncessch": "420008500586"}, {"name": "Philadelphia Academy CS", "lat": 40.103946, "lon": -75.009836, "proficiency": 0.296, "district": "Philadelphia Academy CS", "city": "Philadelphia", "ncessch": "420006100503"}, {"name": "Adaire Alexander Sch", "lat": 39.972269, "lon": -75.130164, "proficiency": 0.286, "district": "Philadelphia City SD", "city": "Philadelphia", "ncessch": "421899006524"}, {"name": "Allen Dr Ethel Sch", "lat": 39.9974, "lon": -75.1837, "proficiency": 0.091, "district": "Philadelphia City SD", "city": "Philadelphia", "ncessch": "421899005292"}, {"name": "Allen Ethan Sch", "lat": 40.0298, "lon": -75.0618, "proficiency": 0.065, "district": "Philadelphia City SD", "city": "Philadelphia", "ncessch": "421899003758"}, {"name": "Amy At Martin", "lat": 39.9856, "lon": -75.0972, "proficiency": 0.108, "district": "Philadelphia City SD", "city": "Philadelphia", "ncessch": "421899006823"}, {"name": "Amy NW", "lat": 40.0595, "lon": -75.1748, "proficiency": 0.196, "district": "Philadelphia City SD", "city": "Philadelphia", "ncessch": "421899007224"}, {"name": "Anderson Add B Sch", "lat": 39.9468, "lon": -75.2458, "proficiency": 0.0, "district": "Philadelphia City SD", "city": "Philadelphia", "ncessch": "421899003804"}, {"name": "Bache-Martin Sch", "lat": 39.9698, "lon": -75.1735, "proficiency": 0.088, "district": "Philadelphia City SD", "city": "Philadelphia", "ncessch": "421899003618"}, {"name": "Baldi C C A MS", "lat": 40.0919, "lon": -75.0526, "proficiency": 0.404, "district": "Philadelphia City SD", "city": "Philadelphia", "ncessch": "421899006824"},