{
  "state": "PA",
  "stateName": "Pennsylvania",
  "naep": {
    "text": "7 out of 10",
    "numerator": 7,
    "denominator": 10
  },
  "schools": [
    {
      "name": "BERMUDIAN SPRINGS MS",
      "lat": 39.9818,
      "lon": -77.0808,
      "proficiency": 0.331,
      "district": "BERMUDIAN SPRINGS SD",
      "city": "York Springs",
      "ncessch": "420345006921"
    },
    {
      "name": "NEW OXFORD MS",
      "lat": 39.870246,
      "lon": -77.053966,
      "proficiency": 0.387,
      "district": "CONEWAGO VALLEY SD",
      "city": "New Oxford",
      "ncessch": "420655006898"
    },
    {
      "name": "FAIRFIELD AREA MS",
      "lat": 39.781703,
      "lon": -77.375238,
      "proficiency": 0.169,
      "district": "FAIRFIELD AREA SD",
      "city": "Fairfield",
      "ncessch": "420954009987"
    },
    {
      "name": "UPPER ADAMS MS",
      "lat": 39.934068,
      "lon": -77.246492,
      "proficiency": 0.358,
      "district": "UPPER ADAMS SD",
      "city": "Biglerville",
      "ncessch": "422430000155"
    },
    {
      "name": "AVONWORTH MS",
      "lat": 40.532313,
      "lon": -80.078218,
      "proficiency": 0.594,
      "district": "AVONWORTH SD",
      "city": "Pittsburgh",
      "ncessch": "420282000559"
    },
    {
      "name": "BRENTWOOD MS",
      "lat": 40.374316,
      "lon": -79.974136,
      "proficiency": 0.419,
      "district": "BRENTWOOD BOROUGH SD",
      "city": "Pittsburgh",
      "ncessch": "420414009979"
    },
    {
      "name": "CLAIRTON MS/HS",
      "lat": 40.294428,
      "lon": -79.886053,
      "proficiency": 0.021,
      "district": "CLAIRTON CITY SD",
      "city": "Clairton",
      "ncessch": "420603007346"
    },
    {
      "name": "CORNELL HS",
      "lat": 40.508348,
      "lon": -80.162898,
      "proficiency": 0.032,
      "district": "CORNELL SD",
      "city": "Coraopolis",
      "ncessch": "420681007335"
    },
    {
      "name": "DEER LAKES MS",
      "lat": 40.6246,
      "lon": -79.8577,
      "proficiency": 0.288,
      "district": "DEER LAKES SD",
      "city": "Cheswick",
      "ncessch": "420754000431"
    },
    {
      "name": "EAST ALLEGHENY JSHS",
      "lat": 40.365759,
      "lon": -79.787103,
      "proficiency": 0.011,
      "district": "EAST ALLEGHENY SD",
      "city": "North Versailles",
      "ncessch": "420806007559"
    },
    {
      "name": "ELIZABETH FORWARD MS",
      "lat": 40.2745,
      "lon": -79.8258,
      "proficiency": 0.339,
      "district": "ELIZABETH FORWARD SD",
      "city": "Elizabeth",
      "ncessch": "420909004804"
    },
    {
      "name": "ENVIRONMENTAL CHARTER SCHOOL AT FRICK PARK",
      "lat": 40.43595,
      "lon": -79.896891,
      "proficiency": 0.237,
      "district": "ENVIRONMENTAL CHARTER SCHOOL AT FRICK PARK",
      "city": "Pittsburgh",
      "ncessch": "420081206819"
    },
    {
      "name": "HIGHLANDS MS",
      "lat": 40.617,
      "lon": -79.7324,
      "proficiency": 0.203,
      "district": "HIGHLANDS SD",
      "city": "Natrona Heights",
      "ncessch": "421188007275"
    },
    {
      "name": "KEYSTONE OAKS MS",
      "lat": 40.3867,
      "lon": -80.0294,
      "proficiency": 0.407,
      "district": "KEYSTONE OAKS SD",
      "city": "Pittsburgh",
      "ncessch": "421275000197"
    },
    {
      "name": "LIFE MALE STEAM ACADEMY CS",
      "lat": 40.425749,
      "lon": -79.81136,
      "proficiency": 0.0,
      "district": "LIFE MALE STEAM ACADEMY CS",
      "city": "Pittsburgh",
      "ncessch": "420090607697"
    },
    {
      "name": "MANCHESTER ACADEMIC CS",
      "lat": 40.455733,
      "lon": -80.023536,
      "proficiency": 0.077,
      "district": "MANCHESTER ACADEMIC CS",
      "city": "Pittsburgh",
      "ncessch": "420001700336"
    },
    {
      "name": "FOUNDERS HALL MIDDLE SCH",
      "lat": 40.346282,
      "lon": -79.833259,
      "proficiency": 0.092,
      "district": "MCKEESPORT AREA SD",
      "city": "McKeesport",
      "ncessch": "421494000565"
    },
    {
      "name": "DAVID E WILLIAMS MS",
      "lat": 40.484642,
      "lon": -80.101176,
      "proficiency": 0.719,
      "district": "MONTOUR SD",
      "city": "Coraopolis",
      "ncessch": "421572007410"
    },
    {
      "name": "MOON AREA UPPER MS",
      "lat": 40.5129,
      "lon": -80.2179,
      "proficiency": 0.49,
      "district": "MOON AREA SD",
      "city": "Moon Township",
      "ncessch": "421583007430"
    },
    {
      "name": "JEFFERSON MS",
      "lat": 40.3825,
      "lon": -80.061,
      "proficiency": 0.679,
      "district": "MT LEBANON SD",
      "city": "Pittsburgh",
      "ncessch": "421611000340"
    },
    {
      "name": "MELLON MS",
      "lat": 40.3782,
      "lon": -80.0453,
      "proficiency": 0.611,
      "district": "MT LEBANON SD",
      "city": "Pittsburgh",
      "ncessch": "421611000339"
    },
    {
      "name": "CARSON MS",
      "lat": 40.5662,
      "lon": -80.0312,
      "proficiency": 0.378,
      "district": "NORTH ALLEGHENY SD",
      "city": "Pittsburgh",
      "ncessch": "421701005108"
    },
    {
      "name": "MARSHALL MS",
      "lat": 40.6438,
      "lon": -80.0948,
      "proficiency": 0.604,
      "district": "NORTH ALLEGHENY SD",
      "city": "Wexford",
      "ncessch": "421701000080"
    },
    {
      "name": "NORTH HILLS MS",
      "lat": 40.5242,
      "lon": -80.0254,
      "proficiency": 0.447,
      "district": "NORTH HILLS SD",
      "city": "Pittsburgh",
      "ncessch": "421722006106"
    },
    {
      "name": "PENN HILLS CHARTER SCHOOL OF ENTREPRENEURSHIP",
      "lat": 40.472539,
      "lon": -79.791726,
      "proficiency": 0.073,
      "district": "PENN HILLS CHARTER SCHOOL OF ENTREPRENEURSHIP",
      "city": "Pittsburgh",
      "ncessch": "420085307381"
    },
    {
      "name": "LINTON MS",
      "lat": 40.48121,
      "lon": -79.813136,
      "proficiency": 0.111,
      "district": "PENN HILLS SD",
      "city": "Pittsburgh",
      "ncessch": "421859005019"
    },
    {
      "name": "PENNSYLVANIA DISTANCE LEARNING CS",
      "lat": 40.611103,
      "lon": -80.101124,
      "proficiency": 0.078,
      "district": "PENNSYLVANIA DISTANCE LEARNING CS",
      "city": "Sewickley",
      "ncessch": "420012500839"
    },
    {
      "name": "ACADEMY AT WESTINGHOUSE",
      "lat": 40.4609,
      "lon": -79.9012,
      "proficiency": 0.033,
      "district": "PITTSBURGH SD",
      "city": "Pittsburgh",
      "ncessch": "421917007412"
    },
    {
      "name": "PITTSBURGH ALLEGHENY 6-8",
      "lat": 40.453159,
      "lon": -80.008712,
      "proficiency": 0.063,
      "district": "PITTSBURGH SD",
      "city": "Pittsburgh",
      "ncessch": "421917000414"
    },
    {
      "name": "PITTSBURGH ARLINGTON K-8",
      "lat": 40.409079,
      "lon": -79.979216,
      "proficiency": 0.077,
      "district": "PITTSBURGH SD",
      "city": "Pittsburgh",
      "ncessch": "421917006769"
    },
    {
      "name": "PITTSBURGH ARSENAL 6-8",
      "lat": 40.4681,
      "lon": -79.9619,
      "proficiency": 0.122,
      "district": "PITTSBURGH SD",
      "city": "Pittsburgh",
      "ncessch": "421917006751"
    },
    {
      "name": "PITTSBURGH BROOKLINE K-8",
      "lat": 40.3941,
      "lon": -80.0247,
      "proficiency": 0.171,
      "district": "PITTSBURGH SD",
      "city": "Pittsburgh",
      "ncessch": "421917006755"
    },
    {
      "name": "PITTSBURGH CAPA 6-12",
      "lat": 40.445,
      "lon": -79.9987,
      "proficiency": 0.482,
      "district": "PITTSBURGH SD",
      "city": "Pittsburgh",
      "ncessch": "421917007014"
    },
    {
      "name": "PITTSBURGH CLASSICAL 6-8",
      "lat": 40.4486,
      "lon": -80.0498,
      "proficiency": 0.094,
      "district": "PITTSBURGH SD",
      "city": "Pittsburgh",
      "ncessch": "421917000598"
    },
    {
      "name": "PITTSBURGH COLFAX K-8",
      "lat": 40.4331,
      "lon": -79.9154,
      "proficiency": 0.612,
      "district": "PITTSBURGH SD",
      "city": "Pittsburgh",
      "ncessch": "421917006022"
    },
    {
      "name": "PITTSBURGH GREENFIELD K-8",
      "lat": 40.4257,
      "lon": -79.944,
      "proficiency": 0.233,
      "district": "PITTSBURGH SD",
      "city": "Pittsburgh",
      "ncessch": "421917006028"
    },
    {
      "name": "PITTSBURGH KING K-8",
      "lat": 40.4548,
      "lon": -80.0046,
      "proficiency": 0.034,
      "district": "PITTSBURGH SD",
      "city": "Pittsburgh",
      "ncessch": "421917006761"
    },
    {
      "name": "PITTSBURGH LANGLEY K-8",
      "lat": 40.4543,
      "lon": -80.0558,
      "proficiency": 0.029,
      "district": "PITTSBURGH SD",
      "city": "Pittsburgh",
      "ncessch": "421917007468"
    },
    {
      "name": "PITTSBURGH MIFFLIN K-8",
      "lat": 40.37,
      "lon": -79.9152,
      "proficiency": 0.091,
      "district": "PITTSBURGH SD",
      "city": "Pittsburgh",
      "ncessch": "421917006766"
    },
    {
      "name": "PITTSBURGH MILLIONES 6-12",
      "lat": 40.4499,
      "lon": -79.9625,
      "proficiency": 0.0,
      "district": "PITTSBURGH SD",
      "city": "Pittsburgh",
      "ncessch": "421917007345"
    },
    {
      "name": "PITTSBURGH OBAMA 6-12",
      "lat": 40.46844,
      "lon": -79.922641,
      "proficiency": 0.091,
      "district": "PITTSBURGH SD",
      "city": "Pittsburgh",
      "ncessch": "421917006995"
    },
    {
      "name": "PITTSBURGH ONLINE ACADEMY",
      "lat": 40.44468,
      "lon": -79.950661,
      "proficiency": 0.091,
      "district": "PITTSBURGH SD",
      "city": "Pittsburgh",
      "ncessch": "421917007505"
    },
    {
      "name": "PITTSBURGH SCIENCE AND TECHNOLOGY ACADEMY 6-12",
      "lat": 40.4433,
      "lon": -79.9579,
      "proficiency": 0.474,
      "district": "PITTSBURGH SD",
      "city": "Pittsburgh",
      "ncessch": "421917006989"
    },
    {
      "name": "PITTSBURGH SOUTH BROOK 6-8",
      "lat": 40.4032,
      "lon": -80.01,
      "proficiency": 0.039,
      "district": "PITTSBURGH SD",
      "city": "Pittsburgh",
      "ncessch": "421917000599"
    },
    {
      "name": "PITTSBURGH SOUTH HILLS 6-8",
      "lat": 40.4197,
      "lon": -80.0182,
      "proficiency": 0.101,
      "district": "PITTSBURGH SD",
      "city": "Pittsburgh",
      "ncessch": "421917006749"
    },
    {
      "name": "PITTSBURGH STERRETT 6-8",
      "lat": 40.4466,
      "lon": -79.9053,
      "proficiency": 0.021,
      "district": "PITTSBURGH SD",
      "city": "Pittsburgh",
      "ncessch": "421917007039"
    },
    {
      "name": "PITTSBURGH SUNNYSIDE K-8",
      "lat": 40.4814,
      "lon": -79.9336,
      "proficiency": 0.235,
      "district": "PITTSBURGH SD",
      "city": "Pittsburgh",
      "ncessch": "421917006757"
    },
    {
      "name": "PLUM MS",
      "lat": 40.4706,
      "lon": -79.7152,
      "proficiency": 0.341,
      "district": "PLUM BOROUGH SD",
      "city": "Pittsburgh",
      "ncessch": "421935005105"
    },
    {
      "name": "PROPEL CS - HAZELWOOD",
      "lat": 40.404016,
      "lon": -79.938357,
      "proficiency": 0.0,
      "district": "PROPEL CS - HAZELWOOD",
      "city": "Pittsburgh",
      "ncessch": "420088007543"
    },
    {
      "name": "PROPEL CS-BRADDOCK HILLS",
      "lat": 40.415,
      "lon": -79.8531,
      "proficiency": 0.109,
      "district": "PROPEL CS-BRADDOCK HILLS",
      "city": "Pittsburgh",
      "ncessch": "420083307363"
    },
    {
      "name": "PROPEL CS-EAST",
      "lat": 40.4094,
      "lon": -79.8154,
      "proficiency": 0.081,
      "district": "PROPEL CS-EAST",
      "city": "Turtle Creek",
      "ncessch": "420013500869"
    },
    {
      "name": "PROPEL CS-HOMESTEAD",
      "lat": 40.4053,
      "lon": -79.9105,
      "proficiency": 0.049,
      "district": "PROPEL CS-HOMESTEAD",
      "city": "Homestead",
      "ncessch": "420011100749"
    },
    {
      "name": "PROPEL CS-MCKEESPORT",
      "lat": 40.3455,
      "lon": -79.8481,
      "proficiency": 0.03,
      "district": "PROPEL CS-MCKEESPORT",
      "city": "McKeesport",
      "ncessch": "420013400867"
    },
    {
      "name": "PROPEL CS-MONTOUR",
      "lat": 40.4543,
      "lon": -80.1061,
      "proficiency": 0.037,
      "district": "PROPEL CS-MONTOUR",
      "city": "Pittsburgh",
      "ncessch": "420075206095"
    },
    {
      "name": "PROPEL CS-NORTHSIDE",
      "lat": 40.460079,
      "lon": -80.015907,
      "proficiency": 0.029,
      "district": "PROPEL CS-NORTHSIDE",
      "city": "Pittsburgh",
      "ncessch": "420084907380"
    },
    {
      "name": "PROPEL CS-PITCAIRN",
      "lat": 40.4042,
      "lon": -79.7793,
      "proficiency": 0.048,
      "district": "PROPEL CS-PITCAIRN",
      "city": "Pittsburgh",
      "ncessch": "420085907427"
    },
    {
      "name": "PROVIDENT CS",
      "lat": 40.460749,
      "lon": -79.985489,
      "proficiency": 0.091,
      "district": "PROVIDENT CS",
      "city": "Pittsburgh",
      "ncessch": "420089007574"
    },
    {
      "name": "RIVERVIEW JSHS",
      "lat": 40.5256,
      "lon": -79.8441,
      "proficiency": 0.377,
      "district": "RIVERVIEW SD",
      "city": "Oakmont",
      "ncessch": "422043006928"
    },
    {
      "name": "SHALER AREA MS",
      "lat": 40.527802,
      "lon": -79.963483,
      "proficiency": 0.333,
      "district": "SHALER AREA SD",
      "city": "Glenshaw",
      "ncessch": "422120006774"
    },
    {
      "name": "SOUTH ALLEGHENY MS",
      "lat": 40.324155,
      "lon": -79.867345,
      "proficiency": 0.173,
      "district": "SOUTH ALLEGHENY SD",
      "city": "McKeesport",
      "ncessch": "422191007668"
    },
    {
      "name": "SOUTH FAYETTE MS",
      "lat": 40.377589,
      "lon": -80.171166,
      "proficiency": 0.518,
      "district": "SOUTH FAYETTE TOWNSHIP SD",
      "city": "McDonald",
      "ncessch": "422058000258"
    },
    {
      "name": "SOUTH PARK MS",
      "lat": 40.295,
      "lon": -80.0133,
      "proficiency": 0.44,
      "district": "SOUTH PARK SD",
      "city": "South Park",
      "ncessch": "422206006906"
    },
    {
      "name": "URBAN PATHWAYS 6-12 CS",
      "lat": 40.443697,
      "lon": -79.997337,
      "proficiency": 0.023,
      "district": "URBAN PATHWAYS 6-12 CS",
      "city": "Pittsburgh",
      "ncessch": "420001800337"
    },
    {
      "name": "WEST ALLEGHENY MS",
      "lat": 40.4471,
      "lon": -80.2377,
      "proficiency": 0.598,
      "district": "WEST ALLEGHENY SD",
      "city": "Imperial",
      "ncessch": "422520006895"
    },
    {
      "name": "PLEASANT HILLS MS",
      "lat": 40.330319,
      "lon": -79.962227,
      "proficiency": 0.439,
      "district": "WEST JEFFERSON HILLS SD",
      "city": "Pittsburgh",
      "ncessch": "422559004867"
    },
    {
      "name": "DICKSON PREP STEAM ACADEMY",
      "lat": 40.423494,
      "lon": -79.893719,
      "proficiency": 0.126,
      "district": "WOODLAND HILLS SD",
      "city": "Swissvale",
      "ncessch": "421650007670"
    },
    {
      "name": "YOUNG SCHOLARS OF GREATER ALLEGHENY CS",
      "lat": 40.314116,
      "lon": -79.831491,
      "proficiency": 0.267,
      "district": "YOUNG SCHOLARS OF GREATER ALLEGHENY CS",
      "city": "Pittsburgh",
      "ncessch": "420088407552"
    },
    {
      "name": "YOUNG SCHOLARS OF WESTERN PENNSYLVANIA CS",
      "lat": 40.376383,
      "lon": -80.018995,
      "proficiency": 0.12,
      "district": "YOUNG SCHOLARS OF WESTERN PENNSYLVANIA CS",
      "city": "Pittsburgh",
      "ncessch": "420084507424"
    },
    {
      "name": "APOLLO-RIDGE MS",
      "lat": 40.605478,
      "lon": -79.47414,
      "proficiency": 0.171,
      "district": "APOLLO-RIDGE SD",
      "city": "Spring Church",
      "ncessch": "420255006570"
    },
    {
      "name": "ARMSTRONG JSHS",
      "lat": 40.797634,
      "lon": -79.507282,
      "proficiency": 0.271,
      "district": "ARMSTRONG SD",
      "city": "Kittanning",
      "ncessch": "420259007569"
    },
    {
      "name": "WEST SHAMOKIN JSHS",
      "lat": 40.7943,
      "lon": -79.2705,
      "proficiency": 0.168,
      "district": "ARMSTRONG SD",
      "city": "Rural Valley",
      "ncessch": "420259000517"
    },
    {
      "name": "FREEPORT AREA MS",
      "lat": 40.705132,
      "lon": -79.718317,
      "proficiency": 0.477,
      "district": "FREEPORT AREA SD",
      "city": "Sarver",
      "ncessch": "421044007566"
    },
    {
      "name": "LEECHBURG AREA MS",
      "lat": 40.628082,
      "lon": -79.603607,
      "proficiency": 0.264,
      "district": "LEECHBURG AREA SD",
      "city": "Leechburg",
      "ncessch": "421347007618"
    },
    {
      "name": "ALIQUIPPA JSHS",
      "lat": 40.61066,
      "lon": -80.25861,
      "proficiency": 0.029,
      "district": "ALIQUIPPA SD",
      "city": "Aliquippa",
      "ncessch": "420213007336"
    },
    {
      "name": "BEAVER AREA MS",
      "lat": 40.6968,
      "lon": -80.3194,
      "proficiency": 0.468,
      "district": "BEAVER AREA SD",
      "city": "Beaver",
      "ncessch": "420312000106"
    },
    {
      "name": "HIGHLAND MS",
      "lat": 40.7598,
      "lon": -80.3724,
      "proficiency": 0.166,
      "district": "BLACKHAWK SD",
      "city": "Beaver Falls",
      "ncessch": "420368806558"
    },
    {
      "name": "CENTRAL VALLEY MS",
      "lat": 40.68207,
      "lon": -80.27467,
      "proficiency": 0.265,
      "district": "CENTRAL VALLEY SD",
      "city": "Monaca",
      "ncessch": "420082407317"
    },
    {
      "name": "FREEDOM AREA MS",
      "lat": 40.677185,
      "lon": -80.244028,
      "proficiency": 0.179,
      "district": "FREEDOM AREA SD",
      "city": "Freedom",
      "ncessch": "421038007565"
    },
    {
      "name": "LINCOLN PARK PERFORMING ARTS CS",
      "lat": 40.6356,
      "lon": -80.4496,
      "proficiency": 0.298,
      "district": "LINCOLN PARK PERFORMING ARTS CS",
      "city": "Midland",
      "ncessch": "420014300906"
    },
    {
      "name": "MIDLAND EL/MS",
      "lat": 40.6404,
      "lon": -80.4521,
      "proficiency": 0.0,
      "district": "MIDLAND BOROUGH SD",
      "city": "Midland",
      "ncessch": "421527006566"
    },
    {
      "name": "PENNSYLVANIA CYBER CS",
      "lat": 40.63772,
      "lon": -80.454571,
      "proficiency": 0.103,
      "district": "PENNSYLVANIA CYBER CS",
      "city": "Midland",
      "ncessch": "420007100534"
    },
    {
      "name": "RIVERSIDE MS",
      "lat": 40.8324,
      "lon": -80.2605,
      "proficiency": 0.419,
      "district": "RIVERSIDE BEAVER COUNTY SD",
      "city": "Ellwood City",
      "ncessch": "421743007419"
    },
    {
      "name": "ROCHESTER MS",
      "lat": 40.707957,
      "lon": -80.278687,
      "proficiency": 0.189,
      "district": "ROCHESTER AREA SD",
      "city": "Rochester",
      "ncessch": "422046007516"
    },
    {
      "name": "SOUTH SIDE MS",
      "lat": 40.568182,
      "lon": -80.436778,
      "proficiency": 0.422,
      "district": "SOUTH SIDE AREA SD",
      "city": "Hookstown",
      "ncessch": "422223006937"
    },
    {
      "name": "BEDFORD MS",
      "lat": 40.0139,
      "lon": -78.4967,
      "proficiency": 0.241,
      "district": "BEDFORD AREA SD",
      "city": "Bedford",
      "ncessch": "420318007021"
    },
    {
      "name": "EVERETT AREA MS",
      "lat": 40.0142,
      "lon": -78.3662,
      "proficiency": 0.198,
      "district": "EVERETT AREA SD",
      "city": "Everett",
      "ncessch": "420936000989"
    },
    {
      "name": "NORTHERN BEDFORD COUNTY MS",
      "lat": 40.177708,
      "lon": -78.380166,
      "proficiency": 0.189,
      "district": "NORTHERN BEDFORD COUNTY SD",
      "city": "Loysburg",
      "ncessch": "421758007642"
    },
    {
      "name": "TUSSEY MOUNTAIN MS",
      "lat": 40.221755,
      "lon": -78.238425,
      "proficiency": 0.177,
      "district": "TUSSEY MOUNTAIN SD",
      "city": "Saxton",
      "ncessch": "422397007611"
    },
    {
      "name": "BOYERTOWN AREA MS-EAST",
      "lat": 40.3153,
      "lon": -75.5775,
      "proficiency": 0.428,
      "district": "BOYERTOWN AREA SD",
      "city": "Gilbertsville",
      "ncessch": "420396006804"
    },
    {
      "name": "BOYERTOWN AREA MS-WEST",
      "lat": 40.324,
      "lon": -75.632,
      "proficiency": 0.395,
      "district": "BOYERTOWN AREA SD",
      "city": "Boyertown",
      "ncessch": "420396006305"
    },
    {
      "name": "BRANDYWINE HEIGHTS INTRMD/MS",
      "lat": 40.497022,
      "lon": -75.702711,
      "proficiency": 0.221,
      "district": "BRANDYWINE HEIGHTS AREA SD",
      "city": "Topton",
      "ncessch": "420405007585"
    },
    {
      "name": "CONRAD WEISER MS",
      "lat": 40.3502,
      "lon": -76.1239,
      "proficiency": 0.357,
      "district": "CONRAD WEISER AREA SD",
      "city": "Robesonia",
      "ncessch": "420678000537"
    },
    {
      "name": "DANIEL BOONE AREA MS",
      "lat": 40.304,
      "lon": -75.7443,
      "proficiency": 0.349,
      "district": "DANIEL BOONE AREA SD",
      "city": "Douglassville",
      "ncessch": "420729000364"
    },
    {
      "name": "FLEETWOOD MS",
      "lat": 40.458872,
      "lon": -75.824134,
      "proficiency": 0.204,
      "district": "FLEETWOOD AREA SD",
      "city": "Fleetwood",
      "ncessch": "420978006311"
    },
    {
      "name": "HAMBURG AREA MIDDLE SCHOOL",
      "lat": 40.5523,
      "lon": -75.97,
      "proficiency": 0.194,
      "district": "HAMBURG AREA SD",
      "city": "Hamburg",
      "ncessch": "421134000216"
    },
    {
      "name": "KUTZTOWN AREA MS",
      "lat": 40.5118,
      "lon": -75.7683,
      "proficiency": 0.218,
      "district": "KUTZTOWN AREA SD",
      "city": "Kutztown",
      "ncessch": "421293006315"
    },
    {
      "name": "OLEY VALLEY MS",
      "lat": 40.379882,
      "lon": -75.799377,
      "proficiency": 0.394,
      "district": "OLEY VALLEY SD",
      "city": "Oley",
      "ncessch": "421815006319"
    },
    {
      "name": "CENTRAL MS",
      "lat": 40.3387,
      "lon": -75.9133,
      "proficiency": 0.023,
      "district": "READING SD",
      "city": "Reading",
      "ncessch": "422004006958"
    },
    {
      "name": "SOUTHWEST MS",
      "lat": 40.331922,
      "lon": -75.931525,
      "proficiency": 0.015,
      "district": "READING SD",
      "city": "Reading",
      "ncessch": "422004007675"
    },
    {
      "name": "SCHUYLKILL VALLEY MS",
      "lat": 40.4462,
      "lon": -75.9445,
      "proficiency": 0.241,
      "district": "SCHUYLKILL VALLEY SD",
      "city": "Leesport",
      "ncessch": "422097006888"
    },
    {
      "name": "TULPEHOCKEN AREA MS",
      "lat": 40.451672,
      "lon": -76.176955,
      "proficiency": 0.452,
      "district": "TULPEHOCKEN AREA SD",
      "city": "Bernville",
      "ncessch": "422382010039"
    },
    {
      "name": "TWIN VALLEY MS",
      "lat": 40.1645,
      "lon": -75.8612,
      "proficiency": 0.455,
      "district": "TWIN VALLEY SD",
      "city": "Elverson",
      "ncessch": "422400009991"
    },
    {
      "name": "WILSON SOUTHERN MS",
      "lat": 40.317836,
      "lon": -76.011133,
      "proficiency": 0.253,
      "district": "WILSON SD",
      "city": "Sinking Spring",
      "ncessch": "422658006982"
    },
    {
      "name": "WILSON WEST MS",
      "lat": 40.337161,
      "lon": -76.047911,
      "proficiency": 0.424,
      "district": "WILSON SD",
      "city": "Sinking Spring",
      "ncessch": "422658006981"
    },
    {
      "name": "ALTOONA AREA JR HS",
      "lat": 40.511581,
      "lon": -78.399197,
      "proficiency": 0.28,
      "district": "ALTOONA AREA SD",
      "city": "Altoona",
      "ncessch": "420234006850"
    },
    {
      "name": "BELLWOOD ANTIS MS",
      "lat": 40.594959,
      "lon": -78.331819,
      "proficiency": 0.308,
      "district": "BELLWOOD-ANTIS SD",
      "city": "Bellwood",
      "ncessch": "420330007170"
    },
    {
      "name": "CLAYSBURG-KIMMEL JR HS",
      "lat": 40.284906,
      "lon": -78.452317,
      "proficiency": 0.206,
      "district": "CLAYSBURG-KIMMEL SD",
      "city": "Claysburg",
      "ncessch": "420612010021"
    },
    {
      "name": "SPRING COVE MS",
      "lat": 40.331163,
      "lon": -78.3848,
      "proficiency": 0.174,
      "district": "SPRING COVE SD",
      "city": "Roaring Spring",
      "ncessch": "422253005130"
    },
    {
      "name": "TYRONE AREA MS",
      "lat": 40.6741,
      "lon": -78.2496,
      "proficiency": 0.435,
      "district": "TYRONE AREA SD",
      "city": "Tyrone",
      "ncessch": "422403000277"
    },
    {
      "name": "HARLAN ROWE MS",
      "lat": 41.9678,
      "lon": -76.533,
      "proficiency": 0.331,
      "district": "ATHENS AREA SD",
      "city": "Athens",
      "ncessch": "420267007466"
    },
    {
      "name": "TOWANDA AREA JSHS",
      "lat": 41.7713,
      "lon": -76.4515,
      "proficiency": 0.38,
      "district": "TOWANDA AREA SD",
      "city": "Towanda",
      "ncessch": "422355005208"
    },
    {
      "name": "TROY AREA JSHS",
      "lat": 41.7889,
      "lon": -76.7854,
      "proficiency": 0.229,
      "district": "TROY AREA SD",
      "city": "Troy",
      "ncessch": "422379001000"
    },
    {
      "name": "WYALUSING VALLEY JSHS",
      "lat": 41.658636,
      "lon": -76.256015,
      "proficiency": 0.241,
      "district": "WYALUSING AREA SD",
      "city": "Wyalusing",
      "ncessch": "422670001005"
    },
    {
      "name": "CECELIA SNYDER MS",
      "lat": 40.1028,
      "lon": -74.9422,
      "proficiency": 0.059,
      "district": "BENSALEM TOWNSHIP SD",
      "city": "Bensalem",
      "ncessch": "420333006451"
    },
    {
      "name": "ROBERT K SHAFER MS",
      "lat": 40.1006,
      "lon": -74.9386,
      "proficiency": 0.17,
      "district": "BENSALEM TOWNSHIP SD",
      "city": "Bensalem",
      "ncessch": "420333007030"
    },
    {
      "name": "BRISTOL MS",
      "lat": 40.108331,
      "lon": -74.845074,
      "proficiency": 0.176,
      "district": "BRISTOL BOROUGH SD",
      "city": "Bristol",
      "ncessch": "420420000686"
    },
    {
      "name": "BENJAMIN FRANKLIN MS",
      "lat": 40.137225,
      "lon": -74.855043,
      "proficiency": 0.069,
      "district": "BRISTOL TOWNSHIP SD",
      "city": "Levittown",
      "ncessch": "420423001027"
    },
    {
      "name": "NEIL A ARMSTRONG MS",
      "lat": 40.16572,
      "lon": -74.854921,
      "proficiency": 0.069,
      "district": "BRISTOL TOWNSHIP SD",
      "city": "Fairless Hills",
      "ncessch": "420423007633"
    },
    {
      "name": "KLINGER MS",
      "lat": 40.1857,
      "lon": -75.0316,
      "proficiency": 0.344,
      "district": "CENTENNIAL SD",
      "city": "Southampton",
      "ncessch": "420519009937"
    },
    {
      "name": "LOG COLLEGE MS",
      "lat": 40.216808,
      "lon": -75.105895,
      "proficiency": 0.271,
      "district": "CENTENNIAL SD",
      "city": "Warminster",
      "ncessch": "420519009938"
    },
    {
      "name": "CENTER FOR STUDENT LRNG CS PENNSBURY",
      "lat": 40.1485,
      "lon": -74.8153,
      "proficiency": 0.0,
      "district": "CENTER FOR STUDENT LRNG CS PENNSBURY",
      "city": "Levittown",
      "ncessch": "420010000662"
    },
    {
      "name": "HOLICONG MS",
      "lat": 40.3409,
      "lon": -75.0582,
      "proficiency": 0.59,
      "district": "CENTRAL BUCKS SD",
      "city": "Doylestown",
      "ncessch": "420531005307"
    },
    {
      "name": "LENAPE MS",
      "lat": 40.307119,
      "lon": -75.142624,
      "proficiency": 0.369,
      "district": "CENTRAL BUCKS SD",
      "city": "Doylestown",
      "ncessch": "420531001041"
    },
    {
      "name": "TAMANEND MS",
      "lat": 40.2553,
      "lon": -75.1295,
      "proficiency": 0.399,
      "district": "CENTRAL BUCKS SD",
      "city": "Warrington",
      "ncessch": "420531001042"
    },
    {
      "name": "TOHICKON MS",
      "lat": 40.362,
      "lon": -75.1315,
      "proficiency": 0.434,
      "district": "CENTRAL BUCKS SD",
      "city": "Doylestown",
      "ncessch": "420531000643"
    },
    {
      "name": "UNAMI MS",
      "lat": 40.2839,
      "lon": -75.1974,
      "proficiency": 0.537,
      "district": "CENTRAL BUCKS SD",
      "city": "Chalfont",
      "ncessch": "420531004678"
    },
    {
      "name": "HOLLAND MS",
      "lat": 40.193962,
      "lon": -74.969539,
      "proficiency": 0.41,
      "district": "COUNCIL ROCK SD",
      "city": "Holland",
      "ncessch": "420696007656"
    },
    {
      "name": "NEWTOWN MS",
      "lat": 40.2272,
      "lon": -74.9498,
      "proficiency": 0.661,
      "district": "COUNCIL ROCK SD",
      "city": "Newtown",
      "ncessch": "420696006453"
    },
    {
      "name": "MORRISVILLE HS",
      "lat": 40.207942,
      "lon": -74.7889,
      "proficiency": 0.089,
      "district": "MORRISVILLE BOROUGH SD",
      "city": "Morrisville",
      "ncessch": "421590007587"
    },
    {
      "name": "MAPLE POINT MS",
      "lat": 40.206,
      "lon": -74.8985,
      "proficiency": 0.226,
      "district": "NESHAMINY SD",
      "city": "Langhorne",
      "ncessch": "421641000103"
    },
    {
      "name": "POQUESSING MS",
      "lat": 40.1513,
      "lon": -74.9956,
      "proficiency": 0.256,
      "district": "NESHAMINY SD",
      "city": "Feasterville Trevose",
      "ncessch": "421641001077"
    },
    {
      "name": "SANDBURG MS",
      "lat": 40.1653,
      "lon": -74.8846,
      "proficiency": 0.198,
      "district": "NESHAMINY SD",
      "city": "Levittown",
      "ncessch": "421641001076"
    },
    {
      "name": "NEW HOPE-SOLEBURY MS",
      "lat": 40.3668,
      "lon": -74.9586,
      "proficiency": 0.623,
      "district": "NEW HOPE-SOLEBURY SD",
      "city": "New Hope",
      "ncessch": "421686000381"
    },
    {
      "name": "PALISADES MS",
      "lat": 40.5223,
      "lon": -75.2055,
      "proficiency": 0.267,
      "district": "PALISADES SD",
      "city": "Kintnersville",
      "ncessch": "421833010005"
    },
    {
      "name": "PENNRIDGE CENTRAL MS",
      "lat": 40.3476,
      "lon": -75.2767,
      "proficiency": 0.368,
      "district": "PENNRIDGE SD",
      "city": "Perkasie",
      "ncessch": "421875004681"
    },
    {
      "name": "PENNRIDGE NORTH MS",
      "lat": 40.3898,
      "lon": -75.2712,
      "proficiency": 0.434,
      "district": "PENNRIDGE SD",
      "city": "Perkasie",
      "ncessch": "421875006093"
    },
    {
      "name": "PENNRIDGE SOUTH MS",
      "lat": 40.3664,
      "lon": -75.3055,
      "proficiency": 0.224,
      "district": "PENNRIDGE SD",
      "city": "Perkasie",
      "ncessch": "421875001099"
    },
    {
      "name": "CHARLES H BOEHM MS",
      "lat": 40.2091,
      "lon": -74.8271,
      "proficiency": 0.429,
      "district": "PENNSBURY SD",
      "city": "Yardley",
      "ncessch": "421884009959"
    },
    {
      "name": "PENNWOOD MS",
      "lat": 40.2122,
      "lon": -74.8233,
      "proficiency": 0.335,
      "district": "PENNSBURY SD",
      "city": "Yardley",
      "ncessch": "421884001116"
    },
    {
      "name": "WILLIAM PENN MS",
      "lat": 40.2115,
      "lon": -74.8298,
      "proficiency": 0.386,
      "district": "PENNSBURY SD",
      "city": "Yardley",
      "ncessch": "421884001113"
    },
    {
      "name": "STRAYER MS",
      "lat": 40.431963,
      "lon": -75.323847,
      "proficiency": 0.296,
      "district": "QUAKERTOWN COMMUNITY SD",
      "city": "Quakertown",
      "ncessch": "421989004965"
    },
    {
      "name": "SCHOOL LANE CS",
      "lat": 40.079925,
      "lon": -74.94755,
      "proficiency": 0.196,
      "district": "SCHOOL LANE CS",
      "city": "Bensalem",
      "ncessch": "420003000379"
    },
    {
      "name": "BUTLER AREA IHS",
      "lat": 40.859008,
      "lon": -79.915717,
      "proficiency": 0.315,
      "district": "BUTLER AREA SD",
      "city": "Butler",
      "ncessch": "420459006690"
    },
    {
      "name": "KARNS CITY HS",
      "lat": 40.9878,
      "lon": -79.7265,
      "proficiency": 0.232,
      "district": "KARNS CITY AREA SD",
      "city": "Karns City",
      "ncessch": "420960001154"
    },
    {
      "name": "KNOCH MS",
      "lat": 40.7483,
      "lon": -79.826,
      "proficiency": 0.228,
      "district": "KNOCH SD",
      "city": "Saxonburg",
      "ncessch": "422193000198"
    },
    {
      "name": "MARS AREA MS",
      "lat": 40.695582,
      "lon": -79.976169,
      "proficiency": 0.384,
      "district": "MARS AREA SD",
      "city": "Mars",
      "ncessch": "421479005363"
    },
    {
      "name": "MONITEAU JSHS",
      "lat": 41.0589,
      "lon": -79.8992,
      "proficiency": 0.141,
      "district": "MONITEAU SD",
      "city": "West Sunbury",
      "ncessch": "421710001164"
    },
    {
      "name": "RYAN GLOYER MS",
      "lat": 40.8088,
      "lon": -80.1114,
      "proficiency": 0.295,
      "district": "SENECA VALLEY SD",
      "city": "Harmony",
      "ncessch": "422244005311"
    },
    {
      "name": "SLIPPERY ROCK AREA MS",
      "lat": 41.05786,
      "lon": -80.042229,
      "proficiency": 0.379,
      "district": "SLIPPERY ROCK AREA SD",
      "city": "Slippery Rock",
      "ncessch": "422166006647"
    },
    {
      "name": "BLACKLICK VALLEY JSHS",
      "lat": 40.47819,
      "lon": -78.835965,
      "proficiency": 0.167,
      "district": "BLACKLICK VALLEY SD",
      "city": "Nanty Glo",
      "ncessch": "420369005135"
    },
    {
      "name": "CAMBRIA HEIGHTS MS",
      "lat": 40.632869,
      "lon": -78.629569,
      "proficiency": 0.474,
      "district": "CAMBRIA HEIGHTS SD",
      "city": "Patton",
      "ncessch": "420474001199"
    },
    {
      "name": "CENTRAL CAMBRIA MS",
      "lat": 40.491604,
      "lon": -78.742208,
      "proficiency": 0.579,
      "district": "CENTRAL CAMBRIA SD",
      "city": "Ebensburg",
      "ncessch": "420534001202"
    },
    {
      "name": "CONEMAUGH VALLEY JSHS",
      "lat": 40.3598,
      "lon": -78.8849,
      "proficiency": 0.353,
      "district": "CONEMAUGH VALLEY SD",
      "city": "Johnstown",
      "ncessch": "420643005136"
    },
    {
      "name": "FERNDALE AREA JSHS",
      "lat": 40.2872,
      "lon": -78.9161,
      "proficiency": 0.233,
      "district": "FERNDALE AREA SD",
      "city": "Johnstown",
      "ncessch": "420975001225"
    },
    {
      "name": "FOREST HILLS JSHS",
      "lat": 40.332129,
      "lon": -78.754241,
      "proficiency": 0.333,
      "district": "FOREST HILLS SD",
      "city": "Sidman",
      "ncessch": "420994007586"
    },
    {
      "name": "GREATER JOHNSTOWN SHS",
      "lat": 40.3034,
      "lon": -78.9096,
      "proficiency": 0.015,
      "district": "GREATER JOHNSTOWN SD",
      "city": "Johnstown",
      "ncessch": "421095001251"
    },
    {
      "name": "NORTHERN CAMBRIA MS",
      "lat": 40.65664,
      "lon": -78.789003,
      "proficiency": 0.436,
      "district": "NORTHERN CAMBRIA SD",
      "city": "Northern Cambria",
      "ncessch": "421761006860"
    },
    {
      "name": "PENN CAMBRIA MS",
      "lat": 40.48051,
      "lon": -78.555645,
      "proficiency": 0.421,
      "district": "PENN CAMBRIA SD",
      "city": "Gallitzin",
      "ncessch": "421377006990"
    },
    {
      "name": "PORTAGE AREA JSHS",
      "lat": 40.383,
      "lon": -78.6654,
      "proficiency": 0.341,
      "district": "PORTAGE AREA SD",
      "city": "Portage",
      "ncessch": "421956001270"
    },
    {
      "name": "RICHLAND HS",
      "lat": 40.267159,
      "lon": -78.840216,
      "proficiency": 0.519,
      "district": "RICHLAND SD",
      "city": "Johnstown",
      "ncessch": "422025006079"
    },
    {
      "name": "WESTMONT HILLTOP JSHS",
      "lat": 40.317446,
      "lon": -78.978358,
      "proficiency": 0.216,
      "district": "WESTMONT HILLTOP SD",
      "city": "Johnstown",
      "ncessch": "422613007578"
    },
    {
      "name": "CAMERON COUNTY JSHS",
      "lat": 41.5135,
      "lon": -78.247,
      "proficiency": 0.259,
      "district": "CAMERON COUNTY SD",
      "city": "Emporium",
      "ncessch": "420483001299"
    },
    {
      "name": "L B MORRIS EL SCH",
      "lat": 40.882091,
      "lon": -75.730708,
      "proficiency": 0.065,
      "district": "JIM THORPE AREA SD",
      "city": "Jim Thorpe",
      "ncessch": "421254006965"
    },
    {
      "name": "PENN-KIDDER CAMPUS",
      "lat": 41.027718,
      "lon": -75.585788,
      "proficiency": 0.276,
      "district": "JIM THORPE AREA SD",
      "city": "Albrightsville",
      "ncessch": "421254000776"
    },
    {
      "name": "LEHIGHTON AREA MS",
      "lat": 40.834,
      "lon": -75.7236,
      "proficiency": 0.209,
      "district": "LEHIGHTON AREA SD",
      "city": "Lehighton",
      "ncessch": "421350001314"
    },
    {
      "name": "PALMERTON AREA JHS",
      "lat": 40.8119,
      "lon": -75.6074,
      "proficiency": 0.321,
      "district": "PALMERTON AREA SD",
      "city": "Palmerton",
      "ncessch": "421836007174"
    },
    {
      "name": "PANTHER VALLEY JSHS",
      "lat": 40.842186,
      "lon": -75.850406,
      "proficiency": 0.121,
      "district": "PANTHER VALLEY SD",
      "city": "Lansford",
      "ncessch": "421845007560"
    },
    {
      "name": "WEATHERLY AREA MS",
      "lat": 40.938076,
      "lon": -75.816963,
      "proficiency": 0.25,
      "district": "WEATHERLY AREA SD",
      "city": "Weatherly",
      "ncessch": "422514006838"
    },
    {
      "name": "BALD EAGLE AREA JSHS",
      "lat": 40.9371,
      "lon": -77.8114,
      "proficiency": 0.287,
      "district": "BALD EAGLE AREA SD",
      "city": "Wingate",
      "ncessch": "420291001335"
    },
    {
      "name": "BELLEFONTE AREA MS",
      "lat": 40.9131,
      "lon": -77.7615,
      "proficiency": 0.349,
      "district": "BELLEFONTE AREA SD",
      "city": "Bellefonte",
      "ncessch": "420324001342"
    },
    {
      "name": "CENTRE LEARNING COMMUNITY CS",
      "lat": 40.765015,
      "lon": -77.88425,
      "proficiency": 0.421,
      "district": "CENTRE LEARNING COMMUNITY CS",
      "city": "State College",
      "ncessch": "420002300350"
    },
    {
      "name": "PENNS VALLEY AREA JSHS",
      "lat": 40.8777,
      "lon": -77.5302,
      "proficiency": 0.516,
      "district": "PENNS VALLEY AREA SD",
      "city": "Spring Mills",
      "ncessch": "421881006231"
    },
    {
      "name": "MOUNT NITTANY MS",
      "lat": 40.7865,
      "lon": -77.8073,
      "proficiency": 0.468,
      "district": "STATE COLLEGE AREA SD",
      "city": "State College",
      "ncessch": "422277000154"
    },
    {
      "name": "PARK FOREST MS",
      "lat": 40.8054,
      "lon": -77.9224,
      "proficiency": 0.596,
      "district": "STATE COLLEGE AREA SD",
      "city": "State College",
      "ncessch": "422277006234"
    },
    {
      "name": "YOUNG SCHOLARS OF CENTRAL PA CS",
      "lat": 40.7762,
      "lon": -77.8749,
      "proficiency": 0.483,
      "district": "YOUNG SCHOLARS OF CENTRAL PA CS",
      "city": "State College",
      "ncessch": "420013700879"
    },
    {
      "name": "21ST CENTURY CYBER CS",
      "lat": 39.98831,
      "lon": -75.574369,
      "proficiency": 0.288,
      "district": "21ST CENTURY CYBER CS",
      "city": "West Chester",
      "ncessch": "420009100597"
    },
    {
      "name": "ACHIEVEMENT HOUSE CS",
      "lat": 40.057125,
      "lon": -75.646654,
      "proficiency": 0.042,
      "district": "ACHIEVEMENT HOUSE CS",
      "city": "Exton",
      "ncessch": "420012800843"
    },
    {
      "name": "AGORA CYBER CS",
      "lat": 40.100036,
      "lon": -75.414557,
      "proficiency": 0.038,
      "district": "AGORA CYBER CS",
      "city": "King of Prussia",
      "ncessch": "420014000896"
    },
    {
      "name": "AVON GROVE CS",
      "lat": 39.824874,
      "lon": -75.804123,
      "proficiency": 0.177,
      "district": "AVON GROVE CS",
      "city": "West Grove",
      "ncessch": "420010100656"
    },
    {
      "name": "AVON GROVE MS",
      "lat": 39.815976,
      "lon": -75.81592,
      "proficiency": 0.474,
      "district": "AVON GROVE SD",
      "city": "West Grove",
      "ncessch": "420279005216"
    },
    {
      "name": "COATESVILLE INTERMEDIATE HS",
      "lat": 39.992189,
      "lon": -75.797715,
      "proficiency": 0.074,
      "district": "COATESVILLE AREA SD",
      "city": "Coatsville",
      "ncessch": "420624007628"
    },
    {
      "name": "COLLEGIUM CS",
      "lat": 40.020113,
      "lon": -75.659885,
      "proficiency": 0.163,
      "district": "COLLEGIUM CS",
      "city": "Exton",
      "ncessch": "420005000485"
    },
    {
      "name": "DOWNINGTOWN MS",
      "lat": 40.0135,
      "lon": -75.7183,
      "proficiency": 0.488,
      "district": "DOWNINGTOWN AREA SD",
      "city": "Downingtown",
      "ncessch": "420771000308"
    },
    {
      "name": "LIONVILLE MS",
      "lat": 40.048,
      "lon": -75.6605,
      "proficiency": 0.497,
      "district": "DOWNINGTOWN AREA SD",
      "city": "Exton",
      "ncessch": "420771000307"
    },
    {
      "name": "GREAT VALLEY MS",
      "lat": 40.0591,
      "lon": -75.5646,
      "proficiency": 0.516,
      "district": "GREAT VALLEY SD",
      "city": "Malvern",
      "ncessch": "421087001422"
    },
    {
      "name": "INSIGHT PA CYBER CS",
      "lat": 40.056789,
      "lon": -75.67102,
      "proficiency": 0.017,
      "district": "INSIGHT PA CYBER CS",
      "city": "Exton",
      "ncessch": "420089807635"
    },
    {
      "name": "KENNETT MS",
      "lat": 39.7956,
      "lon": -75.7463,
      "proficiency": 0.285,
      "district": "KENNETT CONSOLIDATED SD",
      "city": "Landenberg",
      "ncessch": "421269006834"
    },
    {
      "name": "OCTORARA AREA JSHS",
      "lat": 39.9275,
      "lon": -75.9462,
      "proficiency": 0.1,
      "district": "OCTORARA AREA SD",
      "city": "Atglen",
      "ncessch": "421803001414"
    },
    {
      "name": "OWEN J ROBERTS MS",
      "lat": 40.1769,
      "lon": -75.653,
      "proficiency": 0.419,
      "district": "OWEN J ROBERTS SD",
      "city": "Pottstown",
      "ncessch": "421827005010"
    },
    {
      "name": "PENN'S GROVE SCH",
      "lat": 39.77983,
      "lon": -75.972971,
      "proficiency": 0.284,
      "district": "OXFORD AREA SD",
      "city": "Oxford",
      "ncessch": "421830001418"
    },
    {
      "name": "PENNSYLVANIA LEADERSHIP CS",
      "lat": 39.98925,
      "lon": -75.555601,
      "proficiency": 0.278,
      "district": "PENNSYLVANIA LEADERSHIP CS",
      "city": "West Chester",
      "ncessch": "420012700837"
    },
    {
      "name": "PHOENIXVILLE AREA MS",
      "lat": 40.119927,
      "lon": -75.523916,
      "proficiency": 0.386,
      "district": "PHOENIXVILLE AREA SD",
      "city": "Phoenixville",
      "ncessch": "421905001425"
    },
    {
      "name": "RENAISSANCE ACADEMY CS",
      "lat": 40.141386,
      "lon": -75.52218,
      "proficiency": 0.229,
      "district": "RENAISSANCE ACADEMY CS",
      "city": "Phoenixville",
      "ncessch": "420006700511"
    },
    {
      "name": "TREDYFFRIN-EASTTOWN MS",
      "lat": 40.0476,
      "lon": -75.4477,
      "proficiency": 0.655,
      "district": "TREDYFFRIN-EASTTOWN SD",
      "city": "Berwyn",
      "ncessch": "422364001421"
    },
    {
      "name": "VALLEY FORGE MS",
      "lat": 40.0746,
      "lon": -75.4426,
      "proficiency": 0.596,
      "district": "TREDYFFRIN-EASTTOWN SD",
      "city": "Wayne",
      "ncessch": "422364004689"
    },
    {
      "name": "CHARLES F PATTON MS",
      "lat": 39.8859,
      "lon": -75.7199,
      "proficiency": 0.559,
      "district": "UNIONVILLE-CHADDS FORD SD",
      "city": "Kennett Square",
      "ncessch": "422421006719"
    },
    {
      "name": "E N PEIRCE MS",
      "lat": 39.9969,
      "lon": -75.6218,
      "proficiency": 0.365,
      "district": "WEST CHESTER AREA SD",
      "city": "West Chester",
      "ncessch": "422529001452"
    },
    {
      "name": "J R FUGETT MS",
      "lat": 39.98,
      "lon": -75.5656,
      "proficiency": 0.373,
      "district": "WEST CHESTER AREA SD",
      "city": "West Chester",
      "ncessch": "422529005137"
    },
    {
      "name": "STETSON MS",
      "lat": 39.9284,
      "lon": -75.5887,
      "proficiency": 0.293,
      "district": "WEST CHESTER AREA SD",
      "city": "West Chester",
      "ncessch": "422529001451"
    },
    {
      "name": "ALLEGHENY-CLARION VALLEY HS",
      "lat": 41.1444,
      "lon": -79.6752,
      "proficiency": 0.459,
      "district": "ALLEGHENY-CLARION VALLEY SD",
      "city": "Foxburg",
      "ncessch": "420231004664"
    },
    {
      "name": "CLARION AREA JSHS",
      "lat": 41.2187,
      "lon": -79.3892,
      "proficiency": 0.347,
      "district": "CLARION AREA SD",
      "city": "Clarion",
      "ncessch": "420606001475"
    },
    {
      "name": "CLARION-LIMESTONE AREA JSHS",
      "lat": 41.184158,
      "lon": -79.276347,
      "proficiency": 0.333,
      "district": "CLARION-LIMESTONE AREA SD",
      "city": "Strattanville",
      "ncessch": "420609001480"
    },
    {
      "name": "KEYSTONE JSHS",
      "lat": 41.231995,
      "lon": -79.530581,
      "proficiency": 0.308,
      "district": "KEYSTONE SD",
      "city": "Knox",
      "ncessch": "421272001486"
    },
    {
      "name": "NORTH CLARION CO JSHS",
      "lat": 41.3943,
      "lon": -79.3559,
      "proficiency": 0.372,
      "district": "NORTH CLARION COUNTY SD",
      "city": "Tionesta",
      "ncessch": "421713001489"
    },
    {
      "name": "REDBANK VALLEY HS",
      "lat": 41.0045,
      "lon": -79.3173,
      "proficiency": 0.2,
      "district": "REDBANK VALLEY SD",
      "city": "New Bethlehem",
      "ncessch": "422013001495"
    },
    {
      "name": "UNION HS",
      "lat": 41.034306,
      "lon": -79.500697,
      "proficiency": 0.188,
      "district": "UNION SD",
      "city": "Rimersburg",
      "ncessch": "422412001501"
    },
    {
      "name": "CLEARFIELD AREA JSHS",
      "lat": 40.99282,
      "lon": -78.482745,
      "proficiency": 0.255,
      "district": "CLEARFIELD AREA SD",
      "city": "Clearfield",
      "ncessch": "420615006236"
    },
    {
      "name": "CURWENSVILLE AREA JSHS",
      "lat": 40.967693,
      "lon": -78.518925,
      "proficiency": 0.538,
      "district": "CURWENSVILLE AREA SD",
      "city": "Curwensville",
      "ncessch": "420714001529"
    },
    {
      "name": "DUBOIS AREA MS",
      "lat": 41.1232,
      "lon": -78.7548,
      "proficiency": 0.367,
      "district": "DUBOIS AREA SD",
      "city": "DuBois",
      "ncessch": "420783001541"
    },
    {
      "name": "GLENDALE JSHS",
      "lat": 40.700597,
      "lon": -78.541223,
      "proficiency": 0.214,
      "district": "GLENDALE SD",
      "city": "Flinton",
      "ncessch": "421083005219"
    },
    {
      "name": "HARMONY AREA JSHS",
      "lat": 40.7783,
      "lon": -78.7263,
      "proficiency": 0.333,
      "district": "HARMONY AREA SD",
      "city": "Westover",
      "ncessch": "421152007545"
    },
    {
      "name": "MOSHANNON VALLEY JSHS",
      "lat": 40.829613,
      "lon": -78.401843,
      "proficiency": 0.273,
      "district": "MOSHANNON VALLEY SD",
      "city": "Houtzdale",
      "ncessch": "421596001550"
    },
    {
      "name": "PHILIPSBURG-OSCEOLA AREA MS",
      "lat": 40.8881,
      "lon": -78.2364,
      "proficiency": 0.252,
      "district": "PHILIPSBURG-OSCEOLA AREA SD",
      "city": "Philipsburg",
      "ncessch": "421902007475"
    },
    {
      "name": "WEST BRANCH MS",
      "lat": 40.979198,
      "lon": -78.203084,
      "proficiency": 0.333,
      "district": "WEST BRANCH AREA SD",
      "city": "Morrisdale",
      "ncessch": "422523007672"
    },
    {
      "name": "BUCKTAIL AREA MS",
      "lat": 41.3363,
      "lon": -77.7084,
      "proficiency": 0.19,
      "district": "KEYSTONE CENTRAL SD",
      "city": "Renovo",
      "ncessch": "421272500797"
    },
    {
      "name": "CENTRAL MOUNTAIN MS",
      "lat": 41.1076,
      "lon": -77.4948,
      "proficiency": 0.167,
      "district": "KEYSTONE CENTRAL SD",
      "city": "Mill Hall",
      "ncessch": "421272500449"
    },
    {
      "name": "SUGAR VALLEY RURAL CS",
      "lat": 41.0346,
      "lon": -77.2977,
      "proficiency": 0.108,
      "district": "SUGAR VALLEY RURAL CS",
      "city": "Loganton",
      "ncessch": "420006300510"
    },
    {
      "name": "BENTON AREA MS",
      "lat": 41.19781,
      "lon": -76.380561,
      "proficiency": 0.135,
      "district": "BENTON AREA SD",
      "city": "Benton",
      "ncessch": "420339007644"
    },
    {
      "name": "BERWICK AREA MS",
      "lat": 41.067106,
      "lon": -76.22736,
      "proficiency": 0.23,
      "district": "BERWICK AREA SD",
      "city": "Berwick",
      "ncessch": "420348006808"
    },
    {
      "name": "BLOOMSBURG AREA MS",
      "lat": 40.990655,
      "lon": -76.455471,
      "proficiency": 0.356,
      "district": "BLOOMSBURG AREA SD",
      "city": "Bloomsburg",
      "ncessch": "420384001611"
    },
    {
      "name": "CENTRAL COLUMBIA MS",
      "lat": 41.022651,
      "lon": -76.366681,
      "proficiency": 0.561,
      "district": "CENTRAL COLUMBIA SD",
      "city": "Bloomsburg",
      "ncessch": "420537005390"
    },
    {
      "name": "MILLVILLE AREA JSHS",
      "lat": 41.1238,
      "lon": -76.5269,
      "proficiency": 0.46,
      "district": "MILLVILLE AREA SD",
      "city": "Millville",
      "ncessch": "421545001623"
    },
    {
      "name": "SOUTHERN COLUMBIA MS",
      "lat": 40.904416,
      "lon": -76.49723,
      "proficiency": 0.313,
      "district": "SOUTHERN COLUMBIA AREA SD",
      "city": "Catawissa",
      "ncessch": "422226000558"
    },
    {
      "name": "CONNEAUT AREA MS",
      "lat": 41.606062,
      "lon": -80.32387,
      "proficiency": 0.296,
      "district": "CONNEAUT SD",
      "city": "Conneaut Lake",
      "ncessch": "420659007434"
    },
    {
      "name": "CONNEAUT VALLEY MS",
      "lat": 41.7758,
      "lon": -80.3628,
      "proficiency": 0.321,
      "district": "CONNEAUT SD",
      "city": "Conneautville",
      "ncessch": "420659007431"
    },
    {
      "name": "COCHRANTON JSHS",
      "lat": 41.5234,
      "lon": -80.0538,
      "proficiency": 0.293,
      "district": "CRAWFORD CENTRAL SD",
      "city": "Cochranton",
      "ncessch": "420708001632"
    },
    {
      "name": "MEADVILLE MS",
      "lat": 41.6346,
      "lon": -80.128,
      "proficiency": 0.239,
      "district": "CRAWFORD CENTRAL SD",
      "city": "Meadville",
      "ncessch": "420708001653"
    },
    {
      "name": "CAMBRIDGE SPRINGS JSHS",
      "lat": 41.799486,
      "lon": -80.067252,
      "proficiency": 0.218,
      "district": "PENNCREST SD",
      "city": "Cambridge Springs",
      "ncessch": "421874001629"
    },
    {
      "name": "MAPLEWOOD JSHS",
      "lat": 41.655,
      "lon": -79.9389,
      "proficiency": 0.136,
      "district": "PENNCREST SD",
      "city": "Guys Mills",
      "ncessch": "421874006942"
    },
    {
      "name": "SAEGERTOWN JSHS",
      "lat": 41.720844,
      "lon": -80.165807,
      "proficiency": 0.283,
      "district": "PENNCREST SD",
      "city": "Saegertown",
      "ncessch": "421874006136"
    },
    {
      "name": "BIG SPRING MS",
      "lat": 40.175328,
      "lon": -77.382808,
      "proficiency": 0.361,
      "district": "BIG SPRING SD",
      "city": "Newville",
      "ncessch": "420366006326"
    },
    {
      "name": "CAMP HILL MS",
      "lat": 40.2386,
      "lon": -76.9258,
      "proficiency": 0.41,
      "district": "CAMP HILL SD",
      "city": "Camp Hill",
      "ncessch": "420486000289"
    },
    {
      "name": "LAMBERTON MS",
      "lat": 40.1908,
      "lon": -77.1881,
      "proficiency": 0.31,
      "district": "CARLISLE AREA SD",
      "city": "Carlisle",
      "ncessch": "420501007011"
    },
    {
      "name": "WILSON MS",
      "lat": 40.2125,
      "lon": -77.2062,
      "proficiency": 0.183,
      "district": "CARLISLE AREA SD",
      "city": "Carlisle",
      "ncessch": "420501007010"
    },
    {
      "name": "EAGLE VIEW MS",
      "lat": 40.244,
      "lon": -77.063316,
      "proficiency": 0.519,
      "district": "CUMBERLAND VALLEY SD",
      "city": "Mechanicsburg",
      "ncessch": "420711006714"
    },
    {
      "name": "MOUNTAIN VIEW MS",
      "lat": 40.268567,
      "lon": -77.009583,
      "proficiency": 0.535,
      "district": "CUMBERLAND VALLEY SD",
      "city": "Mechanicsburg",
      "ncessch": "420711004849"
    },
    {
      "name": "EAST PENNSBORO AREA MS",
      "lat": 40.299459,
      "lon": -76.941356,
      "proficiency": 0.159,
      "district": "EAST PENNSBORO AREA SD",
      "city": "Enola",
      "ncessch": "420858005220"
    },
    {
      "name": "MECHANICSBURG MS",
      "lat": 40.1847,
      "lon": -76.9943,
      "proficiency": 0.279,
      "district": "MECHANICSBURG AREA SD",
      "city": "Mechanicsburg",
      "ncessch": "421503001715"
    },
    {
      "name": "SHIPPENSBURG AREA MS",
      "lat": 40.0405,
      "lon": -77.5403,
      "proficiency": 0.253,
      "district": "SHIPPENSBURG AREA SD",
      "city": "Shippensburg",
      "ncessch": "422157001729"
    },
    {
      "name": "YELLOW BREECHES MS",
      "lat": 40.15235,
      "lon": -77.139423,
      "proficiency": 0.345,
      "district": "SOUTH MIDDLETON SD",
      "city": "Boiling Springs",
      "ncessch": "422205000455"
    },
    {
      "name": "CENTRAL DAUPHIN EAST MS",
      "lat": 40.2856,
      "lon": -76.7954,
      "proficiency": 0.109,
      "district": "CENTRAL DAUPHIN SD",
      "city": "Harrisburg",
      "ncessch": "420540001744"
    },
    {
      "name": "CENTRAL DAUPHIN MS",
      "lat": 40.2937,
      "lon": -76.8107,
      "proficiency": 0.318,
      "district": "CENTRAL DAUPHIN SD",
      "city": "Harrisburg",
      "ncessch": "420540000838"
    },
    {
      "name": "LINGLESTOWN MS",
      "lat": 40.3386,
      "lon": -76.7947,
      "proficiency": 0.302,
      "district": "CENTRAL DAUPHIN SD",
      "city": "Harrisburg",
      "ncessch": "420540006783"
    },
    {
      "name": "SWATARA MS",
      "lat": 40.2396,
      "lon": -76.8179,
      "proficiency": 0.072,
      "district": "CENTRAL DAUPHIN SD",
      "city": "Steelton",
      "ncessch": "420540001742"
    },
    {
      "name": "COMMONWEALTH CHARTER ACADEMY CS",
      "lat": 40.292337,
      "lon": -76.883256,
      "proficiency": 0.108,
      "district": "COMMONWEALTH CHARTER ACADEMY CS",
      "city": "Harrisburg",
      "ncessch": "420011900756"
    },
    {
      "name": "HERSHEY MS",
      "lat": 40.279839,
      "lon": -76.640912,
      "proficiency": 0.617,
      "district": "DERRY TOWNSHIP SD",
      "city": "Hershey",
      "ncessch": "420759006678"
    },
    {
      "name": "HALIFAX AREA MS",
      "lat": 40.462107,
      "lon": -76.929034,
      "proficiency": 0.412,
      "district": "HALIFAX AREA SD",
      "city": "Halifax",
      "ncessch": "421131006331"
    },
    {
      "name": "CAMP CURTIN ACADEMY",
      "lat": 40.29271,
      "lon": -76.896031,
      "proficiency": 0.0,
      "district": "HARRISBURG CITY SD",
      "city": "Harrisburg",
      "ncessch": "421158007485"
    },
    {
      "name": "COUGAR ACADEMY",
      "lat": 40.276296,
      "lon": -76.88772,
      "proficiency": 0.057,
      "district": "HARRISBURG CITY SD",
      "city": "Harrisburg",
      "ncessch": "421158007583"
    },
    {
      "name": "MARSHALL MATH SCIENCE ACADEMY",
      "lat": 40.26787,
      "lon": -76.846444,
      "proficiency": 0.151,
      "district": "HARRISBURG CITY SD",
      "city": "Harrisburg",
      "ncessch": "421158000981"
    },
    {
      "name": "ROWLAND ACADEMY",
      "lat": 40.262,
      "lon": -76.8593,
      "proficiency": 0.0,
      "district": "HARRISBURG CITY SD",
      "city": "Harrisburg",
      "ncessch": "421158000456"
    },
    {
      "name": "INFINITY CS",
      "lat": 40.292558,
      "lon": -76.797387,
      "proficiency": 0.76,
      "district": "INFINITY CS",
      "city": "Harrisburg",
      "ncessch": "420011800724"
    },
    {
      "name": "LOWER DAUPHIN MS",
      "lat": 40.2621,
      "lon": -76.6969,
      "proficiency": 0.367,
      "district": "LOWER DAUPHIN SD",
      "city": "Hummelstown",
      "ncessch": "421410000122"
    },
    {
      "name": "MIDDLETOWN AREA MS",
      "lat": 40.212744,
      "lon": -76.745623,
      "proficiency": 0.175,
      "district": "MIDDLETOWN AREA SD",
      "city": "Middletown",
      "ncessch": "421524001785"
    },
    {
      "name": "MILLERSBURG AREA MS",
      "lat": 40.543071,
      "lon": -76.951909,
      "proficiency": 0.255,
      "district": "MILLERSBURG AREA SD",
      "city": "Millersburg",
      "ncessch": "421536006682"
    },
    {
      "name": "REACH CYBER CS",
      "lat": 40.271,
      "lon": -76.813771,
      "proficiency": 0.043,
      "district": "REACH CYBER CS",
      "city": "Harrisburg",
      "ncessch": "420088707580"
    },
    {
      "name": "STEELTON-HIGHSPIRE HS",
      "lat": 40.238795,
      "lon": -76.830212,
      "proficiency": 0.013,
      "district": "STEELTON-HIGHSPIRE SD",
      "city": "Steelton",
      "ncessch": "422280001801"
    },
    {
      "name": "SUSQUEHANNA TWP MS",
      "lat": 40.2806,
      "lon": -76.8343,
      "proficiency": 0.103,
      "district": "SUSQUEHANNA TOWNSHIP SD",
      "city": "Harrisburg",
      "ncessch": "422301001805"
    },
    {
      "name": "UPPER DAUPHIN AREA MS",
      "lat": 40.566236,
      "lon": -76.756651,
      "proficiency": 0.261,
      "district": "UPPER DAUPHIN AREA SD",
      "city": "Lykens",
      "ncessch": "422436006339"
    },
    {
      "name": "CHESTER CHARTER SCHOLARS ACADEMY CS",
      "lat": 39.838805,
      "lon": -75.399428,
      "proficiency": 0.02,
      "district": "CHESTER CHARTER SCHOLARS ACADEMY CS",
      "city": "Chester",
      "ncessch": "420085707437"
    },
    {
      "name": "CHESTER COMMUNITY CS",
      "lat": 39.850524,
      "lon": -75.356379,
      "proficiency": 0.02,
      "district": "CHESTER COMMUNITY CS",
      "city": "Chester",
      "ncessch": "420003500388"
    },
    {
      "name": "EDGMONT SCHOLARS ACADEMY",
      "lat": 39.859158,
      "lon": -75.362475,
      "proficiency": 0.0,
      "district": "CHESTER-UPLAND SD",
      "city": "Chester",
      "ncessch": "420586010026"
    },
    {
      "name": "STEM AT SHOWALTER",
      "lat": 39.8477,
      "lon": -75.3776,
      "proficiency": 0.095,
      "district": "CHESTER-UPLAND SD",
      "city": "Chester",
      "ncessch": "420586007499"
    },
    {
      "name": "TOBY FARMS INTERMEDIATE SCHOOL",
      "lat": 39.858449,
      "lon": -75.391652,
      "proficiency": 0.025,
      "district": "CHESTER-UPLAND SD",
      "city": "Chester Twp",
      "ncessch": "420586007510"
    },
    {
      "name": "CHICHESTER MS",
      "lat": 39.832068,
      "lon": -75.434659,
      "proficiency": 0.149,
      "district": "CHICHESTER SD",
      "city": "Boothwyn",
      "ncessch": "420591009943"
    },
    {
      "name": "GARNET VALLEY MS",
      "lat": 39.8689,
      "lon": -75.5138,
      "proficiency": 0.569,
      "district": "GARNET VALLEY SD",
      "city": "Glen Mills",
      "ncessch": "421059010013"
    },
    {
      "name": "HAVERFORD MS",
      "lat": 39.9835,
      "lon": -75.3055,
      "proficiency": 0.561,
      "district": "HAVERFORD TOWNSHIP SD",
      "city": "Havertown",
      "ncessch": "421167001878"
    },
    {
      "name": "GLENOLDEN SCH",
      "lat": 39.9045,
      "lon": -75.2964,
      "proficiency": 0.153,
      "district": "INTERBORO SD",
      "city": "Glenolden",
      "ncessch": "421217001881"
    },
    {
      "name": "NORWOOD SCH",
      "lat": 39.8851,
      "lon": -75.2968,
      "proficiency": 0.297,
      "district": "INTERBORO SD",
      "city": "Norwood",
      "ncessch": "421217001883"
    },
    {
      "name": "PROSPECT PARK SCH",
      "lat": 39.8868,
      "lon": -75.3057,
      "proficiency": 0.239,
      "district": "INTERBORO SD",
      "city": "Prospect Park",
      "ncessch": "421217006508"
    },
    {
      "name": "TINICUM SCH",
      "lat": 39.8701,
      "lon": -75.2911,
      "proficiency": 0.206,
      "district": "INTERBORO SD",
      "city": "Essington",
      "ncessch": "421217004847"
    },
    {
      "name": "PAXON HOLLOW MS",
      "lat": 39.9574,
      "lon": -75.3641,
      "proficiency": 0.397,
      "district": "MARPLE NEWTOWN SD",
      "city": "Broomall",
      "ncessch": "421476001901"
    },
    {
      "name": "NORTHLEY MS",
      "lat": 39.86,
      "lon": -75.4121,
      "proficiency": 0.182,
      "district": "PENN-DELCO SD",
      "city": "Aston",
      "ncessch": "421858005143"
    },
    {
      "name": "RADNOR MS",
      "lat": 40.041736,
      "lon": -75.386243,
      "proficiency": 0.754,
      "district": "RADNOR TOWNSHIP SD",
      "city": "Wayne",
      "ncessch": "421992006511"
    },
    {
      "name": "RIDLEY MS",
      "lat": 39.878674,
      "lon": -75.330129,
      "proficiency": 0.217,
      "district": "RIDLEY SD",
      "city": "Ridley Park",
      "ncessch": "422037007299"
    },
    {
      "name": "SPRINGTON LAKE MS",
      "lat": 39.9405,
      "lon": -75.3988,
      "proficiency": 0.562,
      "district": "ROSE TREE MEDIA SD",
      "city": "Media",
      "ncessch": "422055006625"
    },
    {
      "name": "DARBY TWP SCH",
      "lat": 39.91,
      "lon": -75.2967,
      "proficiency": 0.184,
      "district": "SOUTHEAST DELCO SD",
      "city": "Glenolden",
      "ncessch": "422240001861"
    },
    {
      "name": "DELCROFT SCH",
      "lat": 39.8902,
      "lon": -75.2814,
      "proficiency": 0.068,
      "district": "SOUTHEAST DELCO SD",
      "city": "Folcroft",
      "ncessch": "422240006505"
    },
    {
      "name": "HARRIS SCH",
      "lat": 39.916,
      "lon": -75.2781,
      "proficiency": 0.165,
      "district": "SOUTHEAST DELCO SD",
      "city": "Collingdale",
      "ncessch": "422240006501"
    },
    {
      "name": "SHARON HILL SCH",
      "lat": 39.9095,
      "lon": -75.2683,
      "proficiency": 0.094,
      "district": "SOUTHEAST DELCO SD",
      "city": "Sharon Hill",
      "ncessch": "422240001943"
    },
    {
      "name": "RICHARDSON MS",
      "lat": 39.9249,
      "lon": -75.3428,
      "proficiency": 0.511,
      "district": "SPRINGFIELD SD",
      "city": "Springfield",
      "ncessch": "422260001949"
    },
    {
      "name": "BEVERLY HILLS MS",
      "lat": 39.9549,
      "lon": -75.2719,
      "proficiency": 0.087,
      "district": "UPPER DARBY SD",
      "city": "Upper Darby",
      "ncessch": "422432001970"
    },
    {
      "name": "DREXEL HILL MS",
      "lat": 39.957,
      "lon": -75.2976,
      "proficiency": 0.128,
      "district": "UPPER DARBY SD",
      "city": "Drexel Hill",
      "ncessch": "422432001971"
    },
    {
      "name": "VISION ACADEMY CHARTER SCHOOL",
      "lat": 39.945513,
      "lon": -75.260108,
      "proficiency": 0.511,
      "district": "VISION ACADEMY CHARTER SCHOOL",
      "city": "East Lansdowne",
      "ncessch": "420088507564"
    },
    {
      "name": "STRATH HAVEN MS",
      "lat": 39.8954,
      "lon": -75.3702,
      "proficiency": 0.469,
      "district": "WALLINGFORD-SWARTHMORE SD",
      "city": "Wallingford",
      "ncessch": "422479001908"
    },
    {
      "name": "PENN WOOD MS",
      "lat": 39.9203,
      "lon": -75.2571,
      "proficiency": 0.074,
      "district": "WILLIAM PENN SD",
      "city": "Darby",
      "ncessch": "422639000943"
    },
    {
      "name": "JOHNSONBURG AREA HS",
      "lat": 41.506804,
      "lon": -78.683671,
      "proficiency": 0.525,
      "district": "JOHNSONBURG AREA SD",
      "city": "Johnsonburg",
      "ncessch": "421257006218"
    },
    {
      "name": "RIDGWAY AREA MS",
      "lat": 41.432801,
      "lon": -78.719153,
      "proficiency": 0.441,
      "district": "RIDGWAY AREA SD",
      "city": "Ridgway",
      "ncessch": "422031006805"
    },
    {
      "name": "ST MARYS AREA MS",
      "lat": 41.4019,
      "lon": -78.5483,
      "proficiency": 0.118,
      "district": "SAINT MARYS AREA SD",
      "city": "Saint Marys",
      "ncessch": "422064001992"
    },
    {
      "name": "CORRY AREA MS",
      "lat": 41.918214,
      "lon": -79.625669,
      "proficiency": 0.198,
      "district": "CORRY AREA SD",
      "city": "Corry",
      "ncessch": "420686000795"
    },
    {
      "name": "EAST MS",
      "lat": 42.13738,
      "lon": -80.061501,
      "proficiency": 0.016,
      "district": "ERIE CITY SD",
      "city": "Erie",
      "ncessch": "420930007610"
    },
    {
      "name": "STRONG VINCENT MS",
      "lat": 42.117373,
      "lon": -80.113403,
      "proficiency": 0.154,
      "district": "ERIE CITY SD",
      "city": "Erie",
      "ncessch": "420930007609"
    },
    {
      "name": "WOODROW WILSON MS",
      "lat": 42.1166,
      "lon": -80.0566,
      "proficiency": 0.09,
      "district": "ERIE CITY SD",
      "city": "Erie",
      "ncessch": "420930002025"
    },
    {
      "name": "FAIRVIEW MS",
      "lat": 42.025,
      "lon": -80.2497,
      "proficiency": 0.628,
      "district": "FAIRVIEW SD",
      "city": "Fairview",
      "ncessch": "420957002032"
    },
    {
      "name": "FORT LEBOEUF MS",
      "lat": 41.9511,
      "lon": -79.9868,
      "proficiency": 0.482,
      "district": "FORT LEBOEUF SD",
      "city": "Waterford",
      "ncessch": "420999005328"
    },
    {
      "name": "JAMES W PARKER MS",
      "lat": 41.9153,
      "lon": -80.1211,
      "proficiency": 0.538,
      "district": "GENERAL MCLANE SD",
      "city": "Edinboro",
      "ncessch": "421065005225"
    },
    {
      "name": "RICE AVENUE MS",
      "lat": 42.0086,
      "lon": -80.3298,
      "proficiency": 0.333,
      "district": "GIRARD SD",
      "city": "Girard",
      "ncessch": "421074006777"
    },
    {
      "name": "HARBOR CREEK JUNIOR HS",
      "lat": 42.1626,
      "lon": -79.9544,
      "proficiency": 0.446,
      "district": "HARBOR CREEK SD",
      "city": "Harborcreek",
      "ncessch": "421149002048"
    },
    {
      "name": "IROQUOIS JSHS",
      "lat": 42.1507,
      "lon": -80.0109,
      "proficiency": 0.338,
      "district": "IROQUOIS SD",
      "city": "Erie",
      "ncessch": "421221004817"
    },
    {
      "name": "JAMES S WILSON MS",
      "lat": 42.078954,
      "lon": -80.076217,
      "proficiency": 0.528,
      "district": "MILLCREEK TOWNSHIP SD",
      "city": "Erie",
      "ncessch": "421533004954"
    },
    {
      "name": "WALNUT CREEK MS",
      "lat": 42.0437,
      "lon": -80.1722,
      "proficiency": 0.47,
      "district": "MILLCREEK TOWNSHIP SD",
      "city": "Fairview",
      "ncessch": "421533000085"
    },
    {
      "name": "WESTLAKE MS",
      "lat": 42.0895,
      "lon": -80.1836,
      "proficiency": 0.299,
      "district": "MILLCREEK TOWNSHIP SD",
      "city": "Erie",
      "ncessch": "421533002062"
    },
    {
      "name": "MONTESSORI REGIONAL CS",
      "lat": 42.105442,
      "lon": -80.137246,
      "proficiency": 0.167,
      "district": "MONTESSORI REGIONAL CS",
      "city": "Erie",
      "ncessch": "420012400818"
    },
    {
      "name": "NORTH EAST MS",
      "lat": 42.2238,
      "lon": -79.8269,
      "proficiency": 0.458,
      "district": "NORTH EAST SD",
      "city": "North East",
      "ncessch": "421716000043"
    },
    {
      "name": "NORTHWESTERN MS",
      "lat": 41.887777,
      "lon": -80.353903,
      "proficiency": 0.228,
      "district": "NORTHWESTERN SD",
      "city": "Albion",
      "ncessch": "421788006146"
    },
    {
      "name": "PERSEUS HOUSE CS OF EXCELLENCE",
      "lat": 42.12031,
      "lon": -80.080041,
      "proficiency": 0.049,
      "district": "PERSEUS HOUSE CS OF EXCELLENCE",
      "city": "Erie",
      "ncessch": "420011500738"
    },
    {
      "name": "ROBERT BENJAMIN WILEY COMMUNITY CS",
      "lat": 42.1422,
      "lon": -80.0548,
      "proficiency": 0.196,
      "district": "ROBERT BENJAMIN WILEY COMMUNITY CS",
      "city": "Erie",
      "ncessch": "420002000342"
    },
    {
      "name": "UNION CITY MS",
      "lat": 41.889969,
      "lon": -79.838876,
      "proficiency": 0.282,
      "district": "UNION CITY AREA SD",
      "city": "Union City",
      "ncessch": "422409009966"
    },
    {
      "name": "WATTSBURG AREA MS",
      "lat": 42.054,
      "lon": -79.9036,
      "proficiency": 0.544,
      "district": "WATTSBURG AREA SD",
      "city": "Erie",
      "ncessch": "422508006654"
    },
    {
      "name": "ALBERT GALLATIN NORTH MS",
      "lat": 39.884972,
      "lon": -79.871932,
      "proficiency": 0.35,
      "district": "ALBERT GALLATIN AREA SD",
      "city": "McClellandtown",
      "ncessch": "420210000407"
    },
    {
      "name": "ALBERT GALLATIN SOUTH MS",
      "lat": 39.7783,
      "lon": -79.9185,
      "proficiency": 0.368,
      "district": "ALBERT GALLATIN AREA SD",
      "city": "Point Marion",
      "ncessch": "420210000408"
    },
    {
      "name": "BROWNSVILLE AREA MS",
      "lat": 40.007569,
      "lon": -79.893388,
      "proficiency": 0.108,
      "district": "BROWNSVILLE AREA SD",
      "city": "Brownsville",
      "ncessch": "420408002154"
    },
    {
      "name": "CONNELLSVILLE AREA MS",
      "lat": 40.0224,
      "lon": -79.5703,
      "proficiency": 0.269,
      "district": "CONNELLSVILLE AREA SD",
      "city": "Connellsville",
      "ncessch": "420666002105"
    },
    {
      "name": "FRAZIER MS",
      "lat": 40.088132,
      "lon": -79.754155,
      "proficiency": 0.111,
      "district": "FRAZIER SD",
      "city": "Perryopolis",
      "ncessch": "421035007203"
    },
    {
      "name": "LAUREL HIGHLANDS MS",
      "lat": 39.8937,
      "lon": -79.7531,
      "proficiency": 0.205,
      "district": "LAUREL HIGHLANDS SD",
      "city": "Uniontown",
      "ncessch": "421332005146"
    },
    {
      "name": "A J MCMULLEN SCH",
      "lat": 39.7742,
      "lon": -79.4866,
      "proficiency": 0.361,
      "district": "UNIONTOWN AREA SD",
      "city": "Markleysburg",
      "ncessch": "422415006933"
    },
    {
      "name": "BEN FRANKLIN SCH",
      "lat": 39.8915,
      "lon": -79.7335,
      "proficiency": 0.074,
      "district": "UNIONTOWN AREA SD",
      "city": "Uniontown",
      "ncessch": "422415002182"
    },
    {
      "name": "LAFAYETTE MS",
      "lat": 39.901383,
      "lon": -79.70594,
      "proficiency": 0.314,
      "district": "UNIONTOWN AREA SD",
      "city": "Uniontown",
      "ncessch": "422415006101"
    },
    {
      "name": "WEST FOREST JSHS",
      "lat": 41.545119,
      "lon": -79.432719,
      "proficiency": 0.071,
      "district": "FOREST AREA SD",
      "city": "Tionesta",
      "ncessch": "420828006161"
    },
    {
      "name": "CHAMBERSBURG AREA MS - NORTH",
      "lat": 39.956,
      "lon": -77.6362,
      "proficiency": 0.267,
      "district": "CHAMBERSBURG AREA SD",
      "city": "Chambersburg",
      "ncessch": "420555002190"
    },
    {
      "name": "CHAMBERSBURG AREA MS - SOUTH",
      "lat": 39.9237,
      "lon": -77.6403,
      "proficiency": 0.329,
      "district": "CHAMBERSBURG AREA SD",
      "city": "Chambersburg",
      "ncessch": "420555006615"
    },
    {
      "name": "FANNETT-METAL MS",
      "lat": 40.119719,
      "lon": -77.783929,
      "proficiency": 0.121,
      "district": "FANNETT-METAL SD",
      "city": "Willow Hill",
      "ncessch": "420966000283"
    },
    {
      "name": "GREENCASTLE-ANTRIM MS",
      "lat": 39.7831,
      "lon": -77.7242,
      "proficiency": 0.414,
      "district": "GREENCASTLE-ANTRIM SD",
      "city": "Greencastle",
      "ncessch": "421101005117"
    },
    {
      "name": "JAMES BUCHANAN MS",
      "lat": 39.850133,
      "lon": -77.897146,
      "proficiency": 0.3,
      "district": "TUSCARORA SD",
      "city": "Mercersburg",
      "ncessch": "422274006281"
    },
    {
      "name": "WAYNESBORO AREA MS",
      "lat": 39.746974,
      "lon": -77.567678,
      "proficiency": 0.308,
      "district": "WAYNESBORO AREA SD",
      "city": "Waynesboro",
      "ncessch": "422511007619"
    },
    {
      "name": "MCCONNELLSBURG MS",
      "lat": 39.929228,
      "lon": -77.998633,
      "proficiency": 0.362,
      "district": "CENTRAL FULTON SD",
      "city": "McConnellsburg",
      "ncessch": "421485000673"
    },
    {
      "name": "FORBES ROAD JSHS",
      "lat": 40.082982,
      "lon": -78.065197,
      "proficiency": 0.207,
      "district": "FORBES ROAD SD",
      "city": "Waterfall",
      "ncessch": "420987002246"
    },
    {
      "name": "SOUTHERN FULTON JSHS",
      "lat": 39.7537,
      "lon": -78.1877,
      "proficiency": 0.185,
      "district": "SOUTHERN FULTON SD",
      "city": "Warfordsburg",
      "ncessch": "422229002253"
    },
    {
      "name": "CARMICHAELS AREA MS",
      "lat": 39.897103,
      "lon": -79.978369,
      "proficiency": 0.181,
      "district": "CARMICHAELS AREA SD",
      "city": "Carmichaels",
      "ncessch": "420507007550"
    },
    {
      "name": "WAYNESBURG CENTRAL JSHS",
      "lat": 39.8956,
      "lon": -80.151,
      "proficiency": 0.179,
      "district": "CENTRAL GREENE SD",
      "city": "Waynesburg",
      "ncessch": "420543005118"
    },
    {
      "name": "JEFFERSON-MORGAN MS/HS",
      "lat": 39.9284,
      "lon": -80.0649,
      "proficiency": 0.377,
      "district": "JEFFERSON-MORGAN SD",
      "city": "Jefferson",
      "ncessch": "421239002280"
    },
    {
      "name": "MAPLETOWN JSHS",
      "lat": 39.804058,
      "lon": -79.937952,
      "proficiency": 0.323,
      "district": "SOUTHEASTERN GREENE SD",
      "city": "Greensboro",
      "ncessch": "422220002284"
    },
    {
      "name": "WEST GREENE JSHS",
      "lat": 39.867452,
      "lon": -80.282469,
      "proficiency": 0.021,
      "district": "WEST GREENE SD",
      "city": "Waynesburg",
      "ncessch": "422544007638"
    },
    {
      "name": "HUNTINGDON AREA MS",
      "lat": 40.505431,
      "lon": -78.010345,
      "proficiency": 0.35,
      "district": "HUNTINGDON AREA SD",
      "city": "Huntingdon",
      "ncessch": "421209005333"
    },
    {
      "name": "JUNIATA VALLEY JSHS",
      "lat": 40.563,
      "lon": -78.0764,
      "proficiency": 0.051,
      "district": "JUNIATA VALLEY SD",
      "city": "Alexandria",
      "ncessch": "421263002308"
    },
    {
      "name": "MOUNT UNION AREA JHS",
      "lat": 40.389506,
      "lon": -77.875868,
      "proficiency": 0.082,
      "district": "MOUNT UNION AREA SD",
      "city": "Mount Union",
      "ncessch": "421602002297"
    },
    {
      "name": "NEW DAY CHARTER SCHOOL",
      "lat": 40.48263,
      "lon": -78.018281,
      "proficiency": 0.0,
      "district": "NEW DAY CHARTER SCHOOL",
      "city": "Huntingdon",
      "ncessch": "420011400713"
    },
    {
      "name": "SOUTHERN HUNTINGDON CO HS/MS",
      "lat": 40.214735,
      "lon": -77.923907,
      "proficiency": 0.117,
      "district": "SOUTHERN HUNTINGDON COUNTY SD",
      "city": "Three Springs",
      "ncessch": "422232002313"
    },
    {
      "name": "HOMER-CENTER JSHS",
      "lat": 40.532219,
      "lon": -79.158615,
      "proficiency": 0.619,
      "district": "HOMER-CENTER SD",
      "city": "Homer City",
      "ncessch": "421329002331"
    },
    {
      "name": "INDIANA AREA JHS",
      "lat": 40.6267,
      "lon": -79.1475,
      "proficiency": 0.452,
      "district": "INDIANA AREA SD",
      "city": "Indiana",
      "ncessch": "421215002324"
    },
    {
      "name": "MARION CENTER AREA JR/SR HS",
      "lat": 40.7696,
      "lon": -79.0555,
      "proficiency": 0.259,
      "district": "MARION CENTER AREA SD",
      "city": "Marion Center",
      "ncessch": "421473002339"
    },
    {
      "name": "PENNS MANOR AREA JSHS",
      "lat": 40.640531,
      "lon": -78.944617,
      "proficiency": 0.235,
      "district": "PENNS MANOR AREA SD",
      "city": "Clymer",
      "ncessch": "421878002345"
    },
    {
      "name": "PURCHASE LINE JSHS",
      "lat": 40.7352,
      "lon": -78.9173,
      "proficiency": 0.125,
      "district": "PURCHASE LINE SD",
      "city": "Commodore",
      "ncessch": "421983002350"
    },
    {
      "name": "RIVER VALLEY MS",
      "lat": 40.449199,
      "lon": -79.218909,
      "proficiency": 0.296,
      "district": "RIVER VALLEY SD",
      "city": "Blairsville",
      "ncessch": "420375007705"
    },
    {
      "name": "UNITED JSHS",
      "lat": 40.4661,
      "lon": -79.045,
      "proficiency": 0.357,
      "district": "UNITED SD",
      "city": "Armagh",
      "ncessch": "422424002358"
    },
    {
      "name": "BROCKWAY AREA JSHS",
      "lat": 41.251239,
      "lon": -78.804495,
      "proficiency": 0.395,
      "district": "BROCKWAY AREA SD",
      "city": "Brockway",
      "ncessch": "420426002362"
    },
    {
      "name": "BROOKVILLE JSHS",
      "lat": 41.173125,
      "lon": -79.086257,
      "proficiency": 0.242,
      "district": "BROOKVILLE AREA SD",
      "city": "Brookville",
      "ncessch": "420432006162"
    },
    {
      "name": "PUNXSUTAWNEY AREA HS",
      "lat": 40.951732,
      "lon": -78.977802,
      "proficiency": 0.404,
      "district": "PUNXSUTAWNEY AREA SD",
      "city": "Punxsutawney",
      "ncessch": "421980006165"
    },
    {
      "name": "EAST JUNIATA JSHS",
      "lat": 40.658393,
      "lon": -77.216905,
      "proficiency": 0.159,
      "district": "JUNIATA COUNTY SD",
      "city": "McAlisterville",
      "ncessch": "421260002394"
    },
    {
      "name": "TUSCARORA MS",
      "lat": 40.564432,
      "lon": -77.394551,
      "proficiency": 0.33,
      "district": "JUNIATA COUNTY SD",
      "city": "Mifflintown",
      "ncessch": "421260007276"
    },
    {
      "name": "ABINGTON HEIGHTS MS",
      "lat": 41.4746,
      "lon": -75.7514,
      "proficiency": 0.383,
      "district": "ABINGTON HEIGHTS SD",
      "city": "Clarks Summit",
      "ncessch": "420201006839"
    },
    {
      "name": "CARBONDALE AREA JSHS",
      "lat": 41.568082,
      "lon": -75.512423,
      "proficiency": 0.175,
      "district": "CARBONDALE AREA SD",
      "city": "Carbondale",
      "ncessch": "420498002420"
    },
    {
      "name": "DUNMORE JSHS",
      "lat": 41.428464,
      "lon": -75.633869,
      "proficiency": 0.31,
      "district": "DUNMORE SD",
      "city": "Dunmore",
      "ncessch": "420798007540"
    },
    {
      "name": "HOWARD GARDNER MULTIPLE INTELLIGENCE CS",
      "lat": 41.383199,
      "lon": -75.648122,
      "proficiency": 0.147,
      "district": "HOWARD GARDNER MULTIPLE INTELLIGENCE CS",
      "city": "Scranton",
      "ncessch": "420086707435"
    },
    {
      "name": "LAKELAND JSHS",
      "lat": 41.559628,
      "lon": -75.604702,
      "proficiency": 0.12,
      "district": "LAKELAND SD",
      "city": "Scott Township",
      "ncessch": "421305006404"
    },
    {
      "name": "MID VALLEY SECONDARY CENTER",
      "lat": 41.448696,
      "lon": -75.601601,
      "proficiency": 0.429,
      "district": "MID VALLEY SD",
      "city": "Throop",
      "ncessch": "421517007518"
    },
    {
      "name": "NORTH POCONO MS",
      "lat": 41.336452,
      "lon": -75.529362,
      "proficiency": 0.305,
      "district": "NORTH POCONO SD",
      "city": "Moscow",
      "ncessch": "421731005233"
    },
    {
      "name": "OLD FORGE JSHS",
      "lat": 41.37148,
      "lon": -75.742111,
      "proficiency": 0.171,
      "district": "OLD FORGE SD",
      "city": "Old Forge",
      "ncessch": "421812002449"
    },
    {
      "name": "RIVERSIDE JSHS",
      "lat": 41.3812,
      "lon": -75.7194,
      "proficiency": 0.389,
      "district": "RIVERSIDE SD",
      "city": "Taylor",
      "ncessch": "422325002496"
    },
    {
      "name": "NORTHEAST INTRMD SCH",
      "lat": 41.414203,
      "lon": -75.654991,
      "proficiency": 0.042,
      "district": "SCRANTON SD",
      "city": "Scranton",
      "ncessch": "422109000612"
    },
    {
      "name": "SCRANTON HS",
      "lat": 41.4181,
      "lon": -75.6689,
      "proficiency": 0.455,
      "district": "SCRANTON SD",
      "city": "Scranton",
      "ncessch": "422109006413"
    },
    {
      "name": "SOUTH SCRANTON INTRMD SCH",
      "lat": 41.3978,
      "lon": -75.6709,
      "proficiency": 0.041,
      "district": "SCRANTON SD",
      "city": "Scranton",
      "ncessch": "422109002487"
    },
    {
      "name": "WEST SCRANTON INTRMD SCH",
      "lat": 41.4088,
      "lon": -75.6916,
      "proficiency": 0.05,
      "district": "SCRANTON SD",
      "city": "Scranton",
      "ncessch": "422109006791"
    },
    {
      "name": "VALLEY VIEW MS",
      "lat": 41.499132,
      "lon": -75.55746,
      "proficiency": 0.184,
      "district": "VALLEY VIEW SD",
      "city": "Archbald",
      "ncessch": "422465009969"
    },
    {
      "name": "COCALICO MS",
      "lat": 40.2288,
      "lon": -76.1485,
      "proficiency": 0.395,
      "district": "COCALICO SD",
      "city": "Denver",
      "ncessch": "420627006289"
    },
    {
      "name": "COLUMBIA MS HILL CAMPUS",
      "lat": 40.045752,
      "lon": -76.497435,
      "proficiency": 0.061,
      "district": "COLUMBIA BOROUGH SD",
      "city": "Columbia",
      "ncessch": "420636010023"
    },
    {
      "name": "GERALD G HUESKEN MS",
      "lat": 40.047272,
      "lon": -76.217842,
      "proficiency": 0.375,
      "district": "CONESTOGA VALLEY SD",
      "city": "Lancaster",
      "ncessch": "420648002531"
    },
    {
      "name": "DONEGAL JHS",
      "lat": 40.091989,
      "lon": -76.518137,
      "proficiency": 0.392,
      "district": "DONEGAL SD",
      "city": "Mount Joy",
      "ncessch": "420765007201"
    },
    {
      "name": "GARDEN SPOT MS",
      "lat": 40.111459,
      "lon": -76.06967,
      "proficiency": 0.323,
      "district": "EASTERN LANCASTER COUNTY SD",
      "city": "New Holland",
      "ncessch": "420882007267"
    },
    {
      "name": "ELIZABETHTOWN AREA MS",
      "lat": 40.155968,
      "lon": -76.594184,
      "proficiency": 0.357,
      "district": "ELIZABETHTOWN AREA SD",
      "city": "Elizabethtown",
      "ncessch": "420912006862"
    },
    {
      "name": "EPHRATA MS",
      "lat": 40.184634,
      "lon": -76.194283,
      "proficiency": 0.413,
      "district": "EPHRATA AREA SD",
      "city": "Ephrata",
      "ncessch": "420927006712"
    },
    {
      "name": "CENTERVILLE MS",
      "lat": 40.0647,
      "lon": -76.395,
      "proficiency": 0.452,
      "district": "HEMPFIELD SD",
      "city": "Lancaster",
      "ncessch": "421179005055"
    },
    {
      "name": "LANDISVILLE MS",
      "lat": 40.085586,
      "lon": -76.415436,
      "proficiency": 0.469,
      "district": "HEMPFIELD SD",
      "city": "Landisville",
      "ncessch": "421179000118"
    },
    {
      "name": "LA ACADEMIA PARTNERSHIP CHARTER SCHOOL",
      "lat": 40.039982,
      "lon": -76.295684,
      "proficiency": 0.0,
      "district": "LA ACADEMIA PARTNERSHIP CHARTER SCHOOL",
      "city": "Lancaster",
      "ncessch": "420002600359"
    },
    {
      "name": "MARTIN MEYLIN MS",
      "lat": 39.9937,
      "lon": -76.2344,
      "proficiency": 0.495,
      "district": "LAMPETER-STRASBURG SD",
      "city": "Lampeter",
      "ncessch": "421311006297"
    },
    {
      "name": "JACKSON MS",
      "lat": 40.03277,
      "lon": -76.293141,
      "proficiency": 0.071,
      "district": "LANCASTER SD",
      "city": "Lancaster",
      "ncessch": "421314002593"
    },
    {
      "name": "LINCOLN MS",
      "lat": 40.046872,
      "lon": -76.285296,
      "proficiency": 0.146,
      "district": "LANCASTER SD",
      "city": "Lancaster",
      "ncessch": "421314002595"
    },
    {
      "name": "MARTIN SCHOOL",
      "lat": 40.00841,
      "lon": -76.34021,
      "proficiency": 0.123,
      "district": "LANCASTER SD",
      "city": "Lancaster",
      "ncessch": "421314002599"
    },
    {
      "name": "REYNOLDS MS",
      "lat": 40.041969,
      "lon": -76.318751,
      "proficiency": 0.152,
      "district": "LANCASTER SD",
      "city": "Lancaster",
      "ncessch": "421314002594"
    },
    {
      "name": "WHEATLAND MS",
      "lat": 40.031894,
      "lon": -76.32751,
      "proficiency": 0.142,
      "district": "LANCASTER SD",
      "city": "Lancaster",
      "ncessch": "421314002600"
    },
    {
      "name": "MANHEIM CENTRAL MS",
      "lat": 40.175289,
      "lon": -76.386961,
      "proficiency": 0.367,
      "district": "MANHEIM CENTRAL SD",
      "city": "Manheim",
      "ncessch": "421455006076"
    },
    {
      "name": "MANHEIM TWP MS",
      "lat": 40.1047,
      "lon": -76.2997,
      "proficiency": 0.461,
      "district": "MANHEIM TOWNSHIP SD",
      "city": "Lancaster",
      "ncessch": "421458005114"
    },
    {
      "name": "MANOR MIDDLE SCHOOL",
      "lat": 40.0179,
      "lon": -76.3852,
      "proficiency": 0.445,
      "district": "PENN MANOR SD",
      "city": "Lancaster",
      "ncessch": "421863000119"
    },
    {
      "name": "MARTICVILLE MS",
      "lat": 39.9244,
      "lon": -76.3111,
      "proficiency": 0.506,
      "district": "PENN MANOR SD",
      "city": "Pequea",
      "ncessch": "421863005238"
    },
    {
      "name": "PEQUEA VALLEY INTRMD SCH",
      "lat": 40.0229,
      "lon": -76.0609,
      "proficiency": 0.284,
      "district": "PEQUEA VALLEY SD",
      "city": "Kinzers",
      "ncessch": "421890006300"
    },
    {
      "name": "SMITH MS",
      "lat": 39.8952,
      "lon": -76.1469,
      "proficiency": 0.158,
      "district": "SOLANCO SD",
      "city": "Quarryville",
      "ncessch": "422181002657"
    },
    {
      "name": "SWIFT MS",
      "lat": 39.8101,
      "lon": -76.1582,
      "proficiency": 0.113,
      "district": "SOLANCO SD",
      "city": "Quarryville",
      "ncessch": "422181005054"
    },
    {
      "name": "WARWICK MS",
      "lat": 40.15749,
      "lon": -76.319709,
      "proficiency": 0.341,
      "district": "WARWICK SD",
      "city": "Lititz",
      "ncessch": "422496005336"
    },
    {
      "name": "LINCOLN JSHS",
      "lat": 40.8566,
      "lon": -80.2869,
      "proficiency": 0.248,
      "district": "ELLWOOD CITY AREA SD",
      "city": "Ellwood City",
      "ncessch": "420924002675"
    },
    {
      "name": "LAUREL MS",
      "lat": 41.014431,
      "lon": -80.260131,
      "proficiency": 0.38,
      "district": "LAUREL SD",
      "city": "New Castle",
      "ncessch": "421338007639"
    },
    {
      "name": "MOHAWK JHS",
      "lat": 40.979632,
      "lon": -80.452825,
      "proficiency": 0.304,
      "district": "MOHAWK AREA SD",
      "city": "New Castle",
      "ncessch": "421554007605"
    },
    {
      "name": "NESHANNOCK JSHS",
      "lat": 41.0663,
      "lon": -80.3464,
      "proficiency": 0.253,
      "district": "NESHANNOCK TOWNSHIP SD",
      "city": "New Castle",
      "ncessch": "421644002689"
    },
    {
      "name": "NEW CASTLE JHS",
      "lat": 41.0048,
      "lon": -80.3404,
      "proficiency": 0.075,
      "district": "NEW CASTLE AREA SD",
      "city": "New Castle",
      "ncessch": "421662007480"
    },
    {
      "name": "SHENANGO HS",
      "lat": 40.9674,
      "lon": -80.3119,
      "proficiency": 0.443,
      "district": "SHENANGO AREA SD",
      "city": "New Castle",
      "ncessch": "422151002708"
    },
    {
      "name": "UNION AREA MS",
      "lat": 41.0004,
      "lon": -80.3845,
      "proficiency": 0.317,
      "district": "UNION AREA SD",
      "city": "New Castle",
      "ncessch": "422406007036"
    },
    {
      "name": "WILMINGTON AREA MS",
      "lat": 41.1247,
      "lon": -80.3374,
      "proficiency": 0.151,
      "district": "WILMINGTON AREA SD",
      "city": "New Wilmington",
      "ncessch": "422652000033"
    },
    {
      "name": "ANNVILLE-CLEONA MS",
      "lat": 40.3244,
      "lon": -76.5095,
      "proficiency": 0.301,
      "district": "ANNVILLE-CLEONA SD",
      "city": "Annville",
      "ncessch": "420249007417"
    },
    {
      "name": "CEDAR CREST MS",
      "lat": 40.3116,
      "lon": -76.4014,
      "proficiency": 0.368,
      "district": "CORNWALL-LEBANON SD",
      "city": "Lebanon",
      "ncessch": "420684006301"
    },
    {
      "name": "EASTERN LEBANON CO MS",
      "lat": 40.3407,
      "lon": -76.2891,
      "proficiency": 0.211,
      "district": "EASTERN LEBANON COUNTY SD",
      "city": "Myerstown",
      "ncessch": "420846006612"
    },
    {
      "name": "LEBANON INTERMEDIATE SCH",
      "lat": 40.3442,
      "lon": -76.4247,
      "proficiency": 0.12,
      "district": "LEBANON SD",
      "city": "Lebanon",
      "ncessch": "421344002754"
    },
    {
      "name": "NORTHERN LEBANON SHS",
      "lat": 40.435127,
      "lon": -76.448124,
      "proficiency": 0.288,
      "district": "NORTHERN LEBANON SD",
      "city": "Fredericksburg",
      "ncessch": "421764002760"
    },
    {
      "name": "PALMYRA AREA MS",
      "lat": 40.3051,
      "lon": -76.5957,
      "proficiency": 0.546,
      "district": "PALMYRA AREA SD",
      "city": "Palmyra",
      "ncessch": "421839002765"
    },
    {
      "name": "FRANCIS D RAUB MS",
      "lat": 40.5943,
      "lon": -75.4933,
      "proficiency": 0.015,
      "district": "ALLENTOWN CITY SD",
      "city": "Allentown",
      "ncessch": "420228002792"
    },
    {
      "name": "HARRISON-MORTON MS",
      "lat": 40.6081,
      "lon": -75.4605,
      "proficiency": 0.01,
      "district": "ALLENTOWN CITY SD",
      "city": "Allentown",
      "ncessch": "420228002791"
    },
    {
      "name": "SOUTH MOUNTAIN MS",
      "lat": 40.5759,
      "lon": -75.461,
      "proficiency": 0.032,
      "district": "ALLENTOWN CITY SD",
      "city": "Allentown",
      "ncessch": "420228002793"
    },
    {
      "name": "TREXLER MS",
      "lat": 40.6105,
      "lon": -75.4933,
      "proficiency": 0.026,
      "district": "ALLENTOWN CITY SD",
      "city": "Allentown",
      "ncessch": "420228004929"
    },
    {
      "name": "ARTS ACADEMY CS",
      "lat": 40.59,
      "lon": -75.4179,
      "proficiency": 0.012,
      "district": "ARTS ACADEMY CS",
      "city": "Allentown",
      "ncessch": "420086007470"
    },
    {
      "name": "CATASAUQUA MS",
      "lat": 40.6585,
      "lon": -75.4642,
      "proficiency": 0.186,
      "district": "CATASAUQUA AREA SD",
      "city": "Catasauqua",
      "ncessch": "420516002797"
    },
    {
      "name": "CIRCLE OF SEASONS CHARTER SCHOOL",
      "lat": 40.59643,
      "lon": -75.647911,
      "proficiency": 0.41,
      "district": "CIRCLE OF SEASONS CHARTER SCHOOL",
      "city": "Fogelsville",
      "ncessch": "420087507507"
    },
    {
      "name": "EYER MS",
      "lat": 40.5151,
      "lon": -75.5433,
      "proficiency": 0.385,
      "district": "EAST PENN SD",
      "city": "Macungie",
      "ncessch": "420855000377"
    },
    {
      "name": "LOWER MACUNGIE MS",
      "lat": 40.5501,
      "lon": -75.573,
      "proficiency": 0.308,
      "district": "EAST PENN SD",
      "city": "Macungie",
      "ncessch": "420855000376"
    },
    {
      "name": "EXECUTIVE EDUCATION ACADEMY CHARTER SCHOOL",
      "lat": 40.621734,
      "lon": -75.452861,
      "proficiency": 0.101,
      "district": "EXECUTIVE EDUCATION ACADEMY CHARTER SCHOOL",
      "city": "Allentown",
      "ncessch": "420087907523"
    },
    {
      "name": "INNOVATIVE ARTS ACADEMY CS",
      "lat": 40.653682,
      "lon": -75.469738,
      "proficiency": 0.0,
      "district": "INNOVATIVE ARTS ACADEMY CS",
      "city": "Catasauqua",
      "ncessch": "420089407594"
    },
    {
      "name": "LINCOLN LEADERSHIP ACADEMY CHARTER SCHOOL",
      "lat": 40.6227,
      "lon": -75.4343,
      "proficiency": 0.029,
      "district": "LINCOLN LEADERSHIP ACADEMY CHARTER SCHOOL",
      "city": "Allentown",
      "ncessch": "420081906955"
    },
    {
      "name": "NORTHERN LEHIGH MS",
      "lat": 40.760605,
      "lon": -75.610735,
      "proficiency": 0.223,
      "district": "NORTHERN LEHIGH SD",
      "city": "Slatington",
      "ncessch": "421767006829"
    },
    {
      "name": "NORTHWESTERN LEHIGH MS",
      "lat": 40.6849,
      "lon": -75.7237,
      "proficiency": 0.255,
      "district": "NORTHWESTERN LEHIGH SD",
      "city": "New Tripoli",
      "ncessch": "421785000035"
    },
    {
      "name": "OREFIELD MS",
      "lat": 40.6298,
      "lon": -75.5807,
      "proficiency": 0.338,
      "district": "PARKLAND SD",
      "city": "Orefield",
      "ncessch": "421851000478"
    },
    {
      "name": "SPRINGHOUSE MS",
      "lat": 40.6057,
      "lon": -75.549,
      "proficiency": 0.547,
      "district": "PARKLAND SD",
      "city": "Allentown",
      "ncessch": "421851000476"
    },
    {
      "name": "ROBERTO CLEMENTE CS",
      "lat": 40.601105,
      "lon": -75.464916,
      "proficiency": 0.05,
      "district": "ROBERTO CLEMENTE CS",
      "city": "Allentown",
      "ncessch": "420006807636"
    },
    {
      "name": "SALISBURY MS",
      "lat": 40.56,
      "lon": -75.503,
      "proficiency": 0.184,
      "district": "SALISBURY TOWNSHIP SD",
      "city": "Allentown",
      "ncessch": "422073005365"
    },
    {
      "name": "SOUTHERN LEHIGH MS",
      "lat": 40.5375,
      "lon": -75.4006,
      "proficiency": 0.483,
      "district": "SOUTHERN LEHIGH SD",
      "city": "Center Valley",
      "ncessch": "422235004808"
    },
    {
      "name": "WHITEHALL-COPLAY MS",
      "lat": 40.6464,
      "lon": -75.5017,
      "proficiency": 0.261,
      "district": "WHITEHALL-COPLAY SD",
      "city": "Whitehall",
      "ncessch": "422625005241"
    },
    {
      "name": "BEAR CREEK COMMUNITY CS",
      "lat": 41.187358,
      "lon": -75.777162,
      "proficiency": 0.265,
      "district": "BEAR CREEK COMMUNITY CS",
      "city": "Bear Creek Township",
      "ncessch": "420012600848"
    },
    {
      "name": "CRESTWOOD SECONDARY CAMPUS",
      "lat": 41.139712,
      "lon": -75.903415,
      "proficiency": 0.487,
      "district": "CRESTWOOD SD",
      "city": "Mountain Top",
      "ncessch": "420546007651"
    },
    {
      "name": "DALLAS MS",
      "lat": 41.3428,
      "lon": -75.9519,
      "proficiency": 0.263,
      "district": "DALLAS SD",
      "city": "Dallas",
      "ncessch": "420720005150"
    },
    {
      "name": "GREATER NANTICOKE AREA ED CTR",
      "lat": 41.203071,
      "lon": -75.990608,
      "proficiency": 0.138,
      "district": "GREATER NANTICOKE AREA SD",
      "city": "Nanticoke",
      "ncessch": "421629007649"
    },
    {
      "name": "HANOVER AREA JSHS",
      "lat": 41.2141,
      "lon": -75.9496,
      "proficiency": 0.151,
      "district": "HANOVER AREA SD",
      "city": "Hanover Township",
      "ncessch": "421142002891"
    },
    {
      "name": "DRUMS EL/MS",
      "lat": 41.0108,
      "lon": -76.0013,
      "proficiency": 0.218,
      "district": "HAZLETON AREA SD",
      "city": "Drums",
      "ncessch": "421170000547"
    },
    {
      "name": "FREELAND EL/MS",
      "lat": 41.0215,
      "lon": -75.8924,
      "proficiency": 0.123,
      "district": "HAZLETON AREA SD",
      "city": "Freeland",
      "ncessch": "421170006718"
    },
    {
      "name": "HAZLETON EL/MS",
      "lat": 40.9661,
      "lon": -75.9726,
      "proficiency": 0.034,
      "district": "HAZLETON AREA SD",
      "city": "Hazleton",
      "ncessch": "421170006115"
    },
    {
      "name": "HEIGHTS TERRACE EL/MS",
      "lat": 40.94527,
      "lon": -75.968819,
      "proficiency": 0.163,
      "district": "HAZLETON AREA SD",
      "city": "Hazleton",
      "ncessch": "421170006930"
    },
    {
      "name": "MAPLE MANOR EL/MS",
      "lat": 40.969583,
      "lon": -75.995705,
      "proficiency": 0.134,
      "district": "HAZLETON AREA SD",
      "city": "Hazle Township",
      "ncessch": "421170007527"
    },
    {
      "name": "MCADOO-KELAYRES EL/MS",
      "lat": 40.896,
      "lon": -75.9998,
      "proficiency": 0.033,
      "district": "HAZLETON AREA SD",
      "city": "McAdoo",
      "ncessch": "421170007456"
    },
    {
      "name": "VALLEY EL/MS",
      "lat": 40.9887,
      "lon": -76.0753,
      "proficiency": 0.357,
      "district": "HAZLETON AREA SD",
      "city": "Sugarloaf",
      "ncessch": "421170009996"
    },
    {
      "name": "WEST HAZLETON EL/MS",
      "lat": 40.9605,
      "lon": -76.0,
      "proficiency": 0.064,
      "district": "HAZLETON AREA SD",
      "city": "West Hazleton",
      "ncessch": "421170000370"
    },
    {
      "name": "LAKE-LEHMAN JSHS",
      "lat": 41.31045,
      "lon": -76.023943,
      "proficiency": 0.281,
      "district": "LAKE-LEHMAN SD",
      "city": "Lehman",
      "ncessch": "421302002924"
    },
    {
      "name": "NORTHWEST AREA HS",
      "lat": 41.183,
      "lon": -76.1894,
      "proficiency": 0.164,
      "district": "NORTHWEST AREA SD",
      "city": "Shickshinny",
      "ncessch": "421779002958"
    },
    {
      "name": "PITTSTON AREA MS",
      "lat": 41.33301,
      "lon": -75.778393,
      "proficiency": 0.176,
      "district": "PITTSTON AREA SD",
      "city": "Pittston",
      "ncessch": "421920006385"
    },
    {
      "name": "G A R MS",
      "lat": 41.234073,
      "lon": -75.882662,
      "proficiency": 0.059,
      "district": "WILKES-BARRE AREA SD",
      "city": "Wilkes-Barre",
      "ncessch": "422630003008"
    },
    {
      "name": "SOLOMON/PLAINS MS",
      "lat": 41.27181,
      "lon": -75.850045,
      "proficiency": 0.059,
      "district": "WILKES-BARRE AREA SD",
      "city": "Plains",
      "ncessch": "422630000296"
    },
    {
      "name": "WYOMING AREA SEC CTR",
      "lat": 41.322297,
      "lon": -75.810746,
      "proficiency": 0.174,
      "district": "WYOMING AREA SD",
      "city": "Exeter",
      "ncessch": "422673006390"
    },
    {
      "name": "WYOMING VALLEY WEST MS",
      "lat": 41.261551,
      "lon": -75.891257,
      "proficiency": 0.07,
      "district": "WYOMING VALLEY WEST SD",
      "city": "Kingston",
      "ncessch": "422595006986"
    },
    {
      "name": "HUGHESVILLE JSHS",
      "lat": 41.24,
      "lon": -76.7329,
      "proficiency": 0.482,
      "district": "EAST LYCOMING SD",
      "city": "Hughesville",
      "ncessch": "420849006364"
    },
    {
      "name": "JERSEY SHORE MS",
      "lat": 41.2004,
      "lon": -77.2634,
      "proficiency": 0.323,
      "district": "JERSEY SHORE AREA SD",
      "city": "Jersey Shore",
      "ncessch": "421248003033"
    },
    {
      "name": "LOYALSOCK TWP MS",
      "lat": 41.261014,
      "lon": -76.967363,
      "proficiency": 0.614,
      "district": "LOYALSOCK TOWNSHIP SD",
      "city": "Williamsport",
      "ncessch": "421431003037"
    },
    {
      "name": "MONTGOMERY JSHS",
      "lat": 41.175106,
      "lon": -76.873552,
      "proficiency": 0.364,
      "district": "MONTGOMERY AREA SD",
      "city": "Montgomery",
      "ncessch": "421566003040"
    },
    {
      "name": "C E MCCALL MS",
      "lat": 41.2555,
      "lon": -76.9055,
      "proficiency": 0.472,
      "district": "MONTOURSVILLE AREA SD",
      "city": "Montoursville",
      "ncessch": "421575005343"
    },
    {
      "name": "MUNCY JSHS",
      "lat": 41.2013,
      "lon": -76.7904,
      "proficiency": 0.463,
      "district": "MUNCY SD",
      "city": "Muncy",
      "ncessch": "421623003048"
    },
    {
      "name": "SOUTH WILLIAMSPORT AREA JSHS",
      "lat": 41.2261,
      "lon": -76.9965,
      "proficiency": 0.2,
      "district": "SOUTH WILLIAMSPORT AREA SD",
      "city": "South Williamsport",
      "ncessch": "422214003056"
    },
    {
      "name": "WILLIAMSPORT AREA MS",
      "lat": 41.2383,
      "lon": -77.0681,
      "proficiency": 0.268,
      "district": "WILLIAMSPORT AREA SD",
      "city": "Williamsport",
      "ncessch": "422646007508"
    },