{"state": "SC", "stateName": "South Carolina", "year": 2024, "naep": {"text": "3 out of 4", "numerator": 3, "denominator": 4}, "schools": [{"name": "Leavelle McCampbell Middle", "lat": 33.582733, "lon": -81.833564, "proficiency": 0.293, "district": "Aiken 01", "city": "Graniteville", "ncessch": "450072001196"}, {"name": "Williston-Elko Middle", "lat": 33.396543, "lon": -81.413656, "proficiency": 0.235, "district": "Barnwell 48", "city": "Williston", "ncessch": "450391401327"}, {"name": "River Ridge Academy", "lat": 32.271833, "lon": -80.942352, "proficiency": 0.467, "district": "Beaufort 01", "city": "Bluffton", "ncessch": "450111001662"}, {"name": "Riverview Charter School", "lat": 32.385971, "lon": -80.743241, "proficiency": 0.629, "district": "Beaufort 01", "city": "Beaufort", "ncessch": "450111001530"}, {"name": "St. Stephen Middle", "lat": 33.405489, "lon": -79.933883, "proficiency": 0.071, "district": "Berkeley 01", "city": "St. Stephen", "ncessch": "450117000172"}, {"name": "Macedonia Middle", "lat": 33.268704, "lon": -79.896654, "proficiency": 0.097, "district": "Berkeley 01", "city": "Moncks Corner", "ncessch": "450117001208"}, {"name": "Daniel Island School", "lat": 32.848706, "lon": -79.909936, "proficiency": 0.625, "district": "Berkeley 01", "city": "Charleston", "ncessch": "450117001472"}, {"name": "Carolyn Lewis School", "lat": 33.068039, "lon": -80.103686, "proficiency": 0.253, "district": "Berkeley 01", "city": "Summerville", "ncessch": "450117001776"}, {"name": "St. Matthews K-8 School", "lat": 33.664915, "lon": -80.796008, "proficiency": 0.164, "district": "Calhoun 01", "city": "St. Matthews", "ncessch": "450125001532"}, {"name": "Military Magnet Academy", "lat": 32.850547, "lon": -79.967851, "proficiency": 0.278, "district": "Charleston 01", "city": "North Charleston", "ncessch": "450144001330"}, {"name": "Buist Academy", "lat": 32.787011, "lon": -79.932423, "proficiency": 0.808, "district": "Charleston 01", "city": "Charleston", "ncessch": "450144001382"}, {"name": "Meeting Street Elementary", "lat": 32.858642, "lon": -80.00527, "proficiency": 0.159, "district": "Charleston 01", "city": "North Charleston", "ncessch": "450144001648"}, {"name": "Orange Grove Charter School", "lat": 32.82121, "lon": -80.001201, "proficiency": 0.589, "district": "Charleston 01", "city": "Charleston", "ncessch": "450144001457"}, {"name": "Scott's Branch Middle", "lat": 33.61627, "lon": -80.322047, "proficiency": 0.075, "district": "Clarendon 06", "city": "Summerton", "ncessch": "450391500188"}, {"name": "Rosemary Middle", "lat": 33.456055, "lon": -79.571603, "proficiency": 0.147, "district": "Georgetown 01", "city": "Andrews", "ncessch": "450228000478"}, {"name": "Beck International Academy", "lat": 34.837857, "lon": -82.322037, "proficiency": 0.31, "district": "Greenville 01", "city": "Greenville", "ncessch": "450231001240"}, {"name": "League Academy", "lat": 34.880851, "lon": -82.372793, "proficiency": 0.524, "district": "Greenville 01", "city": "Greenville", "ncessch": "450231001249"}, {"name": "Sterling School", "lat": 34.83527, "lon": -82.37023, "proficiency": 1.0, "district": "Greenville 01", "city": "Greenville", "ncessch": "450231001466"}, {"name": "Ralph Chandler Middle", "lat": 34.638851, "lon": -82.300391, "proficiency": 0.44, "district": "Greenville 01", "city": "Simpsonville", "ncessch": "450231001524"}, {"name": "White Knoll Middle", "lat": 33.945105, "lon": -81.190311, "proficiency": 0.177, "district": "Lexington 01", "city": "West Columbia", "ncessch": "450270000015"}, {"name": "Pine Ridge Middle", "lat": 33.912373, "lon": -81.105911, "proficiency": 0.254, "district": "Lexington 02", "city": "West Columbia", "ncessch": "450273001272"}, {"name": "Creek Bridge STEM Academy", "lat": 34.039502, "lon": -79.333387, "proficiency": 0.242, "district": "Marion 10", "city": "Marion", "ncessch": "450390801725"}, {"name": "Dacusville Middle", "lat": 34.91508, "lon": -82.539396, "proficiency": 0.534, "district": "Pickens 01", "city": "Easley", "ncessch": "450333000896"}, {"name": "Richard H. Gettys Middle", "lat": 34.824781, "lon": -82.602454, "proficiency": 0.357, "district": "Pickens 01", "city": "Easley", "ncessch": "450333000898"}, {"name": "E. L. Wright Middle", "lat": 34.082976, "lon": -80.925102, "proficiency": 0.235, "district": "Richland 02", "city": "Columbia", "ncessch": "450339000973"}, {"name": "Clifdale Middle", "lat": 34.977843, "lon": -81.836591, "proficiency": 0.403, "district": "Spartanburg 03", "city": "Spartanburg", "ncessch": "450354001767"}, {"name": "Palmetto Scholars Academy", "lat": 32.89938, "lon": -80.077453, "proficiency": 0.231, "district": "SC Public Charter School District", "city": "North Charleston", "ncessch": "450390101542"}, {"name": "York Preparatory Academy", "lat": 34.937177, "lon": -81.11494, "proficiency": 0.283, "district": "SC Public Charter School District", "city": "Rock Hill", "ncessch": "450390101544"}, {"name": "East Point Academy", "lat": 33.999813, "lon": -81.106595, "proficiency": 0.447, "district": "SC Public Charter School District", "city": "West Columbia", "ncessch": "450390101582"}, {"name": "Youth Leadership Academy", "lat": 34.882218, "lon": -82.761319, "proficiency": 0.456, "district": "SC Public Charter School District", "city": "Pickens", "ncessch": "450390101589"}, {"name": "Bridges Preparatory School", "lat": 32.439162, "lon": -80.674407, "proficiency": 0.35, "district": "SC Public Charter School District", "city": "Beaufort", "ncessch": "450390101617"}, {"name": "Riverwalk Academy", "lat": 35.008695, "lon": -81.103534, "proficiency": 0.213, "district": "SC Public Charter School District", "city": "Rock Hill", "ncessch": "450390101645"}, {"name": "High Point Academy", "lat": 34.98507, "lon": -82.022591, "proficiency": 0.39, "district": "SC Public Charter School District", "city": "Spartanburg", "ncessch": "450390101639"}, {"name": "Tall Pines STEM Academy", "lat": 33.678775, "lon": -81.614304, "proficiency": 0.396, "district": "SC Public Charter School District", "city": "Aiken", "ncessch": "450390101665"}, {"name": "Legacy Early College", "lat": 34.859118, "lon": -82.426385, "proficiency": 0.271, "district": "SC Public Charter School District", "city": "Greenville", "ncessch": "450390101685"}, {"name": "Carolus Online Academy", "lat": 33.444826, "lon": -81.716516, "proficiency": 0.02, "district": "SC Public Charter School District", "city": "Aiken", "ncessch": "450390101780"}, {"name": "Mevers School of Excellence", "lat": 33.014245, "lon": -80.000393, "proficiency": 0.23, "district": "Charter Institute at Erskine", "city": "Goose Creek", "ncessch": "450390901686"}, {"name": "Gray Collegiate Academy", "lat": 34.00508, "lon": -81.141104, "proficiency": 0.566, "district": "Charter Institute at Erskine", "city": "West Columbia", "ncessch": "450390901650"}, {"name": "Calhoun Falls Charter School", "lat": 34.099922, "lon": -82.59658, "proficiency": 0.28, "district": "Charter Institute at Erskine", "city": "Calhoun Falls", "ncessch": "450390901510"}, {"name": "Clear Dot Charter School", "lat": 34.013509, "lon": -81.035822, "proficiency": 0.029, "district": "Charter Institute at Erskine", "city": "Columbia", "ncessch": "450390901717"}, {"name": "Thornwell Charter School", "lat": 34.46602, "lon": -81.881945, "proficiency": 0.297, "district": "Charter Institute at Erskine", "city": "Clinton", "ncessch": "450390901716"}, {"name": "Cedar Springs Academy", "lat": 34.911561, "lon": -81.882361, "proficiency": 0.333, "district": "Deaf & Blind School", "city": "Spartanburg", "ncessch": "450000401402"}], "districts": [{"name": "Aiken 01", "lat": 33.582733, "lon": -81.833564, "proficiency": 0.293, "schoolCount": 1}, {"name": "Barnwell 48", "lat": 33.396543, "lon": -81.413656, "proficiency": 0.235, "schoolCount": 1}, {"name": "Beaufort 01", "lat": 32.328902, "lon": -80.84279649999999, "proficiency": 0.548, "schoolCount": 2}, {"name": "Berkeley 01", "lat": 33.1477345, "lon": -79.96103975, "proficiency": 0.2615, "schoolCount": 4}, {"name": "Calhoun 01", "lat": 33.664915, "lon": -80.796008, "proficiency": 0.164, "schoolCount": 1}, {"name": "Charleston 01", "lat": 32.8293525, "lon": -79.97668625, "proficiency": 0.4585, "schoolCount": 4}, {"name": "Clarendon 06", "lat": 33.61627, "lon": -80.322047, "proficiency": 0.075, "schoolCount": 1}, {"name": "Georgetown 01", "lat": 33.456055, "lon": -79.571603, "proficiency": 0.147, "schoolCount": 1}, {"name": "Greenville 01", "lat": 34.798207250000004, "lon": -82.34136275, "proficiency": 0.5685, "schoolCount": 4}, {"name": "Lexington 01", "lat": 33.945105, "lon": -81.190311, "proficiency": 0.177, "schoolCount": 1}, {"name": "Lexington 02", "lat": 33.912373, "lon": -81.105911, "proficiency": 0.254, "schoolCount": 1}, {"name": "Marion 10", "lat": 34.039502, "lon": -79.333387, "proficiency": 0.242, "schoolCount": 1}, {"name": "Pickens 01", "lat": 34.8699305, "lon": -82.57092499999999, "proficiency": 0.4455, "schoolCount": 2}, {"name": "Richland 02", "lat": 34.082976, "lon": -80.925102, "proficiency": 0.235, "schoolCount": 1}, {"name": "Spartanburg 03", "lat": 34.977843, "lon": -81.836591, "proficiency": 0.403, "schoolCount": 1}, {"name": "SC Public Charter School District", "lat": 34.1134234, "lon": -81.4618044, "proficiency": 0.3057, "schoolCount": 10}, {"name": "Charter Institute at Erskine", "lat": 33.9197552, "lon": -81.3311688, "proficiency": 0.2804, "schoolCount": 5}, {"name": "Deaf & Blind School", "lat": 34.911561, "lon": -81.882361, "proficiency": 0.333, "schoolCount": 1}], "cities": [{"name": "Graniteville", "lat": 33.582733, "lon": -81.833564, "proficiency": 0.293, "schoolCount": 1}, {"name": "Williston", "lat": 33.396543, "lon": -81.413656, "proficiency": 0.235, "schoolCount": 1}, {"name": "Bluffton", "lat": 32.271833, "lon": -80.942352, "proficiency": 0.467, "schoolCount": 1}, {"name": "Beaufort", "lat": 32.4125665, "lon": -80.70882399999999, "proficiency": 0.4895, "schoolCount": 2}, {"name": "St. Stephen", "lat": 33.405489, "lon": -79.933883, "proficiency": 0.071, "schoolCount": 1}, {"name": "Moncks Corner", "lat": 33.268704, "lon": -79.896654, "proficiency": 0.097, "schoolCount": 1}, {"name": "Charleston", "lat": 32.81897566666667, "lon": -79.94785333333333, "proficiency": 0.674, "schoolCount": 3}, {"name": "Summerville", "lat": 33.068039, "lon": -80.103686, "proficiency": 0.253, "schoolCount": 1}, {"name": "St. Matthews", "lat": 33.664915, "lon": -80.796008, "proficiency": 0.164, "schoolCount": 1}, {"name": "North Charleston", "lat": 32.869523, "lon": -80.016858, "proficiency": 0.2227, "schoolCount": 3}, {"name": "Summerton", "lat": 33.61627, "lon": -80.322047, "proficiency": 0.075, "schoolCount": 1}, {"name": "Andrews", "lat": 33.456055, "lon": -79.571603, "proficiency": 0.147, "schoolCount": 1}, {"name": "Greenville", "lat": 34.853274, "lon": -82.37286125, "proficiency": 0.5262, "schoolCount": 4}, {"name": "Simpsonville", "lat": 34.638851, "lon": -82.300391, "proficiency": 0.44, "schoolCount": 1}, {"name": "West Columbia", "lat": 33.96559275, "lon": -81.13598025, "proficiency": 0.361, "schoolCount": 4}, {"name": "Marion", "lat": 34.039502, "lon": -79.333387, "proficiency": 0.242, "schoolCount": 1}, {"name": "Easley", "lat": 34.8699305, "lon": -82.57092499999999, "proficiency": 0.4455, "schoolCount": 2}, {"name": "Columbia", "lat": 34.0482425, "lon": -80.98046199999999, "proficiency": 0.132, "schoolCount": 2}, {"name": "Spartanburg", "lat": 34.958158, "lon": -81.91384766666667, "proficiency": 0.3753, "schoolCount": 3}, {"name": "Rock Hill", "lat": 34.972936000000004, "lon": -81.10923700000001, "proficiency": 0.248, "schoolCount": 2}, {"name": "Pickens", "lat": 34.882218, "lon": -82.761319, "proficiency": 0.456, "schoolCount": 1}, {"name": "Aiken", "lat": 33.561800500000004, "lon": -81.66541000000001, "proficiency": 0.208, "schoolCount": 2}, {"name": "Goose Creek", "lat": 33.014245, "lon": -80.000393, "proficiency": 0.23, "schoolCount": 1}, {"name": "Calhoun Falls", "lat": 34.099922, "lon": -82.59658, "proficiency": 0.28, "schoolCount": 1}, {"name": "Clinton", "lat": 34.46602, "lon": -81.881945, "proficiency": 0.297, "schoolCount": 1}]}