{"state": "SD", "stateName": "South Dakota", "year": 2020, "naep": {"text": "7 out of 10", "numerator": 7, "denominator": 10}, "schools": [{"name": "Milbank Middle School - 02", "lat": 45.216995, "lon": -96.62301, "proficiency": 0.57, "district": "Milbank School District 25-4", "city": "Milbank", "ncessch": "460000200425"}, {"name": "Wilmot Middle School - 03", "lat": 45.405995, "lon": -96.85599, "proficiency": 0.3, "district": "Wilmot School District 54-7", "city": "Wilmot", "ncessch": "460000300872"}, {"name": "Howard Jr. High - 05", "lat": 44.016803, "lon": -97.529603, "proficiency": 0.695, "district": "Howard School District 48-3", "city": "Howard", "ncessch": "460002500913"}, {"name": "Alcester-Hudson Jr. High - 03", "lat": 43.024723, "lon": -96.623751, "proficiency": 0.1, "district": "Alcester-Hudson School District 61-1", "city": "Alcester", "ncessch": "460002800874"}, {"name": "Clear Lake Middle School - 04", "lat": 44.75426, "lon": -96.684705, "proficiency": 0.345, "district": "Deuel School District 19-4", "city": "Clear Lake", "ncessch": "460003601013"}, {"name": "Britton-Hecla Middle School - 03", "lat": 45.794106, "lon": -97.751889, "proficiency": 0.1, "district": "Britton-Hecla School District 45-4", "city": "Britton", "ncessch": "460004101142"}, {"name": "Sully Buttes Middle School - 06", "lat": 44.703315, "lon": -100.063714, "proficiency": 0.1, "district": "Agar-Blunt-Onida School District 58-3", "city": "Onida", "ncessch": "460004200939"}, {"name": "Groton Area Middle School - 04", "lat": 45.45032, "lon": -98.100933, "proficiency": 0.545, "district": "Groton Area School District 06-6", "city": "Groton", "ncessch": "460004501157"}, {"name": "Hitchcock-Tulare Jr. High School - 02", "lat": 44.737956, "lon": -98.510109, "proficiency": 0.245, "district": "Hitchcock Tulare School District 56-6", "city": "Tulare", "ncessch": "460004601164"}, {"name": "Tea Area Middle School - 02", "lat": 43.452997, "lon": -96.842624, "proficiency": 0.37, "district": "Tea Area School District 41-5", "city": "Tea", "ncessch": "460005200853"}, {"name": "Sisseton Middle School - 02", "lat": 45.66475, "lon": -97.062591, "proficiency": 0.22, "district": "Sisseton School District 54-2", "city": "Sisseton", "ncessch": "460005301258"}, {"name": "McCook Central Middle School - 03", "lat": 43.728033, "lon": -97.385766, "proficiency": 0.695, "district": "McCook Central School District 43-7", "city": "Salem", "ncessch": "460102601034"}, {"name": "Oldham-Ramona Jr. High - 03", "lat": 44.120914, "lon": -97.219382, "proficiency": 0.245, "district": "Oldham - Ramona School District 39-5", "city": "Ramona", "ncessch": "460102701035"}, {"name": "Selby Middle School - 03", "lat": 45.50881, "lon": -100.031608, "proficiency": 0.245, "district": "Selby Area School District 62-5", "city": "Selby", "ncessch": "460102801036"}, {"name": "Holgate Middle School - 02", "lat": 45.487016, "lon": -98.472625, "proficiency": 0.47, "district": "Aberdeen School District 06-1", "city": "Aberdeen", "ncessch": "460207000005"}, {"name": "Simmons Middle School - 03", "lat": 45.45153, "lon": -98.493518, "proficiency": 0.42, "district": "Aberdeen School District 06-1", "city": "Aberdeen", "ncessch": "460207000011"}, {"name": "Hanson Middle School - 02", "lat": 43.656236, "lon": -97.785392, "proficiency": 0.495, "district": "Hanson School District 30-1", "city": "Alexandria", "ncessch": "460264000018"}, {"name": "Arlington Jr. High - 03", "lat": 44.362137, "lon": -97.137316, "proficiency": 0.695, "district": "Arlington School District 38-1", "city": "Arlington", "ncessch": "460372000877"}, {"name": "Armour Middle School - 03", "lat": 43.320222, "lon": -98.348374, "proficiency": 0.75, "district": "Armour School District 21-1", "city": "Armour", "ncessch": "460378000878"}, {"name": "Sanborn Central Middle School - 02", "lat": 44.02104, "lon": -98.114994, "proficiency": 0.75, "district": "Sanborn Central School District 55-5", "city": "Forestburg", "ncessch": "460393200102"}, {"name": "Avon Middle School - 05", "lat": 43.005691, "lon": -98.056777, "proficiency": 0.495, "district": "Avon School District 04-1", "city": "Avon", "ncessch": "460427000829"}, {"name": "Baltic Middle School - 03", "lat": 43.759147, "lon": -96.734134, "proficiency": 0.545, "district": "Baltic School District 49-1", "city": "Baltic", "ncessch": "460468000986"}, {"name": "Belle Fourche Middle School - 07", "lat": 44.64751, "lon": -103.841261, "proficiency": 0.32, "district": "Belle Fourche School District 09-1", "city": "Belle Fourche", "ncessch": "460561001117"}, {"name": "Bennett County Middle School - 06", "lat": 43.174785, "lon": -101.73085, "proficiency": 0.1, "district": "Bennett County School District 03-1", "city": "Martin", "ncessch": "460624001015"}, {"name": "Beresford Middle School - 03", "lat": 43.075834, "lon": -96.776407, "proficiency": 0.32, "district": "Beresford School District 61-2", "city": "Beresford", "ncessch": "460636000051"}, {"name": "Bison Jr. High - 04", "lat": 45.52403, "lon": -102.464051, "proficiency": 0.1, "district": "Bison School District 52-1", "city": "Bison", "ncessch": "460705000879"}, {"name": "Hutterische Colony Elementary - 18", "lat": 42.863233, "lon": -97.706499, "proficiency": 0.75, "district": "Bon Homme School District 04-2", "city": "Tabor", "ncessch": "460740000060"}, {"name": "Bon Homme Middle School - 02", "lat": 42.989737, "lon": -97.869392, "proficiency": 0.445, "district": "Bon Homme School District 04-2", "city": "Tyndall", "ncessch": "460740000987"}, {"name": "Bowdle Jr. High - 03", "lat": 45.450304, "lon": -99.651101, "proficiency": 0.245, "district": "Bowdle School District 22-1", "city": "Bowdle", "ncessch": "460780000883"}, {"name": "Brandon Valley Middle School - 02", "lat": 43.59602, "lon": -96.579988, "proficiency": 0.59, "district": "Brandon Valley School District 49-2", "city": "Brandon", "ncessch": "460795000072"}, {"name": "George S. Mickelson Middle School - 02", "lat": 44.293289, "lon": -96.775567, "proficiency": 0.47, "district": "Brookings School District 05-1", "city": "Brookings", "ncessch": "460852000083"}, {"name": "Harding County Middle School - 03", "lat": 45.589932, "lon": -103.55105, "proficiency": 0.495, "district": "Harding County School District 31-1", "city": "Buffalo", "ncessch": "460930000887"}, {"name": "Burke Middle School - 04", "lat": 43.180911, "lon": -99.290415, "proficiency": 0.495, "district": "Burke School District 26-2", "city": "Burke", "ncessch": "460951201043"}, {"name": "Canistota Middle School - 03", "lat": 43.597424, "lon": -97.295112, "proficiency": 0.695, "district": "Canistota School District 43-1", "city": "Canistota", "ncessch": "461032001016"}, {"name": "Canton Middle School - 04", "lat": 43.30735, "lon": -96.591366, "proficiency": 0.42, "district": "Canton School District 41-1", "city": "Canton", "ncessch": "461056000831"}, {"name": "Castlewood Middle School - 03", "lat": 44.725484, "lon": -97.028401, "proficiency": 0.3, "district": "Castlewood School District 28-1", "city": "Castlewood", "ncessch": "461128000954"}, {"name": "Centerville Middle School - 03", "lat": 43.118713, "lon": -96.958277, "proficiency": 0.495, "district": "Centerville School District 60-1", "city": "Centerville", "ncessch": "461176001023"}, {"name": "Chamberlain Jr. High - 02", "lat": 43.789587, "lon": -99.326469, "proficiency": 0.32, "district": "Chamberlain School District 07-1", "city": "Chamberlain", "ncessch": "461200000889"}, {"name": "Chester Middle School - 03", "lat": 43.900151, "lon": -96.930127, "proficiency": 0.495, "district": "Chester Area School District 39-1", "city": "Chester", "ncessch": "461230000832"}, {"name": "Clark Middle School - 03", "lat": 44.879934, "lon": -97.742646, "proficiency": 0.3, "district": "Clark School District 12-2", "city": "Clark", "ncessch": "461294000890"}, {"name": "Colman-Egan Jr. High - 02", "lat": 43.980977, "lon": -96.810075, "proficiency": 0.495, "district": "Colman-Egan School District 50-5", "city": "Colman", "ncessch": "461410000092"}, {"name": "Colome Middle School - 03", "lat": 43.261893, "lon": -99.719295, "proficiency": 0.245, "district": "Colome Consolidated 59-3", "city": "Colome", "ncessch": "461413000893"}, {"name": "Hermosa Elementary - 04", "lat": 43.839355, "lon": -103.195328, "proficiency": 0.3, "district": "Custer School District 16-1", "city": "Hermosa", "ncessch": "461695000159"}, {"name": "Custer Jr. High - 05", "lat": 43.765367, "lon": -103.581286, "proficiency": 0.445, "district": "Custer School District 16-1", "city": "Custer", "ncessch": "461695000992"}, {"name": "De Smet Middle School - 03", "lat": 44.385118, "lon": -97.5556, "proficiency": 0.245, "district": "De Smet School District 38-2", "city": "De Smet", "ncessch": "461785000993"}, {"name": "Dell Rapids Middle School - 03", "lat": 43.832184, "lon": -96.704685, "proficiency": 0.62, "district": "Dell Rapids School District 49-3", "city": "Dell Rapids", "ncessch": "461812000837"}, {"name": "Doland Jr. High - 02", "lat": 44.897328, "lon": -98.102575, "proficiency": 0.75, "district": "Doland School District 56-2", "city": "Doland", "ncessch": "461917000895"}, {"name": "Douglas Middle School - 01", "lat": 44.139176, "lon": -103.062108, "proficiency": 0.37, "district": "Douglas School District 51-1", "city": "Box Elder", "ncessch": "461941000176"}, {"name": "Dupree Jr. High - 04", "lat": 45.047032, "lon": -101.599471, "proficiency": 0.15, "district": "Dupree School District 64-2", "city": "Dupree", "ncessch": "461945000896"}, {"name": "Jones County Middle School - 04", "lat": 43.887792, "lon": -100.707126, "proficiency": 0.75, "district": "Jones County School District 37-3", "city": "Murdo", "ncessch": "461958000955"}, {"name": "Edgemont Elementary - 03", "lat": 43.300901, "lon": -103.834085, "proficiency": 0.3, "district": "Edgemont School District 23-1", "city": "Edgemont", "ncessch": "462085000181"}, {"name": "Elk Point-Jefferson Middle School - 03", "lat": 42.682798, "lon": -96.688482, "proficiency": 0.645, "district": "Elk Point-Jefferson School District 61-7", "city": "Elk Point", "ncessch": "462134000900"}, {"name": "Elkton Jr. High - 03", "lat": 44.231352, "lon": -96.482225, "proficiency": 0.345, "district": "Elkton School District 05-3", "city": "Elkton", "ncessch": "462139000901"}, {"name": "Frederick Jr. High - 03", "lat": 45.832851, "lon": -98.503847, "proficiency": 0.75, "district": "Frederick Area School District 06-2", "city": "Frederick", "ncessch": "462140000957"}, {"name": "Bridgewater-Emery Middle School - 04", "lat": 43.602854, "lon": -97.617811, "proficiency": 0.495, "district": "Bridgewater-Emery 30-3", "city": "Emery", "ncessch": "462142000902"}, {"name": "Estelline Middle School - 03", "lat": 44.576515, "lon": -96.897036, "proficiency": 0.3, "district": "Estelline School District 28-2", "city": "Estelline", "ncessch": "462241001045"}, {"name": "Ethan Jr. High - 03", "lat": 43.544441, "lon": -97.984388, "proficiency": 0.495, "district": "Ethan School District 17-1", "city": "Ethan", "ncessch": "462250000903"}, {"name": "Eureka Jr. High - 03", "lat": 45.768816, "lon": -99.622961, "proficiency": 0.245, "district": "Eureka School District 44-1", "city": "Eureka", "ncessch": "462256000958"}, {"name": "Faith Jr. High - 06", "lat": 45.018588, "lon": -102.040576, "proficiency": 0.3, "district": "Faith School District 46-2", "city": "Faith", "ncessch": "462294000995"}, {"name": "Faulkton Middle School - 08", "lat": 45.034313, "lon": -99.129841, "proficiency": 0.495, "district": "Faulkton Area Schools 24-4", "city": "Faulkton", "ncessch": "462403000204"}, {"name": "Thunderbird Colony Elementary - 10", "lat": 45.18949, "lon": -99.267765, "proficiency": 0.75, "district": "Faulkton Area Schools 24-4", "city": "Faulkton", "ncessch": "462403001160"}, {"name": "Flandreau Middle School - 03", "lat": 44.051558, "lon": -96.60508, "proficiency": 0.345, "district": "Flandreau School District 50-3", "city": "Flandreau", "ncessch": "462439000205"}, {"name": "Florence Middle School - 03", "lat": 45.054112, "lon": -97.330052, "proficiency": 0.3, "district": "Florence School District 14-1", "city": "Florence", "ncessch": "462454000589"}, {"name": "Stanley County Middle School - 02", "lat": 44.354279, "lon": -100.372626, "proficiency": 0.245, "district": "Stanley County School District 57-1", "city": "Fort Pierre", "ncessch": "462485000841"}, {"name": "Freeman Jr High - 05", "lat": 43.345177, "lon": -97.430202, "proficiency": 0.495, "district": "Freeman School District 33-1", "city": "Freeman", "ncessch": "462550000842"}, {"name": "Garretson Middle School - 03", "lat": 43.714147, "lon": -96.503909, "proficiency": 0.345, "district": "Garretson School District 49-4", "city": "Garretson", "ncessch": "462637000843"}, {"name": "Gayville-Volin Middle School - 03", "lat": 42.893295, "lon": -97.173142, "proficiency": 0.245, "district": "Gayville-Volin School District 63-1", "city": "Gayville", "ncessch": "462649000844"}, {"name": "Gettysburg Middle School - 03", "lat": 45.007315, "lon": -99.955031, "proficiency": 0.9, "district": "Gettysburg School District 53-1", "city": "Gettysburg", "ncessch": "462697000959"}, {"name": "Gregory Junior High - 04", "lat": 43.231598, "lon": -99.422637, "proficiency": 0.3, "district": "Gregory School District 26-4", "city": "Gregory", "ncessch": "462988001296"}, {"name": "Philip Jr. High - 03", "lat": 44.043135, "lon": -101.668673, "proficiency": 0.3, "district": "Haakon School District 27-1", "city": "Philip", "ncessch": "463049000247"}, {"name": "Hamlin Middle School - 02", "lat": 44.657038, "lon": -97.291774, "proficiency": 0.545, "district": "Hamlin School District 28-3", "city": "Hayti", "ncessch": "463080000259"}, {"name": "Harrisburg South Middle School - 03", "lat": 43.426605, "lon": -96.704943, "proficiency": 0.42, "district": "Harrisburg School District 41-2", "city": "Harrisburg", "ncessch": "463135000847"}, {"name": "Harrisburg North Middle School - 08", "lat": 43.466384, "lon": -96.749394, "proficiency": 0.57, "district": "Harrisburg School District 41-2", "city": "Sioux Falls", "ncessch": "463135001334"}, {"name": "West Central Middle School - 04", "lat": 43.622999, "lon": -96.935801, "proficiency": 0.27, "district": "West Central School District 49-7", "city": "Hartford", "ncessch": "463171000909"}, {"name": "Henry Middle School - 03", "lat": 44.881651, "lon": -97.460692, "proficiency": 0.1, "district": "Henry School District 14-2", "city": "Henry", "ncessch": "463234001047"}, {"name": "Herreid Middle School - 03", "lat": 45.836205, "lon": -100.069676, "proficiency": 0.245, "district": "Herreid School District 10-1", "city": "Herreid", "ncessch": "463243000910"}, {"name": "Hill City Middle School - 04", "lat": 43.929806, "lon": -103.575104, "proficiency": 0.545, "district": "Hill City School District 51-2", "city": "Hill City", "ncessch": "463336000848"}, {"name": "Edmunds Central Middle School - 02", "lat": 45.452925, "lon": -99.337738, "proficiency": 0.245, "district": "Edmunds Central School District 22-5", "city": "Roscoe", "ncessch": "463444000032"}, {"name": "Hot Springs Middle School - 06", "lat": 43.430912, "lon": -103.481501, "proficiency": 0.245, "district": "Hot Springs School District 23-2", "city": "Hot Springs", "ncessch": "463448000911"}, {"name": "Hoven Jr. High - 03", "lat": 45.239983, "lon": -99.778484, "proficiency": 0.245, "district": "Hoven School District 53-2", "city": "Hoven", "ncessch": "463460000912"}, {"name": "Huron Middle School - 02", "lat": 44.346897, "lon": -98.232647, "proficiency": 0.37, "district": "Huron School District 02-2", "city": "Huron", "ncessch": "463548000314"}, {"name": "Ipswich Middle School - 04", "lat": 45.445934, "lon": -99.031383, "proficiency": 0.3, "district": "Ipswich Public School District 22-6", "city": "Ipswich", "ncessch": "463606000914"}, {"name": "Iroquois Middle School - 02", "lat": 44.366703, "lon": -97.852591, "proficiency": 0.245, "district": "Iroquois School District 02-3", "city": "Iroquois", "ncessch": "463615000916"}, {"name": "Dakota Valley Middle School - 03", "lat": 42.549133, "lon": -96.525572, "proficiency": 0.37, "district": "Dakota Valley School District 61-8", "city": "North Sioux City", "ncessch": "463699000809"}, {"name": "Kimball Middle School - 04", "lat": 43.745663, "lon": -98.954892, "proficiency": 0.495, "district": "Kimball School District 07-2", "city": "Kimball", "ncessch": "463822000142"}, {"name": "Andes Central Middle School - 04", "lat": 43.157716, "lon": -98.530378, "proficiency": 0.1, "district": "Andes Central School District 11-1", "city": "Lake Andes", "ncessch": "463954000850"}, {"name": "Madison Middle School - 02", "lat": 44.015995, "lon": -97.10339, "proficiency": 0.47, "district": "Madison Central School District 39-2", "city": "Madison", "ncessch": "463960000364"}, {"name": "Lake Preston Middle School - 03", "lat": 44.36144, "lon": -97.373174, "proficiency": 0.245, "district": "Lake Preston School District 38-3", "city": "Lake Preston", "ncessch": "463999000918"}, {"name": "Langford Area Middle School - 03", "lat": 45.604356, "lon": -97.833005, "proficiency": 0.75, "district": "Langford Area 45-5", "city": "Langford", "ncessch": "464086000851"}, {"name": "Lead-Deadwood Middle School - 02", "lat": 44.348023, "lon": -103.775365, "proficiency": 0.345, "district": "Lead-Deadwood School District 40-1", "city": "Lead", "ncessch": "464130000373"}, {"name": "Lemmon Jr. High - 06", "lat": 45.936634, "lon": -102.165599, "proficiency": 0.495, "district": "Lemmon School District 52-4", "city": "Lemmon", "ncessch": "464152000852"}, {"name": "Lennox Jr. High - 08", "lat": 43.34277, "lon": -96.893412, "proficiency": 0.52, "district": "Lennox School District 41-4", "city": "Lennox", "ncessch": "464155000963"}, {"name": "Leola Jr. High - 03", "lat": 45.720476, "lon": -98.937247, "proficiency": 0.245, "district": "Leola School District 44-2", "city": "Leola", "ncessch": "464164000919"}, {"name": "Lyman Middle School - 02", "lat": 43.909708, "lon": -100.063395, "proficiency": 0.1, "district": "Lyman School District 42-1", "city": "Presho", "ncessch": "464477000812"}, {"name": "Tri-Valley Intermediate School - 03", "lat": 43.733012, "lon": -96.92118, "proficiency": 0.32, "district": "Tri-Valley School District 49-6", "city": "Colton", "ncessch": "464494000406"}, {"name": "Marion Middle School - 03", "lat": 43.421716, "lon": -97.2586, "proficiency": 0.75, "district": "Marion School District 60-3", "city": "Marion", "ncessch": "464545001050"}, {"name": "McIntosh Middle School - 03", "lat": 45.923696, "lon": -101.351315, "proficiency": 0.75, "district": "McIntosh School District 15-1", "city": "McIntosh", "ncessch": "464626000921"}, {"name": "McLaughlin Middle School - 03", "lat": 45.808922, "lon": -100.811522, "proficiency": 0.1, "district": "McLaughlin School District 15-2", "city": "McLaughlin", "ncessch": "464638000922"}, {"name": "Menno Middle School - 05", "lat": 43.236598, "lon": -97.577309, "proficiency": 0.695, "district": "Menno School District 33-2", "city": "Menno", "ncessch": "464710000965"}, {"name": "Miller Jr. High - 04", "lat": 44.519859, "lon": -98.979558, "proficiency": 0.245, "district": "Miller 29-4", "city": "Miller", "ncessch": "464794201051"}, {"name": "Mitchell Middle School - 02", "lat": 43.71821, "lon": -98.035488, "proficiency": 0.52, "district": "Mitchell School District 17-2", "city": "Mitchell", "ncessch": "464839000437"}, {"name": "Montrose Middle School - 03", "lat": 43.697971, "lon": -97.187797, "proficiency": 0.75, "district": "Montrose School District 43-2", "city": "Montrose", "ncessch": "464878000966"}, {"name": "Mount Vernon Middle School - 03", "lat": 43.715395, "lon": -98.261403, "proficiency": 0.695, "district": "Mount Vernon School District 17-3", "city": "Mount Vernon", "ncessch": "464965000967"}, {"name": "New Underwood Jr. High - 04", "lat": 44.094557, "lon": -102.832792, "proficiency": 0.3, "district": "New Underwood School District 51-3", "city": "New Underwood", "ncessch": "465067000456"}, {"name": "Newell Middle School - 04", "lat": 44.716312, "lon": -103.426471, "proficiency": 0.3, "district": "Newell School District 09-2", "city": "Newell", "ncessch": "465085000968"}, {"name": "Northwestern Middle School - 02", "lat": 45.156154, "lon": -98.500089, "proficiency": 0.3, "district": "Northwestern Area School District 56-7", "city": "Mellette", "ncessch": "465175000924"}, {"name": "Oelrichs Jr. High - 03", "lat": 43.180363, "lon": -103.233657, "proficiency": 0.245, "district": "Oelrichs School District 23-3", "city": "Oelrichs", "ncessch": "465277000608"}, {"name": "Parker Jr. High - 03", "lat": 43.397104, "lon": -97.139844, "proficiency": 0.3, "district": "Parker School District 60-4", "city": "Parker", "ncessch": "465427000925"}, {"name": "Parkston Middle School - 05", "lat": 43.393375, "lon": -97.975615, "proficiency": 0.345, "district": "Parkston School District 33-3", "city": "Parkston", "ncessch": "465430000926"}, {"name": "Georgia Morse Middle School - 02", "lat": 44.366982, "lon": -100.349033, "proficiency": 0.52, "district": "Pierre School District 32-2", "city": "Pierre", "ncessch": "465526000501"}, {"name": "Plankinton Jr. High - 03", "lat": 43.711107, "lon": -98.479266, "proficiency": 0.1, "district": "Plankinton School District 01-1", "city": "Plankinton", "ncessch": "465571000927"}, {"name": "Southwest Middle School - 38", "lat": 44.040347, "lon": -103.280365, "proficiency": 0.57, "district": "Rapid City Area School District 51-4", "city": "Rapid City", "ncessch": "465982000457"}, {"name": "East Middle School - 30", "lat": 44.078202, "lon": -103.139214, "proficiency": 0.22, "district": "Rapid City Area School District 51-4", "city": "Rapid City", "ncessch": "465982000528"}, {"name": "North Middle School - 35", "lat": 44.099711, "lon": -103.213338, "proficiency": 0.22, "district": "Rapid City Area School District 51-4", "city": "Rapid City", "ncessch": "465982000532"}, {"name": "South Middle School - 36", "lat": 44.06294, "lon": -103.216683, "proficiency": 0.22, "district": "Rapid City Area School District 51-4", "city": "Rapid City", "ncessch": "465982000533"}, {"name": "West Middle School - 37", "lat": 44.076113, "lon": -103.276286, "proficiency": 0.47, "district": "Rapid City Area School District 51-4", "city": "Rapid City", "ncessch": "465982000822"}, {"name": "Redfield Middle School - 02", "lat": 44.87765, "lon": -98.515841, "proficiency": 0.15, "district": "Redfield School District 56-4", "city": "Redfield", "ncessch": "466045000858"}, {"name": "Rosholt Middle School - 04", "lat": 45.864163, "lon": -96.737101, "proficiency": 0.1, "district": "Rosholt School District 54-4", "city": "Rosholt", "ncessch": "466336001053"}, {"name": "Rutland Jr. High - 03", "lat": 44.089895, "lon": -96.965317, "proficiency": 0.75, "district": "Rutland School District 39-4", "city": "Rutland", "ncessch": "466414000932"}, {"name": "Scotland Middle School - 05", "lat": 43.14783, "lon": -97.715576, "proficiency": 0.1, "district": "Scotland School District 04-3", "city": "Scotland", "ncessch": "466518000933"}, {"name": "Batesland School - 01", "lat": 43.126945, "lon": -102.099905, "proficiency": 0.245, "district": "Oglala Lakota County 65-1", "city": "Batesland", "ncessch": "466546000573"}, {"name": "Wolf Creek School - 02", "lat": 43.047583, "lon": -102.460294, "proficiency": 0.05, "district": "Oglala Lakota County 65-1", "city": "Pine Ridge", "ncessch": "466546000574"}, {"name": "Red Shirt School - 04", "lat": 43.665748, "lon": -102.896209, "proficiency": 0.245, "district": "Oglala Lakota County 65-1", "city": "Batesland", "ncessch": "466546000575"}, {"name": "Rockyford School - 03", "lat": 43.483251, "lon": -102.487613, "proficiency": 0.05, "district": "Oglala Lakota County 65-1", "city": "Porcupine", "ncessch": "466546000576"}, {"name": "Edison Middle School - 06", "lat": 43.526274, "lon": -96.746967, "proficiency": 0.47, "district": "Sioux Falls School District 49-5", "city": "Sioux Falls", "ncessch": "466627000583"}, {"name": "Patrick Henry Middle School - 07", "lat": 43.524963, "lon": -96.718042, "proficiency": 0.52, "district": "Sioux Falls School District 49-5", "city": "Sioux Falls", "ncessch": "466627000604"}, {"name": "Whittier Middle School - 08", "lat": 43.551965, "lon": -96.714676, "proficiency": 0.22, "district": "Sioux Falls School District 49-5", "city": "Sioux Falls", "ncessch": "466627000611"}, {"name": "Memorial Middle School - 04", "lat": 43.531976, "lon": -96.818186, "proficiency": 0.47, "district": "Sioux Falls School District 49-5", "city": "Sioux Falls", "ncessch": "466627001070"}, {"name": "George McGovern Middle School -09", "lat": 43.571919, "lon": -96.803785, "proficiency": 0.075, "district": "Sioux Falls School District 49-5", "city": "Sioux Falls", "ncessch": "466627001333"}, {"name": "Axtell Park Middle School - 47", "lat": 43.548182, "lon": -96.747402, "proficiency": 0.245, "district": "Sioux Falls School District 49-5", "city": "Sioux Falls", "ncessch": "466627001396"}, {"name": "Sioux Valley Middle School - 04", "lat": 44.322091, "lon": -96.920134, "proficiency": 0.345, "district": "Sioux Valley School District 05-5", "city": "Volga", "ncessch": "466630000613"}, {"name": "Spearfish Middle School - 05", "lat": 44.499962, "lon": -103.863096, "proficiency": 0.42, "district": "Spearfish School District 40-2", "city": "Spearfish", "ncessch": "466693000622"}, {"name": "Sturgis Williams Middle School - 02", "lat": 44.410654, "lon": -103.513827, "proficiency": 0.37, "district": "Meade School District 46-1", "city": "Sturgis", "ncessch": "466993000653"}, {"name": "Central Meade County School - 09", "lat": 44.558744, "lon": -102.663419, "proficiency": 0.75, "district": "Meade School District 46-1", "city": "Whitewood", "ncessch": "466993000736"}, {"name": "Stagebarn Middle School - 10", "lat": 44.201538, "lon": -103.354398, "proficiency": 0.32, "district": "Meade School District 46-1", "city": "Summerset", "ncessch": "466993001392"}, {"name": "Summit Elementary - 02", "lat": 45.304643, "lon": -97.040245, "proficiency": 0.1, "district": "Summit School District 54-6", "city": "Summit", "ncessch": "467014000662"}, {"name": "Timber Lake Middle School - 03", "lat": 45.426304, "lon": -101.074558, "proficiency": 0.695, "district": "Timber Lake School District 20-3", "city": "Timber Lake", "ncessch": "467188000940"}, {"name": "Tripp-Delmont Jr. High - 02", "lat": 43.225866, "lon": -97.967675, "proficiency": 0.245, "district": "Tripp-Delmont School District 33-5", "city": "Tripp", "ncessch": "467245000059"}, {"name": "Vermillion Middle School - 02", "lat": 42.784144, "lon": -96.940005, "proficiency": 0.47, "district": "Vermillion School District 13-1", "city": "Vermillion", "ncessch": "467437000690"}, {"name": "Viborg-Hurley Middle School - 03", "lat": 43.282328, "lon": -97.094432, "proficiency": 0.3, "district": "Viborg-Hurley School District 60-6", "city": "Viborg", "ncessch": "467452000961"}, {"name": "Wagner Middle School - 03", "lat": 43.080149, "lon": -98.304695, "proficiency": 0.245, "district": "Wagner Community School District 11-4", "city": "Wagner", "ncessch": "467542000942"}, {"name": "Wakpala Middle School - 04", "lat": 45.625001, "lon": -100.52253, "proficiency": 0.1, "district": "Smee School District 15-3", "city": "Wakpala", "ncessch": "467560001326"}, {"name": "Wall Middle School - 06", "lat": 43.990186, "lon": -102.247499, "proficiency": 0.495, "district": "Wall School District 51-5", "city": "Wall", "ncessch": "467566001057"}, {"name": "Warner Middle School - 03", "lat": 45.323919, "lon": -98.497723, "proficiency": 0.695, "district": "Warner School District 06-5", "city": "Warner", "ncessch": "467602000710"}, {"name": "Watertown Middle School - 02", "lat": 44.922054, "lon": -97.095568, "proficiency": 0.37, "district": "Watertown School District 14-4", "city": "Watertown", "ncessch": "467662000718"}, {"name": "Waubay Middle School - 03", "lat": 45.338862, "lon": -97.30804, "proficiency": 0.245, "district": "Waubay School District 18-3", "city": "Waubay", "ncessch": "467668000945"}, {"name": "Waverly-South Shore Middle School - 03", "lat": 44.999725, "lon": -96.969521, "proficiency": 0.1, "district": "Waverly School District 14-5", "city": "Waverly", "ncessch": "467674000946"}, {"name": "Webster Area Middle School - 02", "lat": 45.333688, "lon": -97.519029, "proficiency": 0.445, "district": "Webster Area 18-5", "city": "Webster", "ncessch": "467699000947"}, {"name": "Wessington Springs Jr. High - 04", "lat": 44.081727, "lon": -98.570191, "proficiency": 0.3, "district": "Wessington Springs School District 36-2", "city": "Wessington Springs", "ncessch": "467746000076"}, {"name": "Deubrook Jr. High - 02", "lat": 44.433892, "lon": -96.649213, "proficiency": 0.245, "district": "Deubrook Area School District 05-6", "city": "White", "ncessch": "467830000016"}, {"name": "White Lake Middle School - 03", "lat": 43.72391, "lon": -98.708455, "proficiency": 0.245, "district": "White Lake School District 01-3", "city": "White Lake", "ncessch": "467851000950"}, {"name": "White River Middle School - 04", "lat": 43.568582, "lon": -100.743908, "proficiency": 0.15, "district": "White River School District 47-1", "city": "White River", "ncessch": "467857000951"}, {"name": "Willow Lake Middle School - 03", "lat": 44.628905, "lon": -97.636953, "proficiency": 0.245, "district": "Willow Lake School District 12-3", "city": "Willow Lake", "ncessch": "467935000952"}, {"name": "Winner Middle School - 02", "lat": 43.370926, "lon": -99.852537, "proficiency": 0.345, "district": "Winner School District 59-2", "city": "Winner", "ncessch": "467971000782"}, {"name": "Wolsey Wessington Middle School - 03", "lat": 44.406342, "lon": -98.470181, "proficiency": 0.545, "district": "Wolsey Wessington School District 02-6", "city": "Wolsey", "ncessch": "468010000546"}, {"name": "Woonsocket Elementary - 03", "lat": 44.054902, "lon": -98.279349, "proficiency": 0.3, "district": "Woonsocket School District 55-4", "city": "Woonsocket", "ncessch": "468019000789"}, {"name": "Yankton Middle School - 02", "lat": 42.889239, "lon": -97.386362, "proficiency": 0.57, "district": "Yankton School District 63-3", "city": "Yankton", "ncessch": "468043010799"}, {"name": "Kadoka Middle School - 03", "lat": 43.837194, "lon": -101.510212, "proficiency": 0.695, "district": "Kadoka Area School District 35-2", "city": "Kadoka", "ncessch": "468043701382"}, {"name": "Platte - Geddes Jr. High - 03", "lat": 43.386773, "lon": -98.83975, "proficiency": 0.245, "district": "Platte - Geddes School District 11-5", "city": "Platte", "ncessch": "468043801250"}, {"name": "Irene - Wakonda Jr. High - 04", "lat": 43.085728, "lon": -97.156672, "proficiency": 0.1, "district": "Irene - Wakonda School District 13-3", "city": "Irene", "ncessch": "468043901253"}, {"name": "Highmore Jr. High - 03", "lat": 44.516528, "lon": -99.442132, "proficiency": 0.695, "district": "Highmore-Harrold 34-2", "city": "Highmore", "ncessch": "468044001049"}, {"name": "Mobridge Middle School - 02", "lat": 45.543087, "lon": -100.433404, "proficiency": 0.445, "district": "Mobridge-Pollock 62-6", "city": "Mobridge", "ncessch": "468044100450"}, {"name": "Corsica-Stickney Jr. High - 03", "lat": 43.423638, "lon": -98.399435, "proficiency": 0.245, "district": "Corsica-Stickney 21-3", "city": "Corsica", "ncessch": "468044501352"}], "districts": [{"name": "Milbank School District 25-4", "lat": 45.216995, "lon": -96.62301, "proficiency": 0.57, "schoolCount": 1}, {"name": "Wilmot School District 54-7", "lat": 45.405995, "lon": -96.85599, "proficiency": 0.3, "schoolCount": 1}, {"name": "Howard School District 48-3", "lat": 44.016803, "lon": -97.529603, "proficiency": 0.695, "schoolCount": 1}, {"name": "Alcester-Hudson School District 61-1", "lat": 43.024723, "lon": -96.623751, "proficiency": 0.1, "schoolCount": 1}, {"name": "Deuel School District 19-4", "lat": 44.75426, "lon": -96.684705, "proficiency": 0.345, "schoolCount": 1}, {"name": "Britton-Hecla School District 45-4", "lat": 45.794106, "lon": -97.751889, "proficiency": 0.1, "schoolCount": 1}, {"name": "Agar-Blunt-Onida School District 58-3", "lat": 44.703315, "lon": -100.063714, "proficiency": 0.1, "schoolCount": 1}, {"name": "Groton Area School District 06-6", "lat": 45.45032, "lon": -98.100933, "proficiency": 0.545, "schoolCount": 1}, {"name": "Hitchcock Tulare School District 56-6", "lat": 44.737956, "lon": -98.510109, "proficiency": 0.245, "schoolCount": 1}, {"name": "Tea Area School District 41-5", "lat": 43.452997, "lon": -96.842624, "proficiency": 0.37, "schoolCount": 1}, {"name": "Sisseton School District 54-2", "lat": 45.66475, "lon": -97.062591, "proficiency": 0.22, "schoolCount": 1}, {"name": "McCook Central School District 43-7", "lat": 43.728033, "lon": -97.385766, "proficiency": 0.695, "schoolCount": 1}, {"name": "Oldham - Ramona School District 39-5", "lat": 44.120914, "lon": -97.219382, "proficiency": 0.245, "schoolCount": 1}, {"name": "Selby Area School District 62-5", "lat": 45.50881, "lon": -100.031608, "proficiency": 0.245, "schoolCount": 1}, {"name": "Aberdeen School District 06-1", "lat": 45.469273, "lon": -98.4830715, "proficiency": 0.445, "schoolCount": 2}, {"name": "Hanson School District 30-1", "lat": 43.656236, "lon": -97.785392, "proficiency": 0.495, "schoolCount": 1}, {"name": "Arlington School District 38-1", "lat": 44.362137, "lon": -97.137316, "proficiency": 0.695, "schoolCount": 1}, {"name": "Armour School District 21-1", "lat": 43.320222, "lon": -98.348374, "proficiency": 0.75, "schoolCount": 1}, {"name": "Sanborn Central School District 55-5", "lat": 44.02104, "lon": -98.114994, "proficiency": 0.75, "schoolCount": 1}, {"name": "Avon School District 04-1", "lat": 43.005691, "lon": -98.056777, "proficiency": 0.495, "schoolCount": 1}, {"name": "Baltic School District 49-1", "lat": 43.759147, "lon": -96.734134, "proficiency": 0.545, "schoolCount": 1}, {"name": "Belle Fourche School District 09-1", "lat": 44.64751, "lon": -103.841261, "proficiency": 0.32, "schoolCount": 1}, {"name": "Bennett County School District 03-1", "lat": 43.174785, "lon": -101.73085, "proficiency": 0.1, "schoolCount": 1}, {"name": "Beresford School District 61-2", "lat": 43.075834, "lon": -96.776407, "proficiency": 0.32, "schoolCount": 1}, {"name": "Bison School District 52-1", "lat": 45.52403, "lon": -102.464051, "proficiency": 0.1, "schoolCount": 1}, {"name": "Bon Homme School District 04-2", "lat": 42.926485, "lon": -97.7879455, "proficiency": 0.5975, "schoolCount": 2}, {"name": "Bowdle School District 22-1", "lat": 45.450304, "lon": -99.651101, "proficiency": 0.245, "schoolCount": 1}, {"name": "Brandon Valley School District 49-2", "lat": 43.59602, "lon": -96.579988, "proficiency": 0.59, "schoolCount": 1}, {"name": "Brookings School District 05-1", "lat": 44.293289, "lon": -96.775567, "proficiency": 0.47, "schoolCount": 1}, {"name": "Harding County School District 31-1", "lat": 45.589932, "lon": -103.55105, "proficiency": 0.495, "schoolCount": 1}, {"name": "Burke School District 26-2", "lat": 43.180911, "lon": -99.290415, "proficiency": 0.495, "schoolCount": 1}, {"name": "Canistota School District 43-1", "lat": 43.597424, "lon": -97.295112, "proficiency": 0.695, "schoolCount": 1}, {"name": "Canton School District 41-1", "lat": 43.30735, "lon": -96.591366, "proficiency": 0.42, "schoolCount": 1}, {"name": "Castlewood School District 28-1", "lat": 44.725484, "lon": -97.028401, "proficiency": 0.3, "schoolCount": 1}, {"name": "Centerville School District 60-1", "lat": 43.118713, "lon": -96.958277, "proficiency": 0.495, "schoolCount": 1}, {"name": "Chamberlain School District 07-1", "lat": 43.789587, "lon": -99.326469, "proficiency": 0.32, "schoolCount": 1}, {"name": "Chester Area School District 39-1", "lat": 43.900151, "lon": -96.930127, "proficiency": 0.495, "schoolCount": 1}, {"name": "Clark School District 12-2", "lat": 44.879934, "lon": -97.742646, "proficiency": 0.3, "schoolCount": 1}, {"name": "Colman-Egan School District 50-5", "lat": 43.980977, "lon": -96.810075, "proficiency": 0.495, "schoolCount": 1}, {"name": "Colome Consolidated 59-3", "lat": 43.261893, "lon": -99.719295, "proficiency": 0.245, "schoolCount": 1}, {"name": "Custer School District 16-1", "lat": 43.802361, "lon": -103.388307, "proficiency": 0.3725, "schoolCount": 2}, {"name": "De Smet School District 38-2", "lat": 44.385118, "lon": -97.5556, "proficiency": 0.245, "schoolCount": 1}, {"name": "Dell Rapids School District 49-3", "lat": 43.832184, "lon": -96.704685, "proficiency": 0.62, "schoolCount": 1}, {"name": "Doland School District 56-2", "lat": 44.897328, "lon": -98.102575, "proficiency": 0.75, "schoolCount": 1}, {"name": "Douglas School District 51-1", "lat": 44.139176, "lon": -103.062108, "proficiency": 0.37, "schoolCount": 1}, {"name": "Dupree School District 64-2", "lat": 45.047032, "lon": -101.599471, "proficiency": 0.15, "schoolCount": 1}, {"name": "Jones County School District 37-3", "lat": 43.887792, "lon": -100.707126, "proficiency": 0.75, "schoolCount": 1}, {"name": "Edgemont School District 23-1", "lat": 43.300901, "lon": -103.834085, "proficiency": 0.3, "schoolCount": 1}, {"name": "Elk Point-Jefferson School District 61-7", "lat": 42.682798, "lon": -96.688482, "proficiency": 0.645, "schoolCount": 1}, {"name": "Elkton School District 05-3", "lat": 44.231352, "lon": -96.482225, "proficiency": 0.345, "schoolCount": 1}, {"name": "Frederick Area School District 06-2", "lat": 45.832851, "lon": -98.503847, "proficiency": 0.75, "schoolCount": 1}, {"name": "Bridgewater-Emery 30-3", "lat": 43.602854, "lon": -97.617811, "proficiency": 0.495, "schoolCount": 1}, {"name": "Estelline School District 28-2", "lat": 44.576515, "lon": -96.897036, "proficiency": 0.3, "schoolCount": 1}, {"name": "Ethan School District 17-1", "lat": 43.544441, "lon": -97.984388, "proficiency": 0.495, "schoolCount": 1}, {"name": "Eureka School District 44-1", "lat": 45.768816, "lon": -99.622961, "proficiency": 0.245, "schoolCount": 1}, {"name": "Faith School District 46-2", "lat": 45.018588, "lon": -102.040576, "proficiency": 0.3, "schoolCount": 1}, {"name": "Faulkton Area Schools 24-4", "lat": 45.1119015, "lon": -99.198803, "proficiency": 0.6225, "schoolCount": 2}, {"name": "Flandreau School District 50-3", "lat": 44.051558, "lon": -96.60508, "proficiency": 0.345, "schoolCount": 1}, {"name": "Florence School District 14-1", "lat": 45.054112, "lon": -97.330052, "proficiency": 0.3, "schoolCount": 1}, {"name": "Stanley County School District 57-1", "lat": 44.354279, "lon": -100.372626, "proficiency": 0.245, "schoolCount": 1}, {"name": "Freeman School District 33-1", "lat": 43.345177, "lon": -97.430202, "proficiency": 0.495, "schoolCount": 1}, {"name": "Garretson School District 49-4", "lat": 43.714147, "lon": -96.503909, "proficiency": 0.345, "schoolCount": 1}, {"name": "Gayville-Volin School District 63-1", "lat": 42.893295, "lon": -97.173142, "proficiency": 0.245, "schoolCount": 1}, {"name": "Gettysburg School District 53-1", "lat": 45.007315, "lon": -99.955031, "proficiency": 0.9, "schoolCount": 1}, {"name": "Gregory School District 26-4", "lat": 43.231598, "lon": -99.422637, "proficiency": 0.3, "schoolCount": 1}, {"name": "Haakon School District 27-1", "lat": 44.043135, "lon": -101.668673, "proficiency": 0.3, "schoolCount": 1}, {"name": "Hamlin School District 28-3", "lat": 44.657038, "lon": -97.291774, "proficiency": 0.545, "schoolCount": 1}, {"name": "Harrisburg School District 41-2", "lat": 43.4464945, "lon": -96.7271685, "proficiency": 0.495, "schoolCount": 2}, {"name": "West Central School District 49-7", "lat": 43.622999, "lon": -96.935801, "proficiency": 0.27, "schoolCount": 1}, {"name": "Henry School District 14-2", "lat": 44.881651, "lon": -97.460692, "proficiency": 0.1, "schoolCount": 1}, {"name": "Herreid School District 10-1", "lat": 45.836205, "lon": -100.069676, "proficiency": 0.245, "schoolCount": 1}, {"name": "Hill City School District 51-2", "lat": 43.929806, "lon": -103.575104, "proficiency": 0.545, "schoolCount": 1}, {"name": "Edmunds Central School District 22-5", "lat": 45.452925, "lon": -99.337738, "proficiency": 0.245, "schoolCount": 1}, {"name": "Hot Springs School District 23-2", "lat": 43.430912, "lon": -103.481501, "proficiency": 0.245, "schoolCount": 1}, {"name": "Hoven School District 53-2", "lat": 45.239983, "lon": -99.778484, "proficiency": 0.245, "schoolCount": 1}, {"name": "Huron School District 02-2", "lat": 44.346897, "lon": -98.232647, "proficiency": 0.37, "schoolCount": 1}, {"name": "Ipswich Public School District 22-6", "lat": 45.445934, "lon": -99.031383, "proficiency": 0.3, "schoolCount": 1}, {"name": "Iroquois School District 02-3", "lat": 44.366703, "lon": -97.852591, "proficiency": 0.245, "schoolCount": 1}, {"name": "Dakota Valley School District 61-8", "lat": 42.549133, "lon": -96.525572, "proficiency": 0.37, "schoolCount": 1}, {"name": "Kimball School District 07-2", "lat": 43.745663, "lon": -98.954892, "proficiency": 0.495, "schoolCount": 1}, {"name": "Andes Central School District 11-1", "lat": 43.157716, "lon": -98.530378, "proficiency": 0.1, "schoolCount": 1}, {"name": "Madison Central School District 39-2", "lat": 44.015995, "lon": -97.10339, "proficiency": 0.47, "schoolCount": 1}, {"name": "Lake Preston School District 38-3", "lat": 44.36144, "lon": -97.373174, "proficiency": 0.245, "schoolCount": 1}, {"name": "Langford Area 45-5", "lat": 45.604356, "lon": -97.833005, "proficiency": 0.75, "schoolCount": 1}, {"name": "Lead-Deadwood School District 40-1", "lat": 44.348023, "lon": -103.775365, "proficiency": 0.345, "schoolCount": 1}, {"name": "Lemmon School District 52-4", "lat": 45.936634, "lon": -102.165599, "proficiency": 0.495, "schoolCount": 1}, {"name": "Lennox School District 41-4", "lat": 43.34277, "lon": -96.893412, "proficiency": 0.52, "schoolCount": 1}, {"name": "Leola School District 44-2", "lat": 45.720476, "lon": -98.937247, "proficiency": 0.245, "schoolCount": 1}, {"name": "Lyman School District 42-1", "lat": 43.909708, "lon": -100.063395, "proficiency": 0.1, "schoolCount": 1}, {"name": "Tri-Valley School District 49-6", "lat": 43.733012, "lon": -96.92118, "proficiency": 0.32, "schoolCount": 1}, {"name": "Marion School District 60-3", "lat": 43.421716, "lon": -97.2586, "proficiency": 0.75, "schoolCount": 1}, {"name": "McIntosh School District 15-1", "lat": 45.923696, "lon": -101.351315, "proficiency": 0.75, "schoolCount": 1}, {"name": "McLaughlin School District 15-2", "lat": 45.808922, "lon": -100.811522, "proficiency": 0.1, "schoolCount": 1}, {"name": "Menno School District 33-2", "lat": 43.236598, "lon": -97.577309, "proficiency": 0.695, "schoolCount": 1}, {"name": "Miller 29-4", "lat": 44.519859, "lon": -98.979558, "proficiency": 0.245, "schoolCount": 1}, {"name": "Mitchell School District 17-2", "lat": 43.71821, "lon": -98.035488, "proficiency": 0.52, "schoolCount": 1}, {"name": "Montrose School District 43-2", "lat": 43.697971, "lon": -97.187797, "proficiency": 0.75, "schoolCount": 1}, {"name": "Mount Vernon School District 17-3", "lat": 43.715395, "lon": -98.261403, "proficiency": 0.695, "schoolCount": 1}, {"name": "New Underwood School District 51-3", "lat": 44.094557, "lon": -102.832792, "proficiency": 0.3, "schoolCount": 1}, {"name": "Newell School District 09-2", "lat": 44.716312, "lon": -103.426471, "proficiency": 0.3, "schoolCount": 1}, {"name": "Northwestern Area School District 56-7", "lat": 45.156154, "lon": -98.500089, "proficiency": 0.3, "schoolCount": 1}, {"name": "Oelrichs School District 23-3", "lat": 43.180363, "lon": -103.233657, "proficiency": 0.245, "schoolCount": 1}, {"name": "Parker School District 60-4", "lat": 43.397104, "lon": -97.139844, "proficiency": 0.3, "schoolCount": 1}, {"name": "Parkston School District 33-3", "lat": 43.393375, "lon": -97.975615, "proficiency": 0.345, "schoolCount": 1}, {"name": "Pierre School District 32-2", "lat": 44.366982, "lon": -100.349033, "proficiency": 0.52, "schoolCount": 1}, {"name": "Plankinton School District 01-1", "lat": 43.711107, "lon": -98.479266, "proficiency": 0.1, "schoolCount": 1}, {"name": "Rapid City Area School District 51-4", "lat": 44.0714626, "lon": -103.2251772, "proficiency": 0.34, "schoolCount": 5}, {"name": "Redfield School District 56-4", "lat": 44.87765, "lon": -98.515841, "proficiency": 0.15, "schoolCount": 1}, {"name": "Rosholt School District 54-4", "lat": 45.864163, "lon": -96.737101, "proficiency": 0.1, "schoolCount": 1}, {"name": "Rutland School District 39-4", "lat": 44.089895, "lon": -96.965317, "proficiency": 0.75, "schoolCount": 1}, {"name": "Scotland School District 04-3", "lat": 43.14783, "lon": -97.715576, "proficiency": 0.1, "schoolCount": 1}, {"name": "Oglala Lakota County 65-1", "lat": 43.33088175, "lon": -102.48600525, "proficiency": 0.1475, "schoolCount": 4}, {"name": "Sioux Falls School District 49-5", "lat": 43.54254649999999, "lon": -96.75817633333332, "proficiency": 0.3333, "schoolCount": 6}, {"name": "Sioux Valley School District 05-5", "lat": 44.322091, "lon": -96.920134, "proficiency": 0.345, "schoolCount": 1}, {"name": "Spearfish School District 40-2", "lat": 44.499962, "lon": -103.863096, "proficiency": 0.42, "schoolCount": 1}, {"name": "Meade School District 46-1", "lat": 44.390311999999994, "lon": -103.17721466666667, "proficiency": 0.48, "schoolCount": 3}, {"name": "Summit School District 54-6", "lat": 45.304643, "lon": -97.040245, "proficiency": 0.1, "schoolCount": 1}, {"name": "Timber Lake School District 20-3", "lat": 45.426304, "lon": -101.074558, "proficiency": 0.695, "schoolCount": 1}, {"name": "Tripp-Delmont School District 33-5", "lat": 43.225866, "lon": -97.967675, "proficiency": 0.245, "schoolCount": 1}, {"name": "Vermillion School District 13-1", "lat": 42.784144, "lon": -96.940005, "proficiency": 0.47, "schoolCount": 1}, {"name": "Viborg-Hurley School District 60-6", "lat": 43.282328, "lon": -97.094432, "proficiency": 0.3, "schoolCount": 1}, {"name": "Wagner Community School District 11-4", "lat": 43.080149, "lon": -98.304695, "proficiency": 0.245, "schoolCount": 1}, {"name": "Smee School District 15-3", "lat": 45.625001, "lon": -100.52253, "proficiency": 0.1, "schoolCount": 1}, {"name": "Wall School District 51-5", "lat": 43.990186, "lon": -102.247499, "proficiency": 0.495, "schoolCount": 1}, {"name": "Warner School District 06-5", "lat": 45.323919, "lon": -98.497723, "proficiency": 0.695, "schoolCount": 1}, {"name": "Watertown School District 14-4", "lat": 44.922054, "lon": -97.095568, "proficiency": 0.37, "schoolCount": 1}, {"name": "Waubay School District 18-3", "lat": 45.338862, "lon": -97.30804, "proficiency": 0.245, "schoolCount": 1}, {"name": "Waverly School District 14-5", "lat": 44.999725, "lon": -96.969521, "proficiency": 0.1, "schoolCount": 1}, {"name": "Webster Area 18-5", "lat": 45.333688, "lon": -97.519029, "proficiency": 0.445, "schoolCount": 1}, {"name": "Wessington Springs School District 36-2", "lat": 44.081727, "lon": -98.570191, "proficiency": 0.3, "schoolCount": 1}, {"name": "Deubrook Area School District 05-6", "lat": 44.433892, "lon": -96.649213, "proficiency": 0.245, "schoolCount": 1}, {"name": "White Lake School District 01-3", "lat": 43.72391, "lon": -98.708455, "proficiency": 0.245, "schoolCount": 1}, {"name": "White River School District 47-1", "lat": 43.568582, "lon": -100.743908, "proficiency": 0.15, "schoolCount": 1}, {"name": "Willow Lake School District 12-3", "lat": 44.628905, "lon": -97.636953, "proficiency": 0.245, "schoolCount": 1}, {"name": "Winner School District 59-2", "lat": 43.370926, "lon": -99.852537, "proficiency": 0.345, "schoolCount": 1}, {"name": "Wolsey Wessington School District 02-6", "lat": 44.406342, "lon": -98.470181, "proficiency": 0.545, "schoolCount": 1}, {"name": "Woonsocket School District 55-4", "lat": 44.054902, "lon": -98.279349, "proficiency": 0.3, "schoolCount": 1}, {"name": "Yankton School District 63-3", "lat": 42.889239, "lon": -97.386362, "proficiency": 0.57, "schoolCount": 1}, {"name": "Kadoka Area School District 35-2", "lat": 43.837194, "lon": -101.510212, "proficiency": 0.695, "schoolCount": 1}, {"name": "Platte - Geddes School District 11-5", "lat": 43.386773, "lon": -98.83975, "proficiency": 0.245, "schoolCount": 1}, {"name": "Irene - Wakonda School District 13-3", "lat": 43.085728, "lon": -97.156672, "proficiency": 0.1, "schoolCount": 1}, {"name": "Highmore-Harrold 34-2", "lat": 44.516528, "lon": -99.442132, "proficiency": 0.695, "schoolCount": 1}, {"name": "Mobridge-Pollock 62-6", "lat": 45.543087, "lon": -100.433404, "proficiency": 0.445, "schoolCount": 1}, {"name": "Corsica-Stickney 21-3", "lat": 43.423638, "lon": -98.399435, "proficiency": 0.245, "schoolCount": 1}], "cities": [{"name": "Milbank", "lat": 45.216995, "lon": -96.62301, "proficiency": 0.57, "schoolCount": 1}, {"name": "Wilmot", "lat": 45.405995, "lon": -96.85599, "proficiency": 0.3, "schoolCount": 1}, {"name": "Howard", "lat": 44.016803, "lon": -97.529603, "proficiency": 0.695, "schoolCount": 1}, {"name": "Alcester", "lat": 43.024723, "lon": -96.623751, "proficiency": 0.1, "schoolCount": 1}, {"name": "Clear Lake", "lat": 44.75426, "lon": -96.684705, "proficiency": 0.345, "schoolCount": 1}, {"name": "Britton", "lat": 45.794106, "lon": -97.751889, "proficiency": 0.1, "schoolCount": 1}, {"name": "Onida", "lat": 44.703315, "lon": -100.063714, "proficiency": 0.1, "schoolCount": 1}, {"name": "Groton", "lat": 45.45032, "lon": -98.100933, "proficiency": 0.545, "schoolCount": 1}, {"name": "Tulare", "lat": 44.737956, "lon": -98.510109, "proficiency": 0.245, "schoolCount": 1}, {"name": "Tea", "lat": 43.452997, "lon": -96.842624, "proficiency": 0.37, "schoolCount": 1}, {"name": "Sisseton", "lat": 45.66475, "lon": -97.062591, "proficiency": 0.22, "schoolCount": 1}, {"name": "Salem", "lat": 43.728033, "lon": -97.385766, "proficiency": 0.695, "schoolCount": 1}, {"name": "Ramona", "lat": 44.120914, "lon": -97.219382, "proficiency": 0.245, "schoolCount": 1}, {"name": "Selby", "lat": 45.50881, "lon": -100.031608, "proficiency": 0.245, "schoolCount": 1}, {"name": "Aberdeen", "lat": 45.469273, "lon": -98.4830715, "proficiency": 0.445, "schoolCount": 2}, {"name": "Alexandria", "lat": 43.656236, "lon": -97.785392, "proficiency": 0.495, "schoolCount": 1}, {"name": "Arlington", "lat": 44.362137, "lon": -97.137316, "proficiency": 0.695, "schoolCount": 1}, {"name": "Armour", "lat": 43.320222, "lon": -98.348374, "proficiency": 0.75, "schoolCount": 1}, {"name": "Forestburg", "lat": 44.02104, "lon": -98.114994, "proficiency": 0.75, "schoolCount": 1}, {"name": "Avon", "lat": 43.005691, "lon": -98.056777, "proficiency": 0.495, "schoolCount": 1}, {"name": "Baltic", "lat": 43.759147, "lon": -96.734134, "proficiency": 0.545, "schoolCount": 1}, {"name": "Belle Fourche", "lat": 44.64751, "lon": -103.841261, "proficiency": 0.32, "schoolCount": 1}, {"name": "Martin", "lat": 43.174785, "lon": -101.73085, "proficiency": 0.1, "schoolCount": 1}, {"name": "Beresford", "lat": 43.075834, "lon": -96.776407, "proficiency": 0.32, "schoolCount": 1}, {"name": "Bison", "lat": 45.52403, "lon": -102.464051, "proficiency": 0.1, "schoolCount": 1}, {"name": "Tabor", "lat": 42.863233, "lon": -97.706499, "proficiency": 0.75, "schoolCount": 1}, {"name": "Tyndall", "lat": 42.989737, "lon": -97.869392, "proficiency": 0.445, "schoolCount": 1}, {"name": "Bowdle", "lat": 45.450304, "lon": -99.651101, "proficiency": 0.245, "schoolCount": 1}, {"name": "Brandon", "lat": 43.59602, "lon": -96.579988, "proficiency": 0.59, "schoolCount": 1}, {"name": "Brookings", "lat": 44.293289, "lon": -96.775567, "proficiency": 0.47, "schoolCount": 1}, {"name": "Buffalo", "lat": 45.589932, "lon": -103.55105, "proficiency": 0.495, "schoolCount": 1}, {"name": "Burke", "lat": 43.180911, "lon": -99.290415, "proficiency": 0.495, "schoolCount": 1}, {"name": "Canistota", "lat": 43.597424, "lon": -97.295112, "proficiency": 0.695, "schoolCount": 1}, {"name": "Canton", "lat": 43.30735, "lon": -96.591366, "proficiency": 0.42, "schoolCount": 1}, {"name": "Castlewood", "lat": 44.725484, "lon": -97.028401, "proficiency": 0.3, "schoolCount": 1}, {"name": "Centerville", "lat": 43.118713, "lon": -96.958277, "proficiency": 0.495, "schoolCount": 1}, {"name": "Chamberlain", "lat": 43.789587, "lon": -99.326469, "proficiency": 0.32, "schoolCount": 1}, {"name": "Chester", "lat": 43.900151, "lon": -96.930127, "proficiency": 0.495, "schoolCount": 1}, {"name": "Clark", "lat": 44.879934, "lon": -97.742646, "proficiency": 0.3, "schoolCount": 1}, {"name": "Colman", "lat": 43.980977, "lon": -96.810075, "proficiency": 0.495, "schoolCount": 1}, {"name": "Colome", "lat": 43.261893, "lon": -99.719295, "proficiency": 0.245, "schoolCount": 1}, {"name": "Hermosa", "lat": 43.839355, "lon": -103.195328, "proficiency": 0.3, "schoolCount": 1}, {"name": "Custer", "lat": 43.765367, "lon": -103.581286, "proficiency": 0.445, "schoolCount": 1}, {"name": "De Smet", "lat": 44.385118, "lon": -97.5556, "proficiency": 0.245, "schoolCount": 1}, {"name": "Dell Rapids", "lat": 43.832184, "lon": -96.704685, "proficiency": 0.62, "schoolCount": 1}, {"name": "Doland", "lat": 44.897328, "lon": -98.102575, "proficiency": 0.75, "schoolCount": 1}, {"name": "Box Elder", "lat": 44.139176, "lon": -103.062108, "proficiency": 0.37, "schoolCount": 1}, {"name": "Dupree", "lat": 45.047032, "lon": -101.599471, "proficiency": 0.15, "schoolCount": 1}, {"name": "Murdo", "lat": 43.887792, "lon": -100.707126, "proficiency": 0.75, "schoolCount": 1}, {"name": "Edgemont", "lat": 43.300901, "lon": -103.834085, "proficiency": 0.3, "schoolCount": 1}, {"name": "Elk Point", "lat": 42.682798, "lon": -96.688482, "proficiency": 0.645, "schoolCount": 1}, {"name": "Elkton", "lat": 44.231352, "lon": -96.482225, "proficiency": 0.345, "schoolCount": 1}, {"name": "Frederick", "lat": 45.832851, "lon": -98.503847, "proficiency": 0.75, "schoolCount": 1}, {"name": "Emery", "lat": 43.602854, "lon": -97.617811, "proficiency": 0.495, "schoolCount": 1}, {"name": "Estelline", "lat": 44.576515, "lon": -96.897036, "proficiency": 0.3, "schoolCount": 1}, {"name": "Ethan", "lat": 43.544441, "lon": -97.984388, "proficiency": 0.495, "schoolCount": 1}, {"name": "Eureka", "lat": 45.768816, "lon": -99.622961, "proficiency": 0.245, "schoolCount": 1}, {"name": "Faith", "lat": 45.018588, "lon": -102.040576, "proficiency": 0.3, "schoolCount": 1}, {"name": "Faulkton", "lat": 45.1119015, "lon": -99.198803, "proficiency": 0.6225, "schoolCount": 2}, {"name": "Flandreau", "lat": 44.051558, "lon": -96.60508, "proficiency": 0.345, "schoolCount": 1}, {"name": "Florence", "lat": 45.054112, "lon": -97.330052, "proficiency": 0.3, "schoolCount": 1}, {"name": "Fort Pierre", "lat": 44.354279, "lon": -100.372626, "proficiency": 0.245, "schoolCount": 1}, {"name": "Freeman", "lat": 43.345177, "lon": -97.430202, "proficiency": 0.495, "schoolCount": 1}, {"name": "Garretson", "lat": 43.714147, "lon": -96.503909, "proficiency": 0.345, "schoolCount": 1}, {"name": "Gayville", "lat": 42.893295, "lon": -97.173142, "proficiency": 0.245, "schoolCount": 1}, {"name": "Gettysburg", "lat": 45.007315, "lon": -99.955031, "proficiency": 0.9, "schoolCount": 1}, {"name": "Gregory", "lat": 43.231598, "lon": -99.422637, "proficiency": 0.3, "schoolCount": 1}, {"name": "Philip", "lat": 44.043135, "lon": -101.668673, "proficiency": 0.3, "schoolCount": 1}, {"name": "Hayti", "lat": 44.657038, "lon": -97.291774, "proficiency": 0.545, "schoolCount": 1}, {"name": "Harrisburg", "lat": 43.426605, "lon": -96.704943, "proficiency": 0.42, "schoolCount": 1}, {"name": "Sioux Falls", "lat": 43.53166614285714, "lon": -96.75692171428571, "proficiency": 0.3671, "schoolCount": 7}, {"name": "Hartford", "lat": 43.622999, "lon": -96.935801, "proficiency": 0.27, "schoolCount": 1}, {"name": "Henry", "lat": 44.881651, "lon": -97.460692, "proficiency": 0.1, "schoolCount": 1}, {"name": "Herreid", "lat": 45.836205, "lon": -100.069676, "proficiency": 0.245, "schoolCount": 1}, {"name": "Hill City", "lat": 43.929806, "lon": -103.575104, "proficiency": 0.545, "schoolCount": 1}, {"name": "Roscoe", "lat": 45.452925, "lon": -99.337738, "proficiency": 0.245, "schoolCount": 1}, {"name": "Hot Springs", "lat": 43.430912, "lon": -103.481501, "proficiency": 0.245, "schoolCount": 1}, {"name": "Hoven", "lat": 45.239983, "lon": -99.778484, "proficiency": 0.245, "schoolCount": 1}, {"name": "Huron", "lat": 44.346897, "lon": -98.232647, "proficiency": 0.37, "schoolCount": 1}, {"name": "Ipswich", "lat": 45.445934, "lon": -99.031383, "proficiency": 0.3, "schoolCount": 1}, {"name": "Iroquois", "lat": 44.366703, "lon": -97.852591, "proficiency": 0.245, "schoolCount": 1}, {"name": "North Sioux City", "lat": 42.549133, "lon": -96.525572, "proficiency": 0.37, "schoolCount": 1}, {"name": "Kimball", "lat": 43.745663, "lon": -98.954892, "proficiency": 0.495, "schoolCount": 1}, {"name": "Lake Andes", "lat": 43.157716, "lon": -98.530378, "proficiency": 0.1, "schoolCount": 1}, {"name": "Madison", "lat": 44.015995, "lon": -97.10339, "proficiency": 0.47, "schoolCount": 1}, {"name": "Lake Preston", "lat": 44.36144, "lon": -97.373174, "proficiency": 0.245, "schoolCount": 1}, {"name": "Langford", "lat": 45.604356, "lon": -97.833005, "proficiency": 0.75, "schoolCount": 1}, {"name": "Lead", "lat": 44.348023, "lon": -103.775365, "proficiency": 0.345, "schoolCount": 1}, {"name": "Lemmon", "lat": 45.936634, "lon": -102.165599, "proficiency": 0.495, "schoolCount": 1}, {"name": "Lennox", "lat": 43.34277, "lon": -96.893412, "proficiency": 0.52, "schoolCount": 1}, {"name": "Leola", "lat": 45.720476, "lon": -98.937247, "proficiency": 0.245, "schoolCount": 1}, {"name": "Presho", "lat": 43.909708, "lon": -100.063395, "proficiency": 0.1, "schoolCount": 1}, {"name": "Colton", "lat": 43.733012, "lon": -96.92118, "proficiency": 0.32, "schoolCount": 1}, {"name": "Marion", "lat": 43.421716, "lon": -97.2586, "proficiency": 0.75, "schoolCount": 1}, {"name": "McIntosh", "lat": 45.923696, "lon": -101.351315, "proficiency": 0.75, "schoolCount": 1}, {"name": "McLaughlin", "lat": 45.808922, "lon": -100.811522, "proficiency": 0.1, "schoolCount": 1}, {"name": "Menno", "lat": 43.236598, "lon": -97.577309, "proficiency": 0.695, "schoolCount": 1}, {"name": "Miller", "lat": 44.519859, "lon": -98.979558, "proficiency": 0.245, "schoolCount": 1}, {"name": "Mitchell", "lat": 43.71821, "lon": -98.035488, "proficiency": 0.52, "schoolCount": 1}, {"name": "Montrose", "lat": 43.697971, "lon": -97.187797, "proficiency": 0.75, "schoolCount": 1}, {"name": "Mount Vernon", "lat": 43.715395, "lon": -98.261403, "proficiency": 0.695, "schoolCount": 1}, {"name": "New Underwood", "lat": 44.094557, "lon": -102.832792, "proficiency": 0.3, "schoolCount": 1}, {"name": "Newell", "lat": 44.716312, "lon": -103.426471, "proficiency": 0.3, "schoolCount": 1}, {"name": "Mellette", "lat": 45.156154, "lon": -98.500089, "proficiency": 0.3, "schoolCount": 1}, {"name": "Oelrichs", "lat": 43.180363, "lon": -103.233657, "proficiency": 0.245, "schoolCount": 1}, {"name": "Parker", "lat": 43.397104, "lon": -97.139844, "proficiency": 0.3, "schoolCount": 1}, {"name": "Parkston", "lat": 43.393375, "lon": -97.975615, "proficiency": 0.345, "schoolCount": 1}, {"name": "Pierre", "lat": 44.366982, "lon": -100.349033, "proficiency": 0.52, "schoolCount": 1}, {"name": "Plankinton", "lat": 43.711107, "lon": -98.479266, "proficiency": 0.1, "schoolCount": 1}, {"name": "Rapid City", "lat": 44.0714626, "lon": -103.2251772, "proficiency": 0.34, "schoolCount": 5}, {"name": "Redfield", "lat": 44.87765, "lon": -98.515841, "proficiency": 0.15, "schoolCount": 1}, {"name": "Rosholt", "lat": 45.864163, "lon": -96.737101, "proficiency": 0.1, "schoolCount": 1}, {"name": "Rutland", "lat": 44.089895, "lon": -96.965317, "proficiency": 0.75, "schoolCount": 1}, {"name": "Scotland", "lat": 43.14783, "lon": -97.715576, "proficiency": 0.1, "schoolCount": 1}, {"name": "Batesland", "lat": 43.3963465, "lon": -102.498057, "proficiency": 0.245, "schoolCount": 2}, {"name": "Pine Ridge", "lat": 43.047583, "lon": -102.460294, "proficiency": 0.05, "schoolCount": 1}, {"name": "Porcupine", "lat": 43.483251, "lon": -102.487613, "proficiency": 0.05, "schoolCount": 1}, {"name": "Volga", "lat": 44.322091, "lon": -96.920134, "proficiency": 0.345, "schoolCount": 1}, {"name": "Spearfish", "lat": 44.499962, "lon": -103.863096, "proficiency": 0.42, "schoolCount": 1}, {"name": "Sturgis", "lat": 44.410654, "lon": -103.513827, "proficiency": 0.37, "schoolCount": 1}, {"name": "Whitewood", "lat": 44.558744, "lon": -102.663419, "proficiency": 0.75, "schoolCount": 1}, {"name": "Summerset", "lat": 44.201538, "lon": -103.354398, "proficiency": 0.32, "schoolCount": 1}, {"name": "Summit", "lat": 45.304643, "lon": -97.040245, "proficiency": 0.1, "schoolCount": 1}, {"name": "Timber Lake", "lat": 45.426304, "lon": -101.074558, "proficiency": 0.695, "schoolCount": 1}, {"name": "Tripp", "lat": 43.225866, "lon": -97.967675, "proficiency": 0.245, "schoolCount": 1}, {"name": "Vermillion", "lat": 42.784144, "lon": -96.940005, "proficiency": 0.47, "schoolCount": 1}, {"name": "Viborg", "lat": 43.282328, "lon": -97.094432, "proficiency": 0.3, "schoolCount": 1}, {"name": "Wagner", "lat": 43.080149, "lon": -98.304695, "proficiency": 0.245, "schoolCount": 1}, {"name": "Wakpala", "lat": 45.625001, "lon": -100.52253, "proficiency": 0.1, "schoolCount": 1}, {"name": "Wall", "lat": 43.990186, "lon": -102.247499, "proficiency": 0.495, "schoolCount": 1}, {"name": "Warner", "lat": 45.323919, "lon": -98.497723, "proficiency": 0.695, "schoolCount": 1}, {"name": "Watertown", "lat": 44.922054, "lon": -97.095568, "proficiency": 0.37, "schoolCount": 1}, {"name": "Waubay", "lat": 45.338862, "lon": -97.30804, "proficiency": 0.245, "schoolCount": 1}, {"name": "Waverly", "lat": 44.999725, "lon": -96.969521, "proficiency": 0.1, "schoolCount": 1}, {"name": "Webster", "lat": 45.333688, "lon": -97.519029, "proficiency": 0.445, "schoolCount": 1}, {"name": "Wessington Springs", "lat": 44.081727, "lon": -98.570191, "proficiency": 0.3, "schoolCount": 1}, {"name": "White", "lat": 44.433892, "lon": -96.649213, "proficiency": 0.245, "schoolCount": 1}, {"name": "White Lake", "lat": 43.72391, "lon": -98.708455, "proficiency": 0.245, "schoolCount": 1}, {"name": "White River", "lat": 43.568582, "lon": -100.743908, "proficiency": 0.15, "schoolCount": 1}, {"name": "Willow Lake", "lat": 44.628905, "lon": -97.636953, "proficiency": 0.245, "schoolCount": 1}, {"name": "Winner", "lat": 43.370926, "lon": -99.852537, "proficiency": 0.345, "schoolCount": 1}, {"name": "Wolsey", "lat": 44.406342, "lon": -98.470181, "proficiency": 0.545, "schoolCount": 1}, {"name": "Woonsocket", "lat": 44.054902, "lon": -98.279349, "proficiency": 0.3, "schoolCount": 1}, {"name": "Yankton", "lat": 42.889239, "lon": -97.386362, "proficiency": 0.57, "schoolCount": 1}, {"name": "Kadoka", "lat": 43.837194, "lon": -101.510212, "proficiency": 0.695, "schoolCount": 1}, {"name": "Platte", "lat": 43.386773, "lon": -98.83975, "proficiency": 0.245, "schoolCount": 1}, {"name": "Irene", "lat": 43.085728, "lon": -97.156672, "proficiency": 0.1, "schoolCount": 1}, {"name": "Highmore", "lat": 44.516528, "lon": -99.442132, "proficiency": 0.695, "schoolCount": 1}, {"name": "Mobridge", "lat": 45.543087, "lon": -100.433404, "proficiency": 0.445, "schoolCount": 1}, {"name": "Corsica", "lat": 43.423638, "lon": -98.399435, "proficiency": 0.245, "schoolCount": 1}]}