{"state": "TN", "stateName": "Tennessee", "year": 2020, "naep": {"text": "7 out of 10", "numerator": 7, "denominator": 10}, "schools": [{"name": "East Ridge Middle School", "lat": 36.2672, "lon": -83.1838, "proficiency": 0.37, "district": "Hamblen County", "city": "Whitesburg", "ncessch": "470000100479"}, {"name": "West View Middle School", "lat": 36.17172, "lon": -83.34812, "proficiency": 0.32, "district": "Hamblen County", "city": "Morristown", "ncessch": "470000101271"}, {"name": "Lincoln Heights Middle School", "lat": 36.201279, "lon": -83.287083, "proficiency": 0.27, "district": "Hamblen County", "city": "Morristown", "ncessch": "470000101933"}, {"name": "Meadowview Middle School", "lat": 36.2282, "lon": -83.2749, "proficiency": 0.27, "district": "Hamblen County", "city": "Morristown", "ncessch": "470000101934"}, {"name": "Alcoa Middle School", "lat": 35.79198, "lon": -83.980171, "proficiency": 0.37, "district": "Alcoa", "city": "Alcoa", "ncessch": "470006000236"}, {"name": "Clinton Middle School", "lat": 36.101337, "lon": -84.13582, "proficiency": 0.27, "district": "Anderson County", "city": "Clinton", "ncessch": "470009000007"}, {"name": "Lake City Middle School", "lat": 36.209341, "lon": -84.146753, "proficiency": 0.27, "district": "Anderson County", "city": "Lake City", "ncessch": "470009000015"}, {"name": "Norris Middle School", "lat": 36.195672, "lon": -84.070274, "proficiency": 0.12, "district": "Anderson County", "city": "Norris", "ncessch": "470009000019"}, {"name": "Norwood Middle School", "lat": 36.030311, "lon": -84.325128, "proficiency": 0.15, "district": "Anderson County", "city": "Oliver Springs", "ncessch": "470009000021"}, {"name": "Athens City Middle School", "lat": 35.43519, "lon": -84.606175, "proficiency": 0.52, "district": "Athens", "city": "Athens", "ncessch": "470012000025"}, {"name": "Tenn School For Blind", "lat": 36.167611, "lon": -86.653802, "proficiency": 0.245, "district": "Tennessee School for Blind", "city": "Nashville", "ncessch": "470014502138"}, {"name": "Tennessee School For Deaf Elementary School", "lat": 35.9581, "lon": -83.8777, "proficiency": -0.03, "district": "Tennessee Schools for the Deaf", "city": "Knoxville", "ncessch": "470014602124"}, {"name": "Tennessee School for the Deaf Upper School", "lat": 35.9581, "lon": -83.8777, "proficiency": 0.245, "district": "Tennessee Schools for the Deaf", "city": "Knoxville", "ncessch": "470014602140"}, {"name": "Journey Coleman School", "lat": 35.213784, "lon": -89.923569, "proficiency": 0.05, "district": "Achievement School District", "city": "Memphis", "ncessch": "470014701034"}, {"name": "Wooddale Middle School", "lat": 35.05412, "lon": -89.891937, "proficiency": 0.075, "district": "Achievement School District", "city": "Memphis", "ncessch": "470014701187"}, {"name": "Humes Preparatory Academy Middle School", "lat": 35.158802, "lon": -90.033471, "proficiency": 0.075, "district": "Achievement School District", "city": "Memphis", "ncessch": "470014702304"}, {"name": "Brick Church: A LEAD Public School", "lat": 36.220505, "lon": -86.781436, "proficiency": 0.025, "district": "Achievement School District", "city": "Nashville", "ncessch": "470014702309"}, {"name": "Westside Middle School", "lat": 35.218132, "lon": -90.036912, "proficiency": 0.075, "district": "Achievement School District", "city": "Memphis", "ncessch": "470014702315"}, {"name": "Neely's Bend: A LEAD Public School", "lat": 36.242204, "lon": -86.674236, "proficiency": 0.025, "district": "Achievement School District", "city": "Madison", "ncessch": "470014702456"}, {"name": "Memphis Scholars Raleigh-Egypt", "lat": 35.110105, "lon": -90.06713, "proficiency": 0.1, "district": "Achievement School District", "city": "Memphis", "ncessch": "470014702458"}, {"name": "Kirby Middle School", "lat": 35.03609, "lon": -89.840895, "proficiency": 0.025, "district": "Achievement School District", "city": "Memphis", "ncessch": "470014702461"}, {"name": "Cordova Middle", "lat": 35.1489, "lon": -89.7697, "proficiency": 0.025, "district": "Memphis-Shelby County Schools", "city": "Cordova", "ncessch": "470014800176"}, {"name": "Ida B. Wells Academy ES/MS", "lat": 35.1199, "lon": -90.0446, "proficiency": 0.1, "district": "Memphis-Shelby County Schools", "city": "Memphis", "ncessch": "470014800861"}, {"name": "B. T. Washington High", "lat": 35.128297, "lon": -90.044995, "proficiency": 0.05, "district": "Memphis-Shelby County Schools", "city": "Memphis", "ncessch": "470014801016"}, {"name": "Bellevue Middle", "lat": 35.1308, "lon": -90.0216, "proficiency": 0.12, "district": "Memphis-Shelby County Schools", "city": "Memphis", "ncessch": "470014801018"}, {"name": "Chickasaw Middle", "lat": 35.0379, "lon": -90.0916, "proficiency": 0.025, "district": "Memphis-Shelby County Schools", "city": "Memphis", "ncessch": "470014801032"}, {"name": "Colonial Middle", "lat": 35.0942, "lon": -89.9009, "proficiency": 0.08, "district": "Memphis-Shelby County Schools", "city": "Memphis", "ncessch": "470014801036"}, {"name": "Cummings Elementary/Middle", "lat": 35.1189, "lon": -90.0283, "proficiency": 0.05, "district": "Memphis-Shelby County Schools", "city": "Memphis", "ncessch": "470014801043"}, {"name": "Douglass Elementary/Middle", "lat": 35.1774, "lon": -89.9532, "proficiency": 0.05, "district": "Memphis-Shelby County Schools", "city": "Memphis", "ncessch": "470014801048"}, {"name": "Georgian Hills Middle", "lat": 35.2332, "lon": -89.9961, "proficiency": 0.025, "district": "Memphis-Shelby County Schools", "city": "Memphis", "ncessch": "470014801069"}, {"name": "Havenview Middle", "lat": 35.0091, "lon": -90.0144, "proficiency": 0.025, "district": "Memphis-Shelby County Schools", "city": "Memphis", "ncessch": "470014801083"}, {"name": "Riverview Elementary/Middle", "lat": 35.0967, "lon": -90.0709, "proficiency": 0.05, "district": "Memphis-Shelby County Schools", "city": "Memphis", "ncessch": "470014801144"}, {"name": "Sherwood Middle", "lat": 35.099689, "lon": -89.9464, "proficiency": 0.025, "district": "Memphis-Shelby County Schools", "city": "Memphis", "ncessch": "470014801156"}, {"name": "Shrine School", "lat": 35.058658, "lon": -89.920633, "proficiency": -0.03, "district": "Memphis-Shelby County Schools", "city": "Memphis", "ncessch": "470014801157"}, {"name": "Snowden Elementary/Middle", "lat": 35.1529, "lon": -89.9969, "proficiency": 0.075, "district": "Memphis-Shelby County Schools", "city": "Memphis", "ncessch": "470014801158"}, {"name": "Barret's Chapel Elementary/Middle", "lat": 35.3488, "lon": -89.7195, "proficiency": 0.05, "district": "Memphis-Shelby County Schools", "city": "Arlington", "ncessch": "470014801568"}, {"name": "E.E. Jeter Elementary/Middle", "lat": 35.3318, "lon": -90.0296, "proficiency": 0.05, "district": "Memphis-Shelby County Schools", "city": "Millington", "ncessch": "470014801577"}, {"name": "Germantown Middle", "lat": 35.0734, "lon": -89.7997, "proficiency": 0.075, "district": "Memphis-Shelby County Schools", "city": "Germantown", "ncessch": "470014801583"}, {"name": "Mt. Pisgah Middle/High", "lat": 35.165516, "lon": -89.710401, "proficiency": 0.075, "district": "Memphis-Shelby County Schools", "city": "Cordova", "ncessch": "470014801590"}, {"name": "Woodstock Middle School", "lat": 35.2871, "lon": -89.9759, "proficiency": 0.075, "district": "Memphis-Shelby County Schools", "city": "Millington", "ncessch": "470014801595"}, {"name": "Hickory Ridge Middle", "lat": 35.0426, "lon": -89.8554, "proficiency": 0.025, "district": "Memphis-Shelby County Schools", "city": "Memphis", "ncessch": "470014801615"}, {"name": "Ridgeway Middle", "lat": 35.0783, "lon": -89.8525, "proficiency": 0.075, "district": "Memphis-Shelby County Schools", "city": "Memphis", "ncessch": "470014801625"}, {"name": "Dexter Middle", "lat": 35.163972, "lon": -89.827503, "proficiency": 0.075, "district": "Memphis-Shelby County Schools", "city": "Cordova", "ncessch": "470014801910"}, {"name": "Craigmont Middle", "lat": 35.2202, "lon": -89.8953, "proficiency": 0.025, "district": "Memphis-Shelby County Schools", "city": "Memphis", "ncessch": "470014801927"}, {"name": "KIPP Memphis Collegiate Middle", "lat": 35.16686, "lon": -90.040048, "proficiency": 0.12, "district": "Memphis-Shelby County Schools", "city": "Memphis", "ncessch": "470014801928"}, {"name": "A. Maceo Walker Middle", "lat": 35.0365, "lon": -90.0011, "proficiency": 0.075, "district": "Memphis-Shelby County Schools", "city": "Memphis", "ncessch": "470014801939"}, {"name": "White Station Middle", "lat": 35.1391, "lon": -89.8803, "proficiency": 0.34, "district": "Memphis-Shelby County Schools", "city": "Memphis", "ncessch": "470014801960"}, {"name": "J. P. Freeman Elementary/Middle", "lat": 35.0042, "lon": -90.0418, "proficiency": 0.42, "district": "Memphis-Shelby County Schools", "city": "Memphis", "ncessch": "470014801983"}, {"name": "American Way Middle", "lat": 35.0755, "lon": -89.9362, "proficiency": 0.025, "district": "Memphis-Shelby County Schools", "city": "Memphis", "ncessch": "470014802040"}, {"name": "Memphis Academy Of Science Engineering Middle/High", "lat": 35.143183, "lon": -90.019283, "proficiency": 0.025, "district": "Memphis-Shelby County Schools", "city": "Memphis", "ncessch": "470014802045"}, {"name": "Memphis Academy Of Health Sciences", "lat": 35.232404, "lon": -89.942488, "proficiency": 0.025, "district": "Memphis-Shelby County Schools", "city": "Memphis", "ncessch": "470014802046"}, {"name": "Memphis Business Academy Middle", "lat": 35.21565, "lon": -89.993129, "proficiency": 0.025, "district": "Memphis-Shelby County Schools", "city": "Memphis", "ncessch": "470014802084"}, {"name": "Soulsville Charter School", "lat": 35.116437, "lon": -90.032372, "proficiency": 0.075, "district": "Memphis-Shelby County Schools", "city": "Memphis", "ncessch": "470014802088"}, {"name": "Kingsbury Middle", "lat": 35.166845, "lon": -89.925691, "proficiency": 0.025, "district": "Memphis-Shelby County Schools", "city": "Memphis", "ncessch": "470014802126"}, {"name": "Oakhaven Middle", "lat": 35.046235, "lon": -89.959698, "proficiency": 0.025, "district": "Memphis-Shelby County Schools", "city": "Memphis", "ncessch": "470014802148"}, {"name": "Power Center Academy Middle", "lat": 35.049568, "lon": -89.882339, "proficiency": 0.12, "district": "Memphis-Shelby County Schools", "city": "Memphis", "ncessch": "470014802171"}, {"name": "Highland Oaks Middle", "lat": 34.995735, "lon": -89.810889, "proficiency": 0.075, "district": "Memphis-Shelby County Schools", "city": "Memphis", "ncessch": "470014802199"}, {"name": "Lowrance Elementary/Middle", "lat": 35.0364, "lon": -89.8057, "proficiency": 0.025, "district": "Memphis-Shelby County Schools", "city": "Memphis", "ncessch": "470014802200"}, {"name": "Freedom Preparatory Academy Flagship", "lat": 35.0088, "lon": -90.0739, "proficiency": 0.075, "district": "Memphis-Shelby County Schools", "city": "Memphis", "ncessch": "470014802208"}, {"name": "Treadwell Middle School", "lat": 35.1579, "lon": -89.9437, "proficiency": 0.12, "district": "Memphis-Shelby County Schools", "city": "Memphis", "ncessch": "470014802217"}, {"name": "Carver College and Career Academy", "lat": 35.104483, "lon": -90.068021, "proficiency": 0.1, "district": "Memphis-Shelby County Schools", "city": "Memphis", "ncessch": "470014802221"}, {"name": "Memphis School of Excellence", "lat": 35.049145, "lon": -89.898467, "proficiency": 0.025, "district": "Memphis-Shelby County Schools", "city": "Memphis", "ncessch": "470014802245"}, {"name": "Veritas College Preparatory", "lat": 35.093133, "lon": -90.012933, "proficiency": 0.05, "district": "Memphis-Shelby County Schools", "city": "Memphis", "ncessch": "470014802248"}, {"name": "Memphis Virtual School", "lat": 35.060253, "lon": -89.911159, "proficiency": -0.03, "district": "Memphis-Shelby County Schools", "city": "Memphis", "ncessch": "470014802271"}, {"name": "Kate Bond Middle School", "lat": 35.1995, "lon": -89.8061, "proficiency": 0.02, "district": "Memphis-Shelby County Schools", "city": "Memphis", "ncessch": "470014802272"}, {"name": "Grandview Heights Middle School", "lat": 35.2074, "lon": -89.9859, "proficiency": 0.075, "district": "Memphis-Shelby County Schools", "city": "Memphis", "ncessch": "470014802287"}, {"name": "KIPP Memphis Academy Middle", "lat": 35.167673, "lon": -89.988019, "proficiency": 0.025, "district": "Memphis-Shelby County Schools", "city": "Memphis", "ncessch": "470014802299"}, {"name": "Memphis Grizzlies Preparatory Charter School", "lat": 35.146843, "lon": -90.049734, "proficiency": 0.025, "district": "Memphis-Shelby County Schools", "city": "Memphis", "ncessch": "470014802300"}, {"name": "City University School Girls Preparatory", "lat": 35.018817, "lon": -90.0154, "proficiency": 0.05, "district": "Memphis-Shelby County Schools", "city": "Memphis", "ncessch": "470014802352"}, {"name": "Maxine Smith STEAM Academy", "lat": 35.1252, "lon": -89.9823, "proficiency": 0.37, "district": "Memphis-Shelby County Schools", "city": "Memphis", "ncessch": "470014802379"}, {"name": "Memphis Rise Academy", "lat": 35.189072, "lon": -89.890039, "proficiency": 0.12, "district": "Memphis-Shelby County Schools", "city": "Memphis", "ncessch": "470014802418"}, {"name": "Granville T. Woods Academy of Innovation Charter School", "lat": 35.229903, "lon": -89.898635, "proficiency": 0.05, "district": "Memphis-Shelby County Schools", "city": "Memphis", "ncessch": "470014802452"}, {"name": "Power Center Academy Middle - Southeast", "lat": 35.021441, "lon": -89.791207, "proficiency": 0.025, "district": "Memphis-Shelby County Schools", "city": "Memphis", "ncessch": "470014802474"}, {"name": "Geeter School", "lat": 35.021718, "lon": -90.069068, "proficiency": 0.025, "district": "Memphis-Shelby County Schools", "city": "Memphis", "ncessch": "470014802499"}, {"name": "Memphis Business Academy Hickory Hill Middle School", "lat": 35.027149, "lon": -89.8227, "proficiency": 0.1, "district": "Memphis-Shelby County Schools", "city": "Memphis", "ncessch": "470014802539"}, {"name": "Freedom Prep Middle - Brownlee", "lat": 35.032022, "lon": -90.036586, "proficiency": 0.025, "district": "Memphis-Shelby County Schools", "city": "Memphis", "ncessch": "470014802565"}, {"name": "Compass Community School Orange Mound Campus", "lat": 35.097776, "lon": -89.97196, "proficiency": 0.245, "district": "Memphis-Shelby County Schools", "city": "Memphis", "ncessch": "470014802582"}, {"name": "Compass Community School Berclair Campus", "lat": 35.147533, "lon": -89.931781, "proficiency": 0.1, "district": "Memphis-Shelby County Schools", "city": "Memphis", "ncessch": "470014802585"}, {"name": "Compass Community School Binghampton Campus", "lat": 35.143746, "lon": -89.975624, "proficiency": 0.1, "district": "Memphis-Shelby County Schools", "city": "Memphis", "ncessch": "470014802589"}, {"name": "Compass Community School Hickory Hill Campus", "lat": 35.051955, "lon": -89.88013, "proficiency": 0.1, "district": "Memphis-Shelby County Schools", "city": "Memphis", "ncessch": "470014802594"}, {"name": "Raleigh Egypt Middle School", "lat": 35.240712, "lon": -89.930182, "proficiency": 0.025, "district": "Memphis-Shelby County Schools", "city": "Memphis", "ncessch": "470014802601"}, {"name": "Compass Community School Frayser Campus", "lat": 35.226606, "lon": -90.021263, "proficiency": 0.3, "district": "Memphis-Shelby County Schools", "city": "Memphis", "ncessch": "470014802605"}, {"name": "Hamilton School", "lat": 35.105695, "lon": -90.017969, "proficiency": 0.075, "district": "Memphis-Shelby County Schools", "city": "Memphis", "ncessch": "470014802609"}, {"name": "Compass Community School Midtown Campus", "lat": 35.139813, "lon": -89.999986, "proficiency": 0.1, "district": "Memphis-Shelby County Schools", "city": "Memphis", "ncessch": "470014802611"}, {"name": "West Collierville Middle School", "lat": 35.070387, "lon": -89.687248, "proficiency": 0.48, "district": "Collierville", "city": "Collierville", "ncessch": "470014901134"}, {"name": "Collierville Middle School", "lat": 35.028983, "lon": -89.660691, "proficiency": 0.42, "district": "Collierville", "city": "Collierville", "ncessch": "470014901575"}, {"name": "Riverdale Elementary School", "lat": 35.101518, "lon": -89.816887, "proficiency": 0.32, "district": "Germantown", "city": "Germantown", "ncessch": "470015101591"}, {"name": "Houston Middle School", "lat": 35.096576, "lon": -89.74859, "proficiency": 0.42, "district": "Germantown", "city": "Germantown", "ncessch": "470015102018"}, {"name": "Arlington Middle", "lat": 35.276137, "lon": -89.69152, "proficiency": 0.62, "district": "Arlington", "city": "Arlington", "ncessch": "470015201358"}, {"name": "Appling Middle School", "lat": 35.226535, "lon": -89.806346, "proficiency": 0.42, "district": "Bartlett", "city": "Bartlett", "ncessch": "470015300415"}, {"name": "Elmore Park Middle School", "lat": 35.19747, "lon": -89.853449, "proficiency": 0.32, "district": "Bartlett", "city": "Bartlett", "ncessch": "470015301579"}, {"name": "Bon Lin Middle School", "lat": 35.23135, "lon": -89.790765, "proficiency": 0.47, "district": "Bartlett", "city": "Bartlett", "ncessch": "470015302161"}, {"name": "Lakeland Preparatory School", "lat": 35.26324, "lon": -89.747537, "proficiency": 0.57, "district": "Lakeland", "city": "Lakeland", "ncessch": "470015402476"}, {"name": "Harris Middle School", "lat": 35.488, "lon": -86.4151, "proficiency": 0.22, "district": "Bedford County", "city": "Shelbyville", "ncessch": "470018000037"}, {"name": "Liberty Elementary", "lat": 35.4297, "lon": -86.5101, "proficiency": 0.37, "district": "Bedford County", "city": "Shelbyville", "ncessch": "470018000042"}, {"name": "Community Middle School", "lat": 35.613129, "lon": -86.581946, "proficiency": 0.32, "district": "Bedford County", "city": "Unionville", "ncessch": "470018002218"}, {"name": "Cascade Middle School", "lat": 35.566959, "lon": -86.358838, "proficiency": 0.47, "district": "Bedford County", "city": "Wartrace", "ncessch": "470018002276"}, {"name": "Big Sandy School", "lat": 36.2286, "lon": -88.0866, "proficiency": 0.3, "district": "Benton County", "city": "Big Sandy", "ncessch": "470024000049"}, {"name": "Holladay Elementary", "lat": 35.870434, "lon": -88.145661, "proficiency": 0.245, "district": "Benton County", "city": "Holladay", "ncessch": "470024000053"}, {"name": "Camden Jr High School", "lat": 36.0717, "lon": -88.1046, "proficiency": 0.42, "district": "Benton County", "city": "Camden", "ncessch": "470024001033"}, {"name": "Bledsoe County Middle School", "lat": 35.5839, "lon": -85.2178, "proficiency": 0.27, "district": "Bledsoe County", "city": "Pikeville", "ncessch": "470027001035"}, {"name": "Heritage Middle School", "lat": 35.761038, "lon": -83.864916, "proficiency": 0.27, "district": "Blount County", "city": "Maryville", "ncessch": "470030001041"}, {"name": "Carpenters Middle School", "lat": 35.677675, "lon": -84.029219, "proficiency": 0.37, "district": "Blount County", "city": "Maryville", "ncessch": "470030001387"}, {"name": "Union Grove Middle School", "lat": 35.74711, "lon": -84.073356, "proficiency": 0.32, "district": "Blount County", "city": "Friendsville", "ncessch": "470030001652"}, {"name": "Samuel Everett School of Innovation", "lat": 35.768734, "lon": -83.954404, "proficiency": 0.75, "district": "Blount County", "city": "Maryville", "ncessch": "470030002557"}, {"name": "Ocoee Middle School", "lat": 35.174427, "lon": -84.867592, "proficiency": 0.36, "district": "Bradley County", "city": "Cleveland", "ncessch": "470033000089"}, {"name": "Lake Forest Middle School", "lat": 35.107468, "lon": -84.847021, "proficiency": 0.37, "district": "Bradley County", "city": "Cleveland", "ncessch": "470033000104"}, {"name": "Bradley County Virtual School", "lat": 35.175584, "lon": -84.864068, "proficiency": 0.1, "district": "Bradley County", "city": "Cleveland", "ncessch": "470033002312"}, {"name": "Bristol Tennessee Middle School", "lat": 36.584086, "lon": -82.177956, "proficiency": 0.42, "district": "Bristol", "city": "Bristol", "ncessch": "470036000114"}, {"name": "Elk Valley Elementary", "lat": 36.4825, "lon": -84.2527, "proficiency": 0.245, "district": "Campbell County", "city": "Pioneer", "ncessch": "470042000121"}, {"name": "Jacksboro Middle School", "lat": 36.332524, "lon": -84.190752, "proficiency": 0.27, "district": "Campbell County", "city": "Jacksboro", "ncessch": "470042000123"}, {"name": "Jellico Elementary", "lat": 36.5752, "lon": -84.1295, "proficiency": 0.1, "district": "Campbell County", "city": "Jellico", "ncessch": "470042000124"}, {"name": "Lafollette Middle School", "lat": 36.389883, "lon": -84.103023, "proficiency": 0.075, "district": "Campbell County", "city": "La Follette", "ncessch": "470042000127"}, {"name": "White Oak Elementary", "lat": 36.533303, "lon": -84.031696, "proficiency": 0.245, "district": "Campbell County", "city": "Duff", "ncessch": "470042000136"}, {"name": "Wynn Habersham Elementary", "lat": 36.4983, "lon": -84.0724, "proficiency": 0.3, "district": "Campbell County", "city": "Duff", "ncessch": "470042000138"}, {"name": "Auburn Elementary", "lat": 35.945473, "lon": -86.097522, "proficiency": 0.245, "district": "Cannon County", "city": "Auburntown", "ncessch": "470045000139"}, {"name": "East Side Elementary", "lat": 35.786194, "lon": -85.99422, "proficiency": 0.3, "district": "Cannon County", "city": "Woodbury", "ncessch": "470045000141"}, {"name": "Short Mountain Elementary", "lat": 35.843277, "lon": -85.9461, "proficiency": 0.245, "district": "Cannon County", "city": "Woodbury", "ncessch": "470045000142"}, {"name": "West Side Elementary", "lat": 35.818936, "lon": -86.150006, "proficiency": 0.15, "district": "Cannon County", "city": "Readyville", "ncessch": "470045000143"}, {"name": "Woodbury Grammar", "lat": 35.823009, "lon": -86.076302, "proficiency": 0.245, "district": "Cannon County", "city": "Woodbury", "ncessch": "470045000144"}, {"name": "Woodland Elementary", "lat": 35.711777, "lon": -86.057512, "proficiency": 0.1, "district": "Cannon County", "city": "Bradyville", "ncessch": "470045000145"}, {"name": "Central Elementary", "lat": 36.332363, "lon": -82.287551, "proficiency": 0.1, "district": "Carter County", "city": "Johnson City", "ncessch": "470051000151"}, {"name": "Cloudland High School", "lat": 36.193559, "lon": -82.063416, "proficiency": 0.05, "district": "Carter County", "city": "Roan Mountain", "ncessch": "470051000153"}, {"name": "Hampton Elementary", "lat": 36.2849, "lon": -82.1672, "proficiency": 0.17, "district": "Carter County", "city": "Hampton", "ncessch": "470051000154"}, {"name": "Happy Valley Middle School", "lat": 36.3137, "lon": -82.2813, "proficiency": 0.22, "district": "Carter County", "city": "Elizabethton", "ncessch": "470051000158"}, {"name": "Hunter Elementary", "lat": 36.372438, "lon": -82.159848, "proficiency": 0.245, "district": "Carter County", "city": "Elizabethton", "ncessch": "470051000159"}, {"name": "Keenburg Elementary", "lat": 36.3782, "lon": -82.2213, "proficiency": 0.245, "district": "Carter County", "city": "Elizabethton", "ncessch": "470051000160"}, {"name": "Little Milligan", "lat": 36.3138, "lon": -82.0201, "proficiency": 0.245, "district": "Carter County", "city": "Butler", "ncessch": "470051000161"}, {"name": "Unaka Elementary", "lat": 36.4067, "lon": -82.093, "proficiency": 0.1, "district": "Carter County", "city": "Elizabethton", "ncessch": "470051000166"}, {"name": "Sycamore Middle School", "lat": 36.368183, "lon": -87.049217, "proficiency": 0.27, "district": "Cheatham County", "city": "Pleasant View", "ncessch": "470057000361"}, {"name": "Cheatham Middle School", "lat": 36.306048, "lon": -87.074082, "proficiency": 0.37, "district": "Cheatham County", "city": "Ashland City", "ncessch": "470057000888"}, {"name": "Harpeth Middle School", "lat": 36.091909, "lon": -87.095785, "proficiency": 0.27, "district": "Cheatham County", "city": "Kingston Springs", "ncessch": "470057000890"}, {"name": "Riverside Academy", "lat": 36.271518, "lon": -87.063239, "proficiency": 0.245, "district": "Cheatham County", "city": "Ashland City", "ncessch": "470057002454"}, {"name": "Chester County Junior High School", "lat": 35.4441, "lon": -88.6169, "proficiency": 0.52, "district": "Chester County", "city": "Henderson", "ncessch": "470060000238"}, {"name": "Clairfield Elementary", "lat": 36.568402, "lon": -83.926246, "proficiency": -0.03, "district": "Claiborne County", "city": "Clairfield", "ncessch": "470063000245"}, {"name": "Forge Ridge School", "lat": 36.573595, "lon": -83.580459, "proficiency": 0.1, "district": "Claiborne County", "city": "Harrogate", "ncessch": "470063000247"}, {"name": "H. Y. Livesay Middle School", "lat": 36.5578, "lon": -83.6591, "proficiency": 0.57, "district": "Claiborne County", "city": "Harrogate", "ncessch": "470063000249"}, {"name": "Midway Elementary", "lat": 36.441175, "lon": -83.685434, "proficiency": 0.15, "district": "Claiborne County", "city": "New Tazewell", "ncessch": "470063000251"}, {"name": "Powell Valley Elementary", "lat": 36.502381, "lon": -83.790183, "proficiency": 0.15, "district": "Claiborne County", "city": "Speedwell", "ncessch": "470063000252"}, {"name": "Soldiers Memorial Middle School", "lat": 36.4521, "lon": -83.5814, "proficiency": 0.17, "district": "Claiborne County", "city": "Tazewell", "ncessch": "470063000254"}, {"name": "Claiborne Virtual Learning Academy", "lat": 36.448997, "lon": -83.579038, "proficiency": 0.245, "district": "Claiborne County", "city": "Tazewell", "ncessch": "470063002613"}, {"name": "Celina K-8", "lat": 36.5389, "lon": -85.508, "proficiency": 0.345, "district": "Clay County", "city": "Celina", "ncessch": "470066000258"}, {"name": "Hermitage Springs Elementary School", "lat": 36.576, "lon": -85.7824, "proficiency": 0.245, "district": "Clay County", "city": "Red Boiling Springs", "ncessch": "470066000261"}, {"name": "Cleveland Middle", "lat": 35.2047, "lon": -84.8904, "proficiency": 0.28, "district": "Cleveland", "city": "Cleveland", "ncessch": "470069000266"}, {"name": "Bridgeport Elementary", "lat": 35.9493, "lon": -83.1284, "proficiency": 0.345, "district": "Cocke County", "city": "Newport", "ncessch": "470075000273"}, {"name": "Centerview Elementary", "lat": 36.0854, "lon": -83.1646, "proficiency": 0.345, "district": "Cocke County", "city": "Newport", "ncessch": "470075000274"}, {"name": "Cosby Elementary", "lat": 35.841017, "lon": -83.224682, "proficiency": 0.245, "district": "Cocke County", "city": "Cosby", "ncessch": "470075000277"}, {"name": "Del Rio Elementary", "lat": 35.902, "lon": -83.0144, "proficiency": 0.3, "district": "Cocke County", "city": "Del Rio", "ncessch": "470075000278"}, {"name": "Edgemont Elementary", "lat": 35.9621, "lon": -83.2553, "proficiency": 0.22, "district": "Cocke County", "city": "Newport", "ncessch": "470075000279"}, {"name": "Grassy Fork Elementary", "lat": 35.8434, "lon": -83.0966, "proficiency": 0.695, "district": "Cocke County", "city": "Hartford", "ncessch": "470075000280"}, {"name": "Northwest Elementary", "lat": 35.989883, "lon": -83.176959, "proficiency": 0.05, "district": "Cocke County", "city": "Newport", "ncessch": "470075000282"}, {"name": "Parrottsville Elementary", "lat": 36.005873, "lon": -83.098441, "proficiency": 0.12, "district": "Cocke County", "city": "Parrottsville", "ncessch": "470075000283"}, {"name": "Smoky Mountain Elementary", "lat": 35.7913, "lon": -83.2344, "proficiency": 0.75, "district": "Cocke County", "city": "Cosby", "ncessch": "470075000284"}, {"name": "Coffee County Middle School", "lat": 35.530528, "lon": -86.083531, "proficiency": 0.15, "district": "Coffee County", "city": "Manchester", "ncessch": "470078000286"}, {"name": "Crockett County Middle School", "lat": 35.7981, "lon": -89.15, "proficiency": 0.47, "district": "Crockett County", "city": "Alamo", "ncessch": "470085001920"}, {"name": "Crab Orchard Elementary", "lat": 35.912049, "lon": -84.897785, "proficiency": 0.245, "district": "Cumberland County", "city": "Crab Orchard", "ncessch": "470090000301"}, {"name": "Glenn Martin Elementary", "lat": 35.9414, "lon": -85.0342, "proficiency": 0.42, "district": "Cumberland County", "city": "Crossville", "ncessch": "470090000305"}, {"name": "Homestead Elementary School", "lat": 35.903, "lon": -84.984, "proficiency": 0.57, "district": "Cumberland County", "city": "Crossville", "ncessch": "470090000306"}, {"name": "Pine View Elementary", "lat": 35.8725, "lon": -84.7656, "proficiency": 0.245, "district": "Cumberland County", "city": "Rockwood", "ncessch": "470090000309"}, {"name": "Pleasant Hill Elementary", "lat": 35.977356, "lon": -85.194777, "proficiency": 0.245, "district": "Cumberland County", "city": "Pleasant Hill", "ncessch": "470090000310"}, {"name": "Stone Elementary", "lat": 35.9674, "lon": -85.0073, "proficiency": 0.62, "district": "Cumberland County", "city": "Crossville", "ncessch": "470090001050"}, {"name": "South Cumberland Elementary", "lat": 35.9086, "lon": -85.0641, "proficiency": 0.445, "district": "Cumberland County", "city": "Crossville", "ncessch": "470090001835"}, {"name": "North Cumberland Elementary", "lat": 36.0519, "lon": -85.0584, "proficiency": 0.445, "district": "Cumberland County", "city": "Crossville", "ncessch": "470090001877"}, {"name": "Frank P. Brown Elementary", "lat": 35.8575, "lon": -85.0588, "proficiency": 0.445, "district": "Cumberland County", "city": "Crossville", "ncessch": "470090002052"}, {"name": "Dayton City Elementary", "lat": 35.486989, "lon": -85.017367, "proficiency": 0.47, "district": "Dayton", "city": "Dayton", "ncessch": "470093000315"}, {"name": "Decatur County Middle School", "lat": 35.6109, "lon": -88.1222, "proficiency": 0.57, "district": "Decatur County", "city": "Parsons", "ncessch": "470096000319"}, {"name": "DeKalb Middle School", "lat": 35.9693, "lon": -85.8535, "proficiency": 0.12, "district": "DeKalb County", "city": "Smithville", "ncessch": "470099000323"}, {"name": "DeKalb West Elementary", "lat": 36.0062, "lon": -85.9932, "proficiency": 0.05, "district": "DeKalb County", "city": "Liberty", "ncessch": "470099000325"}, {"name": "New Directions Academy", "lat": 36.182155, "lon": -87.343336, "proficiency": 0.22, "district": "Dickson County", "city": "Charlotte", "ncessch": "470102000327"}, {"name": "Charlotte Middle School", "lat": 36.183, "lon": -87.3423, "proficiency": 0.37, "district": "Dickson County", "city": "Charlotte", "ncessch": "470102000328"}, {"name": "Dickson Middle School", "lat": 36.0736, "lon": -87.3818, "proficiency": 0.32, "district": "Dickson County", "city": "Dickson", "ncessch": "470102000331"}, {"name": "W James Middle School", "lat": 36.1074, "lon": -87.2174, "proficiency": 0.32, "district": "Dickson County", "city": "White Bluff", "ncessch": "470102000336"}, {"name": "Burns Middle School", "lat": 36.038939, "lon": -87.260606, "proficiency": 0.27, "district": "Dickson County", "city": "Burns", "ncessch": "470102002610"}, {"name": "Northview Middle School", "lat": 36.1139, "lon": -89.2832, "proficiency": 0.47, "district": "Dyer County", "city": "Newbern", "ncessch": "470105000339"}, {"name": "Three Oaks Middle School", "lat": 36.0497, "lon": -89.435, "proficiency": 0.42, "district": "Dyer County", "city": "Dyersburg", "ncessch": "470105000934"}, {"name": "Dyersburg Middle School", "lat": 36.033061, "lon": -89.353582, "proficiency": 0.52, "district": "Dyersburg", "city": "Dyersburg", "ncessch": "470108001402"}, {"name": "T A Dugger Junior High School", "lat": 36.3479, "lon": -82.229, "proficiency": 0.52, "district": "Elizabethton", "city": "Elizabethton", "ncessch": "470111000353"}, {"name": "Etowah Elementary", "lat": 35.3272, "lon": -84.5342, "proficiency": 0.445, "district": "Etowah", "city": "Etowah", "ncessch": "470114000356"}, {"name": "East Jr. High School", "lat": 35.2843, "lon": -89.3696, "proficiency": 0.025, "district": "Fayette County Public Schools", "city": "Somerville", "ncessch": "470117001411"}, {"name": "West Junior High School", "lat": 35.203883, "lon": -89.51509, "proficiency": 0.025, "district": "Fayette County Public Schools", "city": "Oakland", "ncessch": "470117001752"}, {"name": "Fayetteville Middle School", "lat": 35.1462, "lon": -86.5874, "proficiency": 0.12, "district": "Fayetteville", "city": "Fayetteville", "ncessch": "470120001470"}, {"name": "Allardt Elementary", "lat": 36.378, "lon": -84.8801, "proficiency": 0.245, "district": "Fentress County", "city": "Allardt", "ncessch": "470123000373"}, {"name": "Pine Haven Elementary", "lat": 36.449109, "lon": -84.937451, "proficiency": 0.245, "district": "Fentress County", "city": "Jamestown", "ncessch": "470123000381"}, {"name": "York Elementary", "lat": 36.4237, "lon": -84.9353, "proficiency": 0.495, "district": "Fentress County", "city": "Jamestown", "ncessch": "470123000383"}, {"name": "South Fentress Elementary School", "lat": 36.247018, "lon": -85.003025, "proficiency": 0.15, "district": "Fentress County", "city": "Grimsley", "ncessch": "470123002029"}, {"name": "Freedom Middle School", "lat": 35.9314, "lon": -86.8923, "proficiency": 0.57, "district": "Franklin SSD", "city": "Franklin", "ncessch": "470126000219"}, {"name": "Poplar Grove 5-8", "lat": 35.934294, "lon": -86.891911, "proficiency": 0.42, "district": "Franklin SSD", "city": "Franklin", "ncessch": "470126001385"}, {"name": "Huntland School", "lat": 35.0471, "lon": -86.2665, "proficiency": 0.17, "district": "Franklin County", "city": "Huntland", "ncessch": "470129000395"}, {"name": "North Middle School", "lat": 35.22327, "lon": -86.101435, "proficiency": 0.17, "district": "Franklin County", "city": "Winchester", "ncessch": "470129000399"}, {"name": "South Middle School", "lat": 35.163313, "lon": -86.033704, "proficiency": 0.12, "district": "Franklin County", "city": "Cowan", "ncessch": "470129000405"}, {"name": "Bradford High School", "lat": 36.0756, "lon": -88.814, "proficiency": 0.445, "district": "Bradford", "city": "Bradford", "ncessch": "470139000425"}, {"name": "Dyer Elementary", "lat": 36.068855, "lon": -88.98839, "proficiency": 0.445, "district": "Gibson Co Sp Dist", "city": "Dyer", "ncessch": "470140000411"}, {"name": "Rutherford Elementary", "lat": 36.129, "lon": -88.9872, "proficiency": 0.545, "district": "Gibson Co Sp Dist", "city": "Rutherford", "ncessch": "470140000419"}, {"name": "Spring Hill Elementary", "lat": 35.9841, "lon": -89.124, "proficiency": 0.495, "district": "Gibson Co Sp Dist", "city": "Trenton", "ncessch": "470140000421"}, {"name": "Yorkville Elementary", "lat": 36.092563, "lon": -89.119565, "proficiency": 0.245, "district": "Gibson Co Sp Dist", "city": "Yorkville", "ncessch": "470140000423"}, {"name": "South Gibson County Middle School", "lat": 35.8239, "lon": -88.8042, "proficiency": 0.62, "district": "Gibson Co Sp Dist", "city": "Medina", "ncessch": "470140001247"}, {"name": "Bridgeforth Middle School", "lat": 35.21, "lon": -87.0228, "proficiency": 0.22, "district": "Giles County", "city": "Pulaski", "ncessch": "470141000427"}, {"name": "Elkton Elementary", "lat": 35.057539, "lon": -86.89067, "proficiency": 0.15, "district": "Giles County", "city": "Elkton", "ncessch": "470141000428"}, {"name": "Minor Hill School", "lat": 35.0536, "lon": -87.1573, "proficiency": 0.445, "district": "Giles County", "city": "Minor Hill", "ncessch": "470141000430"}, {"name": "Richland School", "lat": 35.3364, "lon": -87.0318, "proficiency": 0.27, "district": "Giles County", "city": "Lynnville", "ncessch": "470141000433"}, {"name": "Washburn School", "lat": 36.2937, "lon": -83.5908, "proficiency": 0.15, "district": "Grainger County", "city": "Washburn", "ncessch": "470144000440"}, {"name": "Rutledge Middle School", "lat": 36.273837, "lon": -83.535512, "proficiency": 0.27, "district": "Grainger County", "city": "Rutledge", "ncessch": "470144002165"}, {"name": "Chuckey Doak Middle School", "lat": 36.1875, "lon": -82.7326, "proficiency": 0.47, "district": "Greene County", "city": "Afton", "ncessch": "470147002062"}, {"name": "North Greene Middle School", "lat": 36.267949, "lon": -82.869283, "proficiency": 0.22, "district": "Greene County", "city": "Greeneville", "ncessch": "470147002614"}, {"name": "South Greene Middle School", "lat": 36.113491, "lon": -82.876758, "proficiency": 0.42, "district": "Greene County", "city": "Greeneville", "ncessch": "470147002615"}, {"name": "West Greene Middle Schools", "lat": 36.19594, "lon": -82.956875, "proficiency": 0.22, "district": "Greene County", "city": "Mosheim", "ncessch": "470147002616"}, {"name": "Greeneville Middle School", "lat": 36.149, "lon": -82.8443, "proficiency": 0.37, "district": "Greeneville", "city": "Greeneville", "ncessch": "470150000468"}, {"name": "Coalmont Elementary", "lat": 35.34489, "lon": -85.700355, "proficiency": 0.1, "district": "Grundy County", "city": "Coalmont", "ncessch": "470153000463"}, {"name": "Palmer Elementary", "lat": 35.352903, "lon": -85.563806, "proficiency": 0.245, "district": "Grundy County", "city": "Palmer", "ncessch": "470153000471"}, {"name": "Pelham Elementary", "lat": 35.309506, "lon": -85.884593, "proficiency": 0.75, "district": "Grundy County", "city": "Pelham", "ncessch": "470153000472"}, {"name": "Swiss Memorial Elementary", "lat": 35.380994, "lon": -85.61157, "proficiency": 0.245, "district": "Grundy County", "city": "Gruetli- Laager", "ncessch": "470153000475"}, {"name": "North Elementary", "lat": 35.414648, "lon": -85.711075, "proficiency": 0.445, "district": "Grundy County", "city": "Altamont", "ncessch": "470153001838"}, {"name": "Tracy Elementary", "lat": 35.255778, "lon": -85.749342, "proficiency": 0.05, "district": "Grundy County", "city": "Tracy City", "ncessch": "470153001839"}, {"name": "Hunter Middle School", "lat": 35.11367, "lon": -85.091878, "proficiency": 0.42, "district": "Hamilton County", "city": "Ooltewah", "ncessch": "470159000374"}, {"name": "Loftis Middle School", "lat": 35.194823, "lon": -85.160423, "proficiency": 0.57, "district": "Hamilton County", "city": "Hixson", "ncessch": "470159000389"}, {"name": "Brown Middle School", "lat": 35.1095, "lon": -85.1393, "proficiency": 0.17, "district": "Hamilton County", "city": "Harrison", "ncessch": "470159000494"}, {"name": "East Ridge Middle School", "lat": 34.987687, "lon": -85.244401, "proficiency": 0.12, "district": "Hamilton County", "city": "Chattanooga", "ncessch": "470159000502"}, {"name": "Ooltewah Middle School", "lat": 35.0633, "lon": -85.0642, "proficiency": 0.17, "district": "Hamilton County", "city": "Ooltewah", "ncessch": "470159000515"}, {"name": "Red Bank Middle School", "lat": 35.120845, "lon": -85.305362, "proficiency": 0.17, "district": "Hamilton County", "city": "Chattanooga", "ncessch": "470159000518"}, {"name": "Sale Creek Middle / High School", "lat": 35.382161, "lon": -85.104615, "proficiency": 0.37, "district": "Hamilton County", "city": "Sale Creek", "ncessch": "470159000520"}, {"name": "Signal Mountain Middle/High School", "lat": 35.161727, "lon": -85.368051, "proficiency": 0.57, "district": "Hamilton County", "city": "Signal Mountain", "ncessch": "470159000523"}, {"name": "Soddy Daisy Middle School", "lat": 35.263, "lon": -85.1715, "proficiency": 0.22, "district": "Hamilton County", "city": "Soddy Daisy", "ncessch": "470159000526"}, {"name": "Normal Park Museum Magnet School", "lat": 35.076841, "lon": -85.301525, "proficiency": 0.27, "district": "Hamilton County", "city": "Chattanooga", "ncessch": "470159000650"}, {"name": "Chatt High Center For Creative Arts", "lat": 35.0796, "lon": -85.3035, "proficiency": 0.27, "district": "Hamilton County", "city": "Chattanooga", "ncessch": "470159000666"}, {"name": "Chattanooga School For Arts And Sciences Upper", "lat": 35.0502, "lon": -85.295, "proficiency": 0.52, "district": "Hamilton County", "city": "Chattanooga", "ncessch": "470159000669"}, {"name": "Dalewood Middle School", "lat": 35.041, "lon": -85.2214, "proficiency": 0.12, "district": "Hamilton County", "city": "Chattanooga", "ncessch": "470159000704"}, {"name": "Hixson Middle School", "lat": 35.152841, "lon": -85.223627, "proficiency": 0.37, "district": "Hamilton County", "city": "Hixson", "ncessch": "470159000751"}, {"name": "Chattanooga School For The Liberal Arts", "lat": 35.091247, "lon": -85.178385, "proficiency": 0.445, "district": "Hamilton County", "city": "Chattanooga", "ncessch": "470159000763"}, {"name": "Lookout Valley Middle / High School", "lat": 35.0334, "lon": -85.3655, "proficiency": 0.05, "district": "Hamilton County", "city": "Chattanooga", "ncessch": "470159000781"}, {"name": "Orchard Knob Middle", "lat": 35.044361, "lon": -85.276728, "proficiency": 0.025, "district": "Hamilton County", "city": "Chattanooga", "ncessch": "470159000801"}, {"name": "Tyner Middle Academy", "lat": 35.0623, "lon": -85.1536, "proficiency": 0.17, "district": "Hamilton County", "city": "Chattanooga", "ncessch": "470159000812"}, {"name": "East Lake Academy Of Fine Arts", "lat": 35.001389, "lon": -85.281988, "proficiency": 0.075, "district": "Hamilton County", "city": "Chattanooga", "ncessch": "470159001285"}, {"name": "Chattanooga Girls Leadership Academy", "lat": 35.03361, "lon": -85.277066, "proficiency": 0.445, "district": "Hamilton County", "city": "Chattanooga", "ncessch": "470159002211"}, {"name": "Ivy Academy Inc.", "lat": 35.221028, "lon": -85.221815, "proficiency": 0.22, "district": "Hamilton County", "city": "Soddy Daisy", "ncessch": "470159002220"}, {"name": "Hamilton County Virtual School", "lat": 35.073325, "lon": -85.154228, "proficiency": 0.245, "district": "Hamilton County", "city": "Chattanooga", "ncessch": "470159002285"}, {"name": "Chattanooga Charter School of Excellence Middle", "lat": 35.032968, "lon": -85.276647, "proficiency": 0.025, "district": "Hamilton County", "city": "Chattanooga", "ncessch": "470159002434"}, {"name": "Chattanooga Preparatory School", "lat": 35.033145, "lon": -85.277061, "proficiency": 0.12, "district": "Hamilton County", "city": "Chattanooga", "ncessch": "470159002510"}, {"name": "East Hamilton Middle School", "lat": 35.001274, "lon": -85.060284, "proficiency": 0.52, "district": "Hamilton County", "city": "Apison", "ncessch": "470159002617"}, {"name": "Hancock High School", "lat": 36.5432, "lon": -83.1983, "proficiency": 0.22, "district": "Hancock County", "city": "Sneedville", "ncessch": "470162000535"}, {"name": "Bolivar Middle School", "lat": 35.2522, "lon": -89.0005, "proficiency": 0.12, "district": "Hardeman County Schools", "city": "Bolivar", "ncessch": "470165000540"}, {"name": "Hornsby Elementary", "lat": 35.226626, "lon": -88.831214, "proficiency": 0.3, "district": "Hardeman County Schools", "city": "Hornsby", "ncessch": "470165000545"}, {"name": "Middleton High School", "lat": 35.063179, "lon": -88.895021, "proficiency": 0.12, "district": "Hardeman County Schools", "city": "Middleton", "ncessch": "470165000547"}, {"name": "Toone Elementary", "lat": 35.3548, "lon": -88.9523, "proficiency": 0.1, "district": "Hardeman County Schools", "city": "Toone", "ncessch": "470165000548"}, {"name": "Whiteville Elementary", "lat": 35.31827, "lon": -89.145213, "proficiency": 0.1, "district": "Hardeman County Schools", "city": "Whiteville", "ncessch": "470165000550"}, {"name": "Hardin County Middle School", "lat": 35.2048, "lon": -88.2511, "proficiency": 0.37, "district": "Hardin County", "city": "Savannah", "ncessch": "470168000554"}, {"name": "Pickwick Southside School", "lat": 35.0429, "lon": -88.3475, "proficiency": 0.3, "district": "Hardin County", "city": "Counce", "ncessch": "470168000559"}, {"name": "Bulls Gap School", "lat": 36.2625, "lon": -83.0849, "proficiency": 0.345, "district": "Hawkins County", "city": "Bulls Gap", "ncessch": "470174000572"}, {"name": "Church Hill Middle School", "lat": 36.5255, "lon": -82.7101, "proficiency": 0.32, "district": "Hawkins County", "city": "Church Hill", "ncessch": "470174000575"}, {"name": "Clinch School", "lat": 36.476093, "lon": -83.114824, "proficiency": 0.245, "district": "Hawkins County", "city": "Sneedville", "ncessch": "470174000576"}, {"name": "Rogersville Middle School", "lat": 36.4113, "lon": -82.994, "proficiency": 0.12, "district": "Hawkins County", "city": "Rogersville", "ncessch": "470174000587"}, {"name": "Surgoinsville Middle School", "lat": 36.4635, "lon": -82.8666, "proficiency": 0.42, "district": "Hawkins County", "city": "Surgoinsville", "ncessch": "470174000590"}, {"name": "Haywood Middle School", "lat": 35.597785, "lon": -89.280629, "proficiency": 0.025, "district": "Haywood County", "city": "Brownsville", "ncessch": "470177001952"}, {"name": "Bargerton Elementary", "lat": 35.732165, "lon": -88.490506, "proficiency": 0.3, "district": "Henderson County", "city": "Lexington", "ncessch": "470180000600"}, {"name": "Beaver Elementary", "lat": 35.77, "lon": -88.3933, "proficiency": 0.345, "district": "Henderson County", "city": "Wildersville", "ncessch": "470180000601"}, {"name": "Pin Oak Elementary", "lat": 35.6354, "lon": -88.2752, "proficiency": 0.545, "district": "Henderson County", "city": "Lexington", "ncessch": "470180000605"}, {"name": "Scotts Hill Elementary", "lat": 35.513815, "lon": -88.24428, "proficiency": 0.545, "district": "Henderson County", "city": "Scotts Hill", "ncessch": "470180000609"}, {"name": "South Haven Elementary", "lat": 35.576757, "lon": -88.459259, "proficiency": 0.545, "district": "Henderson County", "city": "Lexington", "ncessch": "470180000611"}, {"name": "Westover Elementary", "lat": 35.689162, "lon": -88.537597, "proficiency": 0.67, "district": "Henderson County", "city": "Huron", "ncessch": "470180000612"}, {"name": "South Side Elementary", "lat": 35.5029, "lon": -88.3221, "proficiency": 0.645, "district": "Henderson County", "city": "Reagan", "ncessch": "470180001953"}, {"name": "Henry Elementary", "lat": 36.205051, "lon": -88.411277, "proficiency": 0.445, "district": "Henry County", "city": "Henry", "ncessch": "470183000616"}, {"name": "Dorothy And Noble Harrelson School", "lat": 36.431, "lon": -88.3306, "proficiency": 0.52, "district": "Henry County", "city": "Puryear", "ncessch": "470183002063"}, {"name": "Lakewood Middle School", "lat": 36.3619, "lon": -88.2134, "proficiency": 0.37, "district": "Henry County", "city": "Buchanan", "ncessch": "470183002064"}, {"name": "Henry County Virtual Academy", "lat": 36.205051, "lon": -88.411277, "proficiency": -0.03, "district": "Henry County", "city": "Paris", "ncessch": "470183002619"}, {"name": "East Hickman Middle School", "lat": 35.93012, "lon": -87.31936, "proficiency": 0.075, "district": "Hickman County", "city": "Lyles", "ncessch": "470186000024"}, {"name": "Hickman Co Middle School", "lat": 35.8116, "lon": -87.4317, "proficiency": 0.17, "district": "Hickman County", "city": "Centerville", "ncessch": "470186000623"}, {"name": "Hickman County Learning Academy", "lat": 35.780582, "lon": -87.463551, "proficiency": -0.03, "district": "Hickman County", "city": "Centerville", "ncessch": "470186002620"}, {"name": "Central High School", "lat": 36.033982, "lon": -88.262133, "proficiency": 0.15, "district": "Hollow Rock - Bruceton", "city": "Bruceton", "ncessch": "470189000628"}, {"name": "Houston Co Middle School", "lat": 36.315635, "lon": -87.71721, "proficiency": 0.17, "district": "Houston County", "city": "Erin", "ncessch": "470192000631"}, {"name": "Humboldt Junior/Senior High School", "lat": 35.8406, "lon": -88.9071, "proficiency": 0.025, "district": "Humboldt City Schools", "city": "Humboldt", "ncessch": "470195000636"}, {"name": "Lakeview Elementary", "lat": 36.0084, "lon": -87.9613, "proficiency": 0.245, "district": "Humphreys County", "city": "New Johnsonville", "ncessch": "470198000639"}, {"name": "Waverly Jr High School", "lat": 36.085266, "lon": -87.777657, "proficiency": 0.12, "district": "Humphreys County", "city": "Waverly", "ncessch": "470198000644"}, {"name": "Huntingdon Middle School", "lat": 36.0063, "lon": -88.4222, "proficiency": 0.52, "district": "Huntingdon Special School District", "city": "Huntingdon", "ncessch": "470201000645"}, {"name": "Dodson Branch Elementary", "lat": 36.309, "lon": -85.5289, "proficiency": 0.695, "district": "Jackson County", "city": "Cookeville", "ncessch": "470207000662"}, {"name": "Jackson County Middle School", "lat": 36.388857, "lon": -85.662866, "proficiency": 0.27, "district": "Jackson County", "city": "Gainesboro", "ncessch": "470207001829"}, {"name": "Jefferson Middle School", "lat": 36.1094, "lon": -83.5126, "proficiency": 0.27, "district": "Jefferson County", "city": "Jefferson City", "ncessch": "470210000677"}, {"name": "Maury Middle School", "lat": 36.021852, "lon": -83.404163, "proficiency": 0.37, "district": "Jefferson County", "city": "Dandridge", "ncessch": "470210000681"}, {"name": "Rush Strong Elementary", "lat": 36.06427, "lon": -83.682267, "proficiency": 0.345, "district": "Jefferson County", "city": "Strawberry Plains", "ncessch": "470210000685"}, {"name": "White Pine Elementary", "lat": 36.0988, "lon": -83.2964, "proficiency": 0.27, "district": "Jefferson County", "city": "White Pine", "ncessch": "470210000693"}, {"name": "Liberty Bell Middle School", "lat": 36.323354, "lon": -82.374127, "proficiency": 0.47, "district": "Johnson City", "city": "Johnson City", "ncessch": "470213002268"}, {"name": "Johnson Co Middle School", "lat": 36.47868, "lon": -81.796869, "proficiency": 0.22, "district": "Johnson County", "city": "Mountain City", "ncessch": "470216000697"}, {"name": "Tennessee Connections Academy Johnson County K-8", "lat": 36.470541, "lon": -86.674669, "proficiency": 0.05, "district": "Johnson County", "city": "White House", "ncessch": "470216002621"}, {"name": "Ross N. Robinson Middle School", "lat": 36.533, "lon": -82.519, "proficiency": 0.37, "district": "Kingsport", "city": "Kingsport", "ncessch": "470219000713"}, {"name": "John Sevier Middle School", "lat": 36.5461, "lon": -82.5458, "proficiency": 0.17, "district": "Kingsport", "city": "Kingsport", "ncessch": "470219000714"}, {"name": "Richard Yoakley School", "lat": 36.0199, "lon": -83.8873, "proficiency": 0.245, "district": "Knox County", "city": "Knoxville", "ncessch": "470222000314"}, {"name": "Carter Middle School", "lat": 36.0249, "lon": -83.7169, "proficiency": 0.27, "district": "Knox County", "city": "Strawberry Plains", "ncessch": "470222000726"}, {"name": "Cedar Bluff Middle School", "lat": 35.933, "lon": -84.0974, "proficiency": 0.22, "district": "Knox County", "city": "Knoxville", "ncessch": "470222000728"}, {"name": "South Doyle Middle School", "lat": 35.940482, "lon": -83.893021, "proficiency": 0.27, "district": "Knox County", "city": "Knoxville", "ncessch": "470222000733"}, {"name": "Farragut Middle School", "lat": 35.889114, "lon": -84.156554, "proficiency": 0.78, "district": "Knox County", "city": "Knoxville", "ncessch": "470222000737"}, {"name": "Halls Middle School", "lat": 36.0874, "lon": -83.9273, "proficiency": 0.27, "district": "Knox County", "city": "Knoxville", "ncessch": "470222000744"}, {"name": "Karns Middle School", "lat": 35.977293, "lon": -84.110256, "proficiency": 0.16, "district": "Knox County", "city": "Knoxville", "ncessch": "470222000749"}, {"name": "Powell Middle School", "lat": 36.0227, "lon": -84.0483, "proficiency": 0.22, "district": "Knox County", "city": "Powell", "ncessch": "470222000756"}, {"name": "Bearden Middle School", "lat": 35.9442, "lon": -84.0361, "proficiency": 0.16, "district": "Knox County", "city": "Knoxville", "ncessch": "470222000770"}, {"name": "Gresham Middle School", "lat": 36.0394, "lon": -83.9363, "proficiency": 0.17, "district": "Knox County", "city": "Knoxville", "ncessch": "470222000786"}, {"name": "Holston Middle School", "lat": 36.016428, "lon": -83.854504, "proficiency": 0.075, "district": "Knox County", "city": "Knoxville", "ncessch": "470222000787"}, {"name": "Knox Adaptive Education Center", "lat": 35.9354, "lon": -83.9972, "proficiency": -0.03, "district": "Knox County", "city": "Knoxville", "ncessch": "470222000791"}, {"name": "Northwest Middle School", "lat": 35.9876, "lon": -83.9998, "proficiency": 0.025, "district": "Knox County", "city": "Knoxville", "ncessch": "470222000797"}, {"name": "Ridgedale Alternative School", "lat": 35.9868, "lon": -84.0308, "proficiency": 0.1, "district": "Knox County", "city": "Knoxville", "ncessch": "470222000805"}, {"name": "Vine Middle/Magnet", "lat": 35.974327, "lon": -83.904609, "proficiency": 0.025, "district": "Knox County", "city": "Knoxville", "ncessch": "470222000820"}, {"name": "Whittle Springs Middle School", "lat": 36.01502, "lon": -83.916797, "proficiency": 0.075, "district": "Knox County", "city": "Knoxville", "ncessch": "470222000825"}, {"name": "West Valley Middle School", "lat": 35.898, "lon": -84.0818, "proficiency": 0.52, "district": "Knox County", "city": "Knoxville", "ncessch": "470222001117"}, {"name": "Emerald Academy", "lat": 35.967499, "lon": -83.933281, "proficiency": 0.245, "district": "Knox County", "city": "Knoxville", "ncessch": "470222002448"}, {"name": "Hardin Valley Middle School", "lat": 35.938501, "lon": -84.181473, "proficiency": 0.48, "district": "Knox County", "city": "Knoxville", "ncessch": "470222002512"}, {"name": "Gibbs Middle School", "lat": 36.127082, "lon": -83.858034, "proficiency": 0.17, "district": "Knox County", "city": "Knoxville", "ncessch": "470222002568"}, {"name": "Lara Kendall Elementary", "lat": 36.2658, "lon": -89.4805, "proficiency": 0.15, "district": "Lake County", "city": "Ridgely", "ncessch": "470228000827"}, {"name": "Ripley Middle School", "lat": 35.7288, "lon": -89.5558, "proficiency": 0.12, "district": "Lauderdale County", "city": "Ripley", "ncessch": "470231001970"}, {"name": "Halls Junior High School", "lat": 35.879923, "lon": -89.404052, "proficiency": 0.27, "district": "Lauderdale County", "city": "Halls", "ncessch": "470231001997"}, {"name": "E O Coffman Middle School", "lat": 35.2381, "lon": -87.3277, "proficiency": 0.22, "district": "Lawrence County", "city": "Lawrenceburg", "ncessch": "470234000842"}, {"name": "Ethridge Elementary", "lat": 35.323251, "lon": -87.296519, "proficiency": 0.245, "district": "Lawrence County", "city": "Ethridge", "ncessch": "470234000843"}, {"name": "South Lawrence Elementary", "lat": 35.068, "lon": -87.4589, "proficiency": 0.42, "district": "Lawrence County", "city": "Loretto", "ncessch": "470234000852"}, {"name": "New Prospect Elementary", "lat": 35.2249, "lon": -87.2479, "proficiency": 0.345, "district": "Lawrence County", "city": "Lawrenceburg", "ncessch": "470234000854"}, {"name": "Summertown High School", "lat": 35.432973, "lon": -87.308212, "proficiency": 0.42, "district": "Lawrence County", "city": "Summertown", "ncessch": "470234000859"}, {"name": "Leoma Elementary", "lat": 35.1558, "lon": -87.3493, "proficiency": 0.445, "district": "Lawrence County", "city": "Leoma", "ncessch": "470234001940"}, {"name": "Pioneer Virtual Academy", "lat": 35.257009, "lon": -87.315342, "proficiency": -0.03, "district": "Lawrence County", "city": "Lawrenceburg", "ncessch": "470234002623"}, {"name": "Walter J. Baird Middle School", "lat": 36.2215, "lon": -86.2949, "proficiency": 0.37, "district": "Lebanon", "city": "Lebanon", "ncessch": "470237000867"}, {"name": "Winfree Bryant Middle School", "lat": 36.20073, "lon": -86.32124, "proficiency": 0.22, "district": "Lebanon", "city": "Lebanon", "ncessch": "470237002283"}, {"name": "Lenoir City Intermediate/Middle School", "lat": 35.8117, "lon": -84.2789, "proficiency": 0.27, "district": "Lenoir City", "city": "Lenoir City", "ncessch": "470240000869"}, {"name": "Lewis County Middle School", "lat": 35.544, "lon": -87.5541, "proficiency": 0.37, "district": "Lewis County", "city": "Hohenwald", "ncessch": "470243000872"}, {"name": "Lexington Middle School", "lat": 35.65355, "lon": -88.376688, "proficiency": 0.42, "district": "Lexington", "city": "Lexington", "ncessch": "470246000875"}, {"name": "South Lincoln School", "lat": 35.051791, "lon": -86.504876, "proficiency": 0.67, "district": "Lincoln County", "city": "Fayetteville", "ncessch": "470249000079"}, {"name": "Unity School", "lat": 35.237563, "lon": -86.705259, "proficiency": 0.545, "district": "Lincoln County", "city": "Petersburg", "ncessch": "470249000080"}, {"name": "Flintville School", "lat": 35.059582, "lon": -86.413561, "proficiency": 0.57, "district": "Lincoln County", "city": "Flintville", "ncessch": "470249000884"}, {"name": "Highland Rim School", "lat": 35.065359, "lon": -86.59238, "proficiency": 0.47, "district": "Lincoln County", "city": "Fayetteville", "ncessch": "470249000885"}, {"name": "Lincoln Central Academy", "lat": 35.143866, "lon": -86.573016, "proficiency": 0.245, "district": "Lincoln County", "city": "Fayetteville", "ncessch": "470249002600"}, {"name": "Ft Loudoun Middle School", "lat": 35.723736, "lon": -84.350802, "proficiency": 0.37, "district": "Loudon County", "city": "Loudon", "ncessch": "470252000893"}, {"name": "Greenback School", "lat": 35.656744, "lon": -84.178656, "proficiency": 0.245, "district": "Loudon County", "city": "Greenback", "ncessch": "470252000896"}, {"name": "North Middle School", "lat": 35.8402, "lon": -84.2892, "proficiency": 0.72, "district": "Loudon County", "city": "Lenoir City", "ncessch": "470252000903"}, {"name": "Philadelphia Elementary", "lat": 35.6807, "lon": -84.4025, "proficiency": 0.445, "district": "Loudon County", "city": "Philadelphia", "ncessch": "470252000904"}, {"name": "Macon County Junior High School", "lat": 36.4983, "lon": -85.9933, "proficiency": 0.42, "district": "Macon County", "city": "Lafayette", "ncessch": "470255000910"}, {"name": "Red Boiling Springs School", "lat": 36.5342, "lon": -85.8417, "proficiency": 0.15, "district": "Macon County", "city": "Red Boiling Springs", "ncessch": "470255000912"}, {"name": "Northeast Middle School", "lat": 35.693381, "lon": -88.777316, "proficiency": 0.13, "district": "Madison County", "city": "Jackson", "ncessch": "470258000083"}, {"name": "Community Montessori School", "lat": 35.630726, "lon": -88.833105, "proficiency": 0.3, "district": "Madison County", "city": "Jackson", "ncessch": "470258000656"}, {"name": "West-Bemis Middle School", "lat": 35.579818, "lon": -88.829186, "proficiency": 0.075, "district": "Madison County", "city": "Jackson", "ncessch": "470258000927"}, {"name": "North Parkway Middle School", "lat": 35.651277, "lon": -88.811591, "proficiency": 0.025, "district": "Madison County", "city": "Jackson", "ncessch": "470258002254"}, {"name": "Jackson Career Technology Magnet Elementary", "lat": 35.621209, "lon": -88.791359, "proficiency": 0.025, "district": "Madison County", "city": "Jackson", "ncessch": "470258002265"}, {"name": "Rose Hill School", "lat": 35.611491, "lon": -88.76059, "proficiency": 0.05, "district": "Madison County", "city": "Jackson", "ncessch": "470258002464"}, {"name": "Westwood Middle School", "lat": 35.472293, "lon": -86.096408, "proficiency": 0.27, "district": "Manchester", "city": "Manchester", "ncessch": "470261000931"}, {"name": "Monteagle Elementary", "lat": 35.239054, "lon": -85.831511, "proficiency": 0.495, "district": "Marion County", "city": "Monteagle", "ncessch": "470264000937"}, {"name": "South Pittsburg High School", "lat": 35.006224, "lon": -85.70975, "proficiency": 0.245, "district": "Marion County", "city": "South Pittsburg", "ncessch": "470264000941"}, {"name": "Whitwell Middle School", "lat": 35.1806, "lon": -85.534, "proficiency": 0.32, "district": "Marion County", "city": "Whitwell", "ncessch": "470264000943"}, {"name": "Jasper Middle School", "lat": 35.0792, "lon": -85.6317, "proficiency": 0.22, "district": "Marion County", "city": "Jasper", "ncessch": "470264001850"}, {"name": "Lewisburg Middle School", "lat": 35.460234, "lon": -86.815421, "proficiency": 0.27, "district": "Marshall County", "city": "Lewisburg", "ncessch": "470267000844"}, {"name": "Cornersville School", "lat": 35.356175, "lon": -86.841652, "proficiency": 0.22, "district": "Marshall County", "city": "Cornersville", "ncessch": "470267000948"}, {"name": "Forrest School", "lat": 35.6301, "lon": -86.6899, "proficiency": 0.32, "district": "Marshall County", "city": "Chapel Hill", "ncessch": "470267000950"}, {"name": "Maryville Junior High School", "lat": 35.7419, "lon": -83.9711, "proficiency": 0.46, "district": "Maryville", "city": "Maryville", "ncessch": "470270000959"}, {"name": "E. A. Cox Middle School", "lat": 35.6404, "lon": -86.9752, "proficiency": 0.025, "district": "Maury County", "city": "Columbia", "ncessch": "470276000846"}, {"name": "Culleoka Unit School", "lat": 35.481813, "lon": -86.987187, "proficiency": 0.32, "district": "Maury County", "city": "Culleoka", "ncessch": "470276000967"}, {"name": "Hampshire Unit School", "lat": 35.5953, "lon": -87.2905, "proficiency": 0.15, "district": "Maury County", "city": "Hampshire", "ncessch": "470276000969"}, {"name": "Santa Fe Unit School", "lat": 35.7322, "lon": -87.1291, "proficiency": 0.545, "district": "Maury County", "city": "Santa Fe", "ncessch": "470276000979"}, {"name": "Whitthorne Middle School", "lat": 35.617873, "lon": -87.082217, "proficiency": 0.075, "district": "Maury County", "city": "Columbia", "ncessch": "470276000982"}, {"name": "Mt. Pleasant Middle Visual Perform. Arts", "lat": 35.5487, "lon": -87.2052, "proficiency": 0.12, "district": "Maury County", "city": "Mt. Pleasant", "ncessch": "470276001473"}, {"name": "Spring Hill Middle School", "lat": 35.74247, "lon": -86.97291, "proficiency": 0.37, "district": "Maury County", "city": "Spring Hill", "ncessch": "470276002227"}, {"name": "Battle Creek Middle School", "lat": 35.700403, "lon": -86.919478, "proficiency": 0.32, "district": "Maury County", "city": "Spring Hill", "ncessch": "470276002598"}, {"name": "Virtual Academy of Maury County", "lat": 35.608728, "lon": -87.029613, "proficiency": 0.245, "district": "Maury County", "city": "Columbia", "ncessch": "470276002625"}, {"name": "McKenzie Middle School", "lat": 36.1385, "lon": -88.5211, "proficiency": 0.57, "district": "McKenzie", "city": "McKenzie", "ncessch": "470279000985"}, {"name": "Rogers Creek Elementary", "lat": 35.436481, "lon": -84.741749, "proficiency": 0.345, "district": "McMinn County", "city": "Athens", "ncessch": "470282000030"}, {"name": "Calhoun Elementary", "lat": 35.292936, "lon": -84.744279, "proficiency": 0.245, "district": "McMinn County", "city": "Calhoun", "ncessch": "470282000986"}, {"name": "E K Baker Elementary", "lat": 35.508314, "lon": -84.64796, "proficiency": 0.345, "district": "McMinn County", "city": "Athens", "ncessch": "470282000989"}, {"name": "Englewood Elementary", "lat": 35.424458, "lon": -84.483572, "proficiency": 0.47, "district": "McMinn County", "city": "Englewood", "ncessch": "470282000990"}, {"name": "Mountain View Elementary", "lat": 35.326002, "lon": -84.542657, "proficiency": 0.42, "district": "McMinn County", "city": "Etowah", "ncessch": "470282000994"}, {"name": "Niota Elementary", "lat": 35.518381, "lon": -84.554404, "proficiency": 0.245, "district": "McMinn County", "city": "Niota", "ncessch": "470282000995"}, {"name": "Riceville Elementary", "lat": 35.394568, "lon": -84.68549, "proficiency": 0.47, "district": "McMinn County", "city": "Riceville", "ncessch": "470282000996"}, {"name": "Adamsville Elementary", "lat": 35.232928, "lon": -88.386709, "proficiency": 0.27, "district": "McNairy County", "city": "Adamsville", "ncessch": "470288000997"}, {"name": "Bethel Springs Elementary", "lat": 35.234277, "lon": -88.608269, "proficiency": 0.245, "district": "McNairy County", "city": "Bethel Springs", "ncessch": "470288000999"}, {"name": "Michie Elementary", "lat": 35.0695, "lon": -88.4343, "proficiency": 0.3, "district": "McNairy County", "city": "Michie", "ncessch": "470288001001"}, {"name": "Ramer Elementary", "lat": 35.071276, "lon": -88.618717, "proficiency": 0.345, "district": "McNairy County", "city": "Ramer", "ncessch": "470288001002"}, {"name": "Selmer Middle School", "lat": 35.1613, "lon": -88.5777, "proficiency": 0.27, "district": "McNairy County", "city": "Selmer", "ncessch": "470288001004"}, {"name": "McNairy County Virtual School K-12", "lat": 35.163283, "lon": -88.583452, "proficiency": -0.03, "district": "McNairy County", "city": "Selmer", "ncessch": "470288002624"}, {"name": "Meigs Middle School", "lat": 35.519915, "lon": -84.785157, "proficiency": 0.22, "district": "Meigs County", "city": "Decatur", "ncessch": "470291001982"}, {"name": "Milan Middle School", "lat": 35.9426, "lon": -88.7537, "proficiency": 0.47, "district": "Milan", "city": "Milan", "ncessch": "470297001190"}, {"name": "Coker Creek Elementary", "lat": 35.25882, "lon": -84.294948, "proficiency": 0.245, "district": "Monroe County", "city": "Tellico Plains", "ncessch": "470300001193"}, {"name": "Madisonville Middle School", "lat": 35.536875, "lon": -84.356575, "proficiency": 0.17, "district": "Monroe County", "city": "Madisonville", "ncessch": "470300001196"}, {"name": "Rural Vale Elementary", "lat": 35.3249, "lon": -84.3732, "proficiency": 0.1, "district": "Monroe County", "city": "Tellico Plains", "ncessch": "470300001198"}, {"name": "Tellico Plains Junior High School", "lat": 35.382229, "lon": -84.306449, "proficiency": 0.32, "district": "Monroe County", "city": "Tellico Plains", "ncessch": "470300001202"}, {"name": "Vonore Middle School", "lat": 35.5958, "lon": -84.2364, "proficiency": 0.27, "district": "Monroe County", "city": "Vonore", "ncessch": "470300002069"}, {"name": "Rossview Middle", "lat": 36.5608, "lon": -87.2595, "proficiency": 0.27, "district": "Montgomery County", "city": "Clarksville", "ncessch": "470303000951"}, {"name": "New Providence Middle", "lat": 36.5736, "lon": -87.4117, "proficiency": 0.14, "district": "Montgomery County", "city": "Clarksville", "ncessch": "470303001218"}, {"name": "Richview Middle", "lat": 36.519843, "lon": -87.275438, "proficiency": 0.35, "district": "Montgomery County", "city": "Clarksville", "ncessch": "470303001856"}, {"name": "Montgomery Central Middle", "lat": 36.4011, "lon": -87.3814, "proficiency": 0.22, "district": "Montgomery County", "city": "Cunningham", "ncessch": "470303001985"}, {"name": "Northeast Middle", "lat": 36.6152, "lon": -87.3146, "proficiency": 0.18, "district": "Montgomery County", "city": "Clarksville", "ncessch": "470303002011"}, {"name": "West Creek Middle", "lat": 36.6121, "lon": -87.3862, "proficiency": 0.22, "district": "Montgomery County", "city": "Clarksville", "ncessch": "470303002123"}, {"name": "Kenwood Middle", "lat": 36.580627, "lon": -87.38221, "proficiency": 0.08, "district": "Montgomery County", "city": "Clarksville", "ncessch": "470303010361"}, {"name": "Moore County High School", "lat": 35.30219, "lon": -86.360789, "proficiency": 0.42, "district": "Moore County", "city": "Lynchburg", "ncessch": "470306001224"}, {"name": "Coalfield School", "lat": 36.0272, "lon": -84.421, "proficiency": 0.15, "district": "Morgan County", "city": "Coalfield", "ncessch": "470309001230"}, {"name": "Oakdale School", "lat": 35.9823, "lon": -84.5783, "proficiency": 0.15, "district": "Morgan County", "city": "Oakdale", "ncessch": "470309001235"}, {"name": "Petros Joyner Elementary", "lat": 36.0672, "lon": -84.4557, "proficiency": 0.1, "district": "Morgan County", "city": "Oliver Springs", "ncessch": "470309001236"}, {"name": "Sunbright School", "lat": 36.2599, "lon": -84.6779, "proficiency": 0.05, "district": "Morgan County", "city": "Sunbright", "ncessch": "470309001238"}, {"name": "Central Middle School", "lat": 36.0888, "lon": -84.5454, "proficiency": 0.075, "district": "Morgan County", "city": "Wartburg", "ncessch": "470309001884"}, {"name": "Cora Howe School", "lat": 36.18869, "lon": -86.734709, "proficiency": 0.245, "district": "Davidson County", "city": "Nashville", "ncessch": "470318000462"}, {"name": "Antioch Middle", "lat": 36.0552, "lon": -86.6717, "proficiency": 0.025, "district": "Davidson County", "city": "Antioch", "ncessch": "470318001052"}, {"name": "Donelson Middle", "lat": 36.1664, "lon": -86.6564, "proficiency": 0.025, "district": "Davidson County", "city": "Nashville", "ncessch": "470318001243"}, {"name": "Apollo Middle", "lat": 36.0665, "lon": -86.6641, "proficiency": 0.025, "district": "Davidson County", "city": "Antioch", "ncessch": "470318001258"}, {"name": "Moses McKissack Middle", "lat": 36.159809, "lon": -86.831926, "proficiency": 0.075, "district": "Davidson County", "city": "Nashville", "ncessch": "470318001260"}, {"name": "Bellevue Middle", "lat": 36.0706, "lon": -86.9351, "proficiency": 0.12, "district": "Davidson County", "city": "Nashville", "ncessch": "470318001261"}, {"name": "DuPont Tyler Middle", "lat": 36.1995, "lon": -86.6118, "proficiency": 0.025, "district": "Davidson County", "city": "Hermitage", "ncessch": "470318001288"}, {"name": "DuPont Hadley Middle", "lat": 36.2506, "lon": -86.643, "proficiency": 0.075, "district": "Davidson County", "city": "Old Hickory", "ncessch": "470318001289"}, {"name": "Goodlettsville Middle", "lat": 36.3181, "lon": -86.7122, "proficiency": 0.025, "district": "Davidson County", "city": "Goodlettsville", "ncessch": "470318001305"}, {"name": "H. G. Hill Middle", "lat": 36.116783, "lon": -86.866455, "proficiency": 0.075, "district": "Davidson County", "city": "Nashville", "ncessch": "470318001309"}, {"name": "Harris-Hillman Special Education", "lat": 36.1373, "lon": -86.8072, "proficiency": -0.03, "district": "Davidson County", "city": "Nashville", "ncessch": "470318001311"}, {"name": "Meigs Middle", "lat": 36.1764, "lon": -86.7607, "proficiency": 0.47, "district": "Davidson County", "city": "Nashville", "ncessch": "470318001317"}, {"name": "Isaac Litton Middle", "lat": 36.2279, "lon": -86.7223, "proficiency": 0.025, "district": "Davidson County", "city": "Nashville", "ncessch": "470318001322"}, {"name": "Jere Baxter Middle", "lat": 36.2187, "lon": -86.7516, "proficiency": 0.025, "district": "Davidson County", "city": "Nashville", "ncessch": "470318001323"}, {"name": "Margaret Allen Middle", "lat": 36.1459, "lon": -86.7207, "proficiency": 0.025, "district": "Davidson County", "city": "Nashville", "ncessch": "470318001338"}, {"name": "McMurray Middle", "lat": 36.0569, "lon": -86.7242, "proficiency": 0.025, "district": "Davidson County", "city": "Nashville", "ncessch": "470318001344"}, {"name": "John Trotwood Moore Middle", "lat": 36.0954, "lon": -86.8026, "proficiency": 0.17, "district": "Davidson County", "city": "Nashville", "ncessch": "470318001346"}, {"name": "Rose Park Middle", "lat": 36.143, "lon": -86.7814, "proficiency": 0.12, "district": "Davidson County", "city": "Nashville", "ncessch": "470318001365"}, {"name": "Stratford STEM Magnet School", "lat": 36.1976, "lon": -86.7187, "proficiency": 0.025, "district": "Davidson County", "city": "Nashville", "ncessch": "470318001370"}, {"name": "Two Rivers Middle", "lat": 36.1947, "lon": -86.6745, "proficiency": 0.075, "district": "Davidson County", "city": "Nashville", "ncessch": "470318001375"}, {"name": "West End Middle", "lat": 36.1321, "lon": -86.8242, "proficiency": 0.025, "district": "Davidson County", "city": "Nashville", "ncessch": "470318001382"}, {"name": "Isaiah T. Creswell Middle School of the Arts", "lat": 36.1957, "lon": -86.8372, "proficiency": 0.075, "district": "Davidson County", "city": "Nashville", "ncessch": "470318001384"}, {"name": "Wright Middle", "lat": 36.1003, "lon": -86.7341, "proficiency": 0.025, "district": "Davidson County", "city": "Nashville", "ncessch": "470318001389"}, {"name": "Croft Middle", "lat": 36.0879, "lon": -86.734, "proficiency": 0.025, "district": "Davidson County", "city": "Nashville", "ncessch": "470318001695"}, {"name": "Haynes Middle", "lat": 36.2074, "lon": -86.7889, "proficiency": 0.025, "district": "Davidson County", "city": "Nashville", "ncessch": "470318001696"}, {"name": "Head Middle", "lat": 36.159, "lon": -86.8043, "proficiency": 0.075, "district": "Davidson County", "city": "Nashville", "ncessch": "470318001697"}, {"name": "John Early Middle", "lat": 36.1873, "lon": -86.8051, "proficiency": 0.05, "district": "Davidson County", "city": "Nashville", "ncessch": "470318001701"}, {"name": "Martin Luther King Jr School", "lat": 36.1616, "lon": -86.8007, "proficiency": 0.72, "district": "Davidson County", "city": "Nashville", "ncessch": "470318001962"}, {"name": "William Henry Oliver Middle", "lat": 36.0201, "lon": -86.7124, "proficiency": 0.12, "district": "Davidson County", "city": "Nashville", "ncessch": "470318002058"}, {"name": "KIPP Academy Nashville", "lat": 36.194769, "lon": -86.768824, "proficiency": 0.025, "district": "Davidson County", "city": "Nashville", "ncessch": "470318002103"}, {"name": "Thurgood Marshall Middle", "lat": 36.022249, "lon": -86.661211, "proficiency": 0.025, "district": "Davidson County", "city": "Antioch", "ncessch": "470318002121"}, {"name": "John F. Kennedy Middle", "lat": 36.0555, "lon": -86.6008, "proficiency": 0.025, "district": "Davidson County", "city": "Antioch", "ncessch": "470318002149"}, {"name": "Madison Middle", "lat": 36.264153, "lon": -86.716281, "proficiency": 0.025, "district": "Davidson County", "city": "Madison", "ncessch": "470318002202"}, {"name": "MNPS Virtual School", "lat": 36.150525, "lon": -86.845407, "proficiency": 0.245, "district": "Davidson County", "city": "Nashville", "ncessch": "470318002256"}, {"name": "STEM Prep Academy", "lat": 36.135223, "lon": -86.738437, "proficiency": 0.17, "district": "Davidson County", "city": "Nashville", "ncessch": "470318002257"}, {"name": "East End Preparatory School", "lat": 36.2065, "lon": -86.7184, "proficiency": 0.32, "district": "Davidson County", "city": "Nashville", "ncessch": "470318002258"}, {"name": "LEAD Cameron", "lat": 36.148551, "lon": -86.764443, "proficiency": 0.12, "district": "Davidson County", "city": "Nashville", "ncessch": "470318002260"}, {"name": "Liberty Collegiate Academy", "lat": 36.212125, "lon": -86.732866, "proficiency": 0.17, "district": "Davidson County", "city": "Nashville", "ncessch": "470318002263"}, {"name": "Nashville Prep", "lat": 36.162258, "lon": -86.855347, "proficiency": 0.12, "district": "Davidson County", "city": "Nashville", "ncessch": "470318002264"}, {"name": "LEAD Southeast", "lat": 36.092657, "lon": -86.703777, "proficiency": 0.37, "district": "Davidson County", "city": "Nashville", "ncessch": "470318002286"}, {"name": "Knowledge Academy", "lat": 36.047116, "lon": -86.652761, "proficiency": 0.05, "district": "Davidson County", "city": "Antioch", "ncessch": "470318002294"}, {"name": "Intrepid College Preparatory Charter School", "lat": 36.049738, "lon": -86.645362, "proficiency": 0.075, "district": "Davidson County", "city": "Antioch", "ncessch": "470318002343"}, {"name": "KIPP Nashville College Prep", "lat": 36.237814, "lon": -86.803696, "proficiency": 0.075, "district": "Davidson County", "city": "Nashville", "ncessch": "470318002347"}, {"name": "Johnson Alternative Learning Center", "lat": 36.145511, "lon": -86.764065, "proficiency": -0.03, "district": "Davidson County", "city": "Nashville", "ncessch": "470318002361"}, {"name": "Valor Flagship Academy", "lat": 36.070739, "lon": -86.725266, "proficiency": 0.52, "district": "Davidson County", "city": "Nashville", "ncessch": "470318002423"}, {"name": "Valor Voyager Academy", "lat": 36.069158, "lon": -86.724906, "proficiency": 0.47, "district": "Davidson County", "city": "Nashville", "ncessch": "470318002432"}, {"name": "Strive Collegiate Academy", "lat": 36.178115, "lon": -86.643672, "proficiency": 0.075, "district": "Davidson County", "city": "Nashville", "ncessch": "470318002439"}, {"name": "KA @ The Crossings", "lat": 36.047178, "lon": -86.652597, "proficiency": 0.05, "district": "Davidson County", "city": "Antioch", "ncessch": "470318002460"}, {"name": "East Nashville Middle", "lat": 36.1798, "lon": -86.7516, "proficiency": 0.025, "district": "Davidson County", "city": "Nashville", "ncessch": "470318002468"}, {"name": "Newport Grammar School", "lat": 35.9631, "lon": -83.1871, "proficiency": 0.47, "district": "Newport", "city": "Newport", "ncessch": "470321001390"}, {"name": "Jefferson Middle School", "lat": 36.0262, "lon": -84.2272, "proficiency": 0.37, "district": "Oak Ridge", "city": "Oak Ridge", "ncessch": "470324001394"}, {"name": "Robertsville Middle School", "lat": 36.012, "lon": -84.2745, "proficiency": 0.27, "district": "Oak Ridge", "city": "Oak Ridge", "ncessch": "470324001397"}, {"name": "South Fulton Middle / High School", "lat": 36.494261, "lon": -88.899973, "proficiency": 0.345, "district": "Obion County", "city": "South Fulton", "ncessch": "470327001409"}, {"name": "Lake Road Elementary", "lat": 36.4427, "lon": -89.1303, "proficiency": 0.545, "district": "Obion County", "city": "Union City", "ncessch": "470327001925"}, {"name": "Black Oak Elementary", "lat": 36.3446, "lon": -89.3086, "proficiency": 0.345, "district": "Obion County", "city": "Hornbeak", "ncessch": "470327001964"}, {"name": "Hillcrest Elementary", "lat": 36.3318, "lon": -89.1712, "proficiency": 0.57, "district": "Obion County", "city": "Troy", "ncessch": "470327001976"}, {"name": "Ridgemont Elementary", "lat": 36.3766, "lon": -89.0656, "proficiency": 0.445, "district": "Obion County", "city": "Union City", "ncessch": "470327002014"}, {"name": "Oneida Middle School", "lat": 36.505973, "lon": -84.512304, "proficiency": 0.32, "district": "Oneida", "city": "Oneida", "ncessch": "470330000031"}, {"name": "Allons Elementary", "lat": 36.437703, "lon": -85.346497, "proficiency": 0.3, "district": "Overton County", "city": "Allons", "ncessch": "470333001414"}, {"name": "Hilham Elementary", "lat": 36.4091, "lon": -85.4339, "proficiency": 0.445, "district": "Overton County", "city": "Hilham", "ncessch": "470333001417"}, {"name": "Livingston Middle School", "lat": 36.382964, "lon": -85.332859, "proficiency": 0.42, "district": "Overton County", "city": "Livingston", "ncessch": "470333001420"}, {"name": "Rickman Elementary", "lat": 36.2633, "lon": -85.3725, "proficiency": 0.32, "district": "Overton County", "city": "Rickman", "ncessch": "470333001423"}, {"name": "Wilson Elementary", "lat": 36.2166, "lon": -85.1718, "proficiency": 0.3, "district": "Overton County", "city": "Crawford", "ncessch": "470333001425"}, {"name": "W O Inman Middle School", "lat": 36.2911, "lon": -88.3346, "proficiency": 0.42, "district": "Paris", "city": "Paris", "ncessch": "470336001429"}, {"name": "Lobelville Elementary", "lat": 35.7712, "lon": -87.7805, "proficiency": 0.495, "district": "Perry County", "city": "Lobelville", "ncessch": "470339001433"}, {"name": "Linden Middle School", "lat": 35.608857, "lon": -87.841728, "proficiency": 0.15, "district": "Perry County", "city": "Linden", "ncessch": "470339001434"}, {"name": "Perry County Virtual School", "lat": 35.608621, "lon": -87.837142, "proficiency": -0.03, "district": "Perry County", "city": "Linden", "ncessch": "470339002586"}, {"name": "Pickett County Elementary", "lat": 36.575558, "lon": -85.135448, "proficiency": 0.445, "district": "Pickett County", "city": "Byrdstown", "ncessch": "470342001438"}, {"name": "Copper Basin High School", "lat": 35.020727, "lon": -84.38906, "proficiency": 0.345, "district": "Polk County", "city": "Copperhill", "ncessch": "470345001440"}, {"name": "Chilhowee Middle School", "lat": 35.178203, "lon": -84.652821, "proficiency": 0.52, "district": "Polk County", "city": "Benton", "ncessch": "470345001444"}, {"name": "Polk Innovative Learning Academy", "lat": 35.178428, "lon": -84.654482, "proficiency": 0.1, "district": "Polk County", "city": "Benton", "ncessch": "470345002599"}, {"name": "Avery Trace Middle School", "lat": 36.160379, "lon": -85.481464, "proficiency": 0.32, "district": "Putnam County", "city": "Cookeville", "ncessch": "470348000497"}, {"name": "Monterey High School", "lat": 36.142588, "lon": -85.260339, "proficiency": 0.22, "district": "Putnam County", "city": "Monterey", "ncessch": "470348001454"}, {"name": "Upperman Middle School", "lat": 36.169081, "lon": -85.631857, "proficiency": 0.27, "district": "Putnam County", "city": "Baxter", "ncessch": "470348001461"}, {"name": "Algood Middle School", "lat": 36.175816, "lon": -85.453036, "proficiency": 0.57, "district": "Putnam County", "city": "Cookeville", "ncessch": "470348001901"}, {"name": "White Plains Academy", "lat": 36.198216, "lon": -85.444313, "proficiency": 0.245, "district": "Putnam County", "city": "Algood", "ncessch": "470348002196"}, {"name": "Prescott South Middle School", "lat": 36.110907, "lon": -85.511356, "proficiency": 0.37, "district": "Putnam County", "city": "Cookeville", "ncessch": "470348002230"}, {"name": "Putnam County VITAL", "lat": 36.151959, "lon": -85.471422, "proficiency": 0.245, "district": "Putnam County", "city": "Cookeville", "ncessch": "470348002281"}, {"name": "Spring City Middle School", "lat": 35.6914, "lon": -84.8712, "proficiency": 0.42, "district": "Rhea County", "city": "Spring City", "ncessch": "470351002035"}, {"name": "Rhea Middle School", "lat": 35.586275, "lon": -84.939976, "proficiency": 0.42, "district": "Rhea County", "city": "Evensville", "ncessch": "470351002355"}, {"name": "Richard Hardy Memorial School", "lat": 34.995758, "lon": -85.721246, "proficiency": 0.1, "district": "Richard City", "city": "South Pittsburg", "ncessch": "470354001474"}, {"name": "Harriman Middle School", "lat": 35.937808, "lon": -84.541755, "proficiency": 0.42, "district": "Roane County", "city": "Harriman", "ncessch": "470359000566"}, {"name": "Cherokee Middle School", "lat": 35.8632, "lon": -84.5039, "proficiency": 0.52, "district": "Roane County", "city": "Kingston", "ncessch": "470359001475"}, {"name": "Oliver Springs Middle", "lat": 36.042483, "lon": -84.344807, "proficiency": 0.17, "district": "Roane County", "city": "Oliver Springs", "ncessch": "470359001483"}, {"name": "Rockwood Middle School", "lat": 35.8722, "lon": -84.6888, "proficiency": 0.32, "district": "Roane County", "city": "Rockwood", "ncessch": "470359001490"}, {"name": "Midway Middle School", "lat": 35.7775, "lon": -84.5553, "proficiency": 0.67, "district": "Roane County", "city": "Ten Mile", "ncessch": "470359002036"}, {"name": "Roane County Virtual Academy", "lat": 35.872089, "lon": -84.577264, "proficiency": 0.245, "district": "Roane County", "city": "Harriman", "ncessch": "470359002626"}, {"name": "East Robertson High School", "lat": 36.5465, "lon": -86.7049, "proficiency": 0.27, "district": "Robertson County", "city": "Cross Plains", "ncessch": "470360000032"}, {"name": "Greenbrier Middle School", "lat": 36.4235, "lon": -86.8038, "proficiency": 0.27, "district": "Robertson County", "city": "Greenbrier", "ncessch": "470360001498"}, {"name": "Jo Byrns High School", "lat": 36.5664, "lon": -87.0249, "proficiency": 0.17, "district": "Robertson County", "city": "Cedar Hill", "ncessch": "470360001500"}, {"name": "Springfield High School", "lat": 36.510273, "lon": -86.856797, "proficiency": -0.03, "district": "Robertson County", "city": "Springfield", "ncessch": "470360001503"}, {"name": "Innovation Academy of Robertson County", "lat": 36.510961, "lon": -86.893468, "proficiency": 0.37, "district": "Robertson County", "city": "Springfield", "ncessch": "470360001504"}, {"name": "White House Heritage High School", "lat": 36.4749, "lon": -86.7033, "proficiency": 0.37, "district": "Robertson County", "city": "White House", "ncessch": "470360001507"}, {"name": "Coopertown Middle School", "lat": 36.442429, "lon": -86.968793, "proficiency": 0.47, "district": "Robertson County", "city": "Springfield", "ncessch": "470360002071"}, {"name": "Robertson Co. Virtual School", "lat": 36.500022, "lon": -86.897628, "proficiency": -0.03, "district": "Robertson County", "city": "Springfield", "ncessch": "470360002311"}, {"name": "Robertson County Phoenix Academy", "lat": 36.500022, "lon": -86.897628, "proficiency": -0.03, "district": "Robertson County", "city": "Springfield", "ncessch": "470360002490"}, {"name": "Tennessee Connections Academy K-8", "lat": 36.470541, "lon": -86.674669, "proficiency": 0.025, "district": "Robertson County", "city": "White House", "ncessch": "470360002597"}, {"name": "Rogersville Elementary", "lat": 36.402857, "lon": -83.005576, "proficiency": 0.42, "district": "Rogersville", "city": "Rogersville", "ncessch": "470366001508"}, {"name": "Daniel McKee Alternative School", "lat": 35.8606, "lon": -86.3357, "proficiency": 0.245, "district": "Rutherford County", "city": "Murfreesboro", "ncessch": "470369001513"}, {"name": "Eagleville School", "lat": 35.7394, "lon": -86.643, "proficiency": 0.57, "district": "Rutherford County", "city": "Eagleville", "ncessch": "470369001516"}, {"name": "Smyrna West Alternative School", "lat": 35.9696, "lon": -86.5325, "proficiency": 0.245, "district": "Rutherford County", "city": "Smyrna", "ncessch": "470369001528"}, {"name": "Smyrna Middle School", "lat": 35.9707, "lon": -86.5203, "proficiency": 0.34, "district": "Rutherford County", "city": "Smyrna", "ncessch": "470369001529"}, {"name": "Thurman Francis Arts Academy/Magnet School for the Arts", "lat": 35.9691, "lon": -86.5248, "proficiency": 0.82, "district": "Rutherford County", "city": "Smyrna", "ncessch": "470369001531"}, {"name": "Siegel Middle School", "lat": 35.9103, "lon": -86.3949, "proficiency": 0.38, "district": "Rutherford County", "city": "Murfreesboro", "ncessch": "470369001534"}, {"name": "Blackman Middle School", "lat": 35.856, "lon": -86.4741, "proficiency": 0.54, "district": "Rutherford County", "city": "Murfreesboro", "ncessch": "470369001904"}, {"name": "Rock Springs Middle School", "lat": 35.9607, "lon": -86.5731, "proficiency": 0.39, "district": "Rutherford County", "city": "Smyrna", "ncessch": "470369001906"}, {"name": "Christiana Middle School", "lat": 35.7327, "lon": -86.4077, "proficiency": 0.31, "district": "Rutherford County", "city": "Christiana", "ncessch": "470369002037"}, {"name": "LaVergne Middle School", "lat": 36.030367, "lon": -86.560226, "proficiency": 0.2, "district": "Rutherford County", "city": "La Vergne", "ncessch": "470369002072"}, {"name": "Stewarts Creek Middle School", "lat": 35.92692, "lon": -86.56358, "proficiency": 0.45, "district": "Rutherford County", "city": "Smyrna", "ncessch": "470369002111"}, {"name": "Rockvale Middle School", "lat": 35.784463, "lon": -86.501267, "proficiency": 0.4, "district": "Rutherford County", "city": "Rockvale", "ncessch": "470369002145"}, {"name": "Central Magnet School", "lat": 35.8452, "lon": -86.3785, "proficiency": 0.82, "district": "Rutherford County", "city": "Murfreesboro", "ncessch": "470369002247"}, {"name": "Oakland Middle School", "lat": 35.886933, "lon": -86.351706, "proficiency": 0.35, "district": "Rutherford County", "city": "Murfreesboro", "ncessch": "470369002251"}, {"name": "Whitworth-Buchanan Middle School", "lat": 35.76943, "lon": -86.33641, "proficiency": 0.38, "district": "Rutherford County", "city": "Murfreesboro", "ncessch": "470369002253"}, {"name": "Rocky Fork Middle School", "lat": 35.961255, "lon": -86.548196, "proficiency": 0.42, "district": "Rutherford County", "city": "Smyrna", "ncessch": "470369002480"}, {"name": "Rutherford County Virtual School", "lat": 36.009212, "lon": -86.488168, "proficiency": 0.1, "district": "Rutherford County", "city": "Smyrna", "ncessch": "470369002627"}, {"name": "Burchfield Elementary", "lat": 36.5037, "lon": -84.5326, "proficiency": 0.15, "district": "Scott County", "city": "Oneida", "ncessch": "470372001533"}, {"name": "Robbins Elementary", "lat": 36.353334, "lon": -84.585601, "proficiency": 0.1, "district": "Scott County", "city": "Robbins", "ncessch": "470372001538"}, {"name": "Huntsville Middle School", "lat": 36.412137, "lon": -84.487147, "proficiency": 0.245, "district": "Scott County", "city": "Huntsville", "ncessch": "470372001540"}, {"name": "Winfield Elementary", "lat": 36.541129, "lon": -84.455107, "proficiency": 0.1, "district": "Scott County", "city": "Winfield", "ncessch": "470372001541"}, {"name": "Fairview Elementary", "lat": 36.3785, "lon": -84.4032, "proficiency": 0.245, "district": "Scott County", "city": "Huntsville", "ncessch": "470372001965"}, {"name": "Sequatchie Co Middle School", "lat": 35.3575, "lon": -85.4001, "proficiency": 0.27, "district": "Sequatchie County", "city": "Dunlap", "ncessch": "470375001546"}, {"name": "Jones Cove Elementary", "lat": 35.826116, "lon": -83.310848, "proficiency": 0.75, "district": "Sevier County", "city": "Cosby", "ncessch": "470378001550"}, {"name": "New Center Elementary", "lat": 35.881926, "lon": -83.440857, "proficiency": 0.32, "district": "Sevier County", "city": "Sevierville", "ncessch": "470378001551"}, {"name": "Pigeon Forge Junior High School", "lat": 35.803057, "lon": -83.585069, "proficiency": 0.47, "district": "Sevier County", "city": "Pigeon Forge", "ncessch": "470378001555"}, {"name": "Sevierville Middle School", "lat": 35.861575, "lon": -83.557768, "proficiency": 0.37, "district": "Sevier County", "city": "Sevierville", "ncessch": "470378001560"}, {"name": "Wearwood Elementary", "lat": 35.725001, "lon": -83.645058, "proficiency": 0.1, "district": "Sevier County", "city": "Sevierville", "ncessch": "470378001564"}, {"name": "Seymour Junior High", "lat": 35.884358, "lon": -83.744806, "proficiency": 0.52, "district": "Sevier County", "city": "Seymour", "ncessch": "470378001967"}, {"name": "Northview Junior Academy", "lat": 35.953865, "lon": -83.587559, "proficiency": 0.32, "district": "Sevier County", "city": "Kodak", "ncessch": "470378002438"}, {"name": "Gatlinburg Pittman Junior High", "lat": 35.734783, "lon": -83.448048, "proficiency": 0.62, "district": "Sevier County", "city": "Gatlinburg", "ncessch": "470378002628"}, {"name": "Defeated Elementary", "lat": 36.3315, "lon": -85.9046, "proficiency": 0.75, "district": "Smith County", "city": "Carthage", "ncessch": "470387001598"}, {"name": "Forks River Elementary", "lat": 36.2157, "lon": -85.869, "proficiency": 0.495, "district": "Smith County", "city": "Elmwood", "ncessch": "470387001599"}, {"name": "Union Heights Elementary", "lat": 36.2628, "lon": -86.0567, "proficiency": 0.3, "district": "Smith County", "city": "Carthage", "ncessch": "470387001607"}, {"name": "Smith County Middle School", "lat": 36.226764, "lon": -85.946586, "proficiency": 0.42, "district": "Smith County", "city": "Carthage", "ncessch": "470387001942"}, {"name": "Gordonsville High School", "lat": 36.1716, "lon": -85.9291, "proficiency": 0.17, "district": "Smith County", "city": "Gordonsville", "ncessch": "470387002047"}, {"name": "Clarksburg School", "lat": 35.8715, "lon": -88.3899, "proficiency": 0.695, "district": "South Carroll", "city": "Clarksburg", "ncessch": "470390000064"}, {"name": "Stewart County Middle School", "lat": 36.487, "lon": -87.8299, "proficiency": 0.42, "district": "Stewart County", "city": "Dover", "ncessch": "470396002091"}, {"name": "Sullivan Gardens Elementary", "lat": 36.4801, "lon": -82.5948, "proficiency": 0.05, "district": "Sullivan County", "city": "Kingsport", "ncessch": "470399001649"}, {"name": "Innovation Academy", "lat": 36.4897, "lon": -82.4143, "proficiency": 0.345, "district": "Sullivan County", "city": "Blountville", "ncessch": "470399002344"}, {"name": "Sullivan East Middle School", "lat": 36.49505, "lon": -82.203366, "proficiency": 0.12, "district": "Sullivan County", "city": "Bluff City", "ncessch": "470399002604"}, {"name": "Robert E Ellis Middle", "lat": 36.306, "lon": -86.6055, "proficiency": 0.72, "district": "Sumner County", "city": "Hendersonville", "ncessch": "470402000408"}, {"name": "Joe Shafer Middle School", "lat": 36.4085, "lon": -86.4347, "proficiency": 0.37, "district": "Sumner County", "city": "Gallatin", "ncessch": "470402001213"}, {"name": "R T Fisher Alternative", "lat": 36.3985, "lon": -86.44376, "proficiency": 0.1, "district": "Sumner County", "city": "Gallatin", "ncessch": "470402001225"}, {"name": "T. W. Hunter Middle School", "lat": 36.3745, "lon": -86.6197, "proficiency": 0.72, "district": "Sumner County", "city": "Hendersonville", "ncessch": "470402001664"}, {"name": "Merrol Hyde Magnet School", "lat": 36.323, "lon": -86.6235, "proficiency": 0.845, "district": "Sumner County", "city": "Hendersonville", "ncessch": "470402001665"}, {"name": "Portland East Middle School", "lat": 36.571105, "lon": -86.51169, "proficiency": 0.32, "district": "Sumner County", "city": "Portland", "ncessch": "470402001673"}, {"name": "Rucker Stewart Middle", "lat": 36.3748, "lon": -86.4616, "proficiency": 0.27, "district": "Sumner County", "city": "Gallatin", "ncessch": "470402001677"}, {"name": "V G Hawkins Middle School", "lat": 36.2818, "lon": -86.6205, "proficiency": 0.32, "district": "Sumner County", "city": "Hendersonville", "ncessch": "470402001678"}, {"name": "White House Middle School", "lat": 36.4325, "lon": -86.6845, "proficiency": 0.52, "district": "Sumner County", "city": "White House", "ncessch": "470402001685"}, {"name": "Westmoreland Middle School", "lat": 36.5699, "lon": -86.2559, "proficiency": 0.37, "district": "Sumner County", "city": "Westmoreland", "ncessch": "470402001989"}, {"name": "Station Camp Middle School", "lat": 36.365109, "lon": -86.542077, "proficiency": 0.68, "district": "Sumner County", "city": "Gallatin", "ncessch": "470402002048"}, {"name": "Knox Doss Middle School at Drakes Creek", "lat": 36.3433, "lon": -86.5832, "proficiency": 0.62, "district": "Sumner County", "city": "Hendersonville", "ncessch": "470402002203"}, {"name": "Portland West Middle School", "lat": 36.586134, "lon": -86.533381, "proficiency": 0.37, "district": "Sumner County", "city": "Portland", "ncessch": "470402002205"}, {"name": "Sweetwater Jr High School", "lat": 35.599116, "lon": -84.47178, "proficiency": 0.12, "district": "Sweetwater", "city": "Sweetwater", "ncessch": "470405001688"}, {"name": "Crestview Middle School", "lat": 35.542286, "lon": -89.643329, "proficiency": 0.075, "district": "Tipton County", "city": "Covington", "ncessch": "470408000043"}, {"name": "Munford Middle School", "lat": 35.45864, "lon": -89.80279, "proficiency": 0.45, "district": "Tipton County", "city": "Munford", "ncessch": "470408000046"}, {"name": "Brighton Middle School", "lat": 35.482413, "lon": -89.743047, "proficiency": 0.35, "district": "Tipton County", "city": "Brighton", "ncessch": "470408001228"}, {"name": "Charger Academy", "lat": 35.557656, "lon": -89.660727, "proficiency": 0.15, "district": "Tipton County", "city": "Covington", "ncessch": "470408002049"}, {"name": "Tipton County Alternative Learning Center", "lat": 35.556881, "lon": -89.661585, "proficiency": -0.03, "district": "Tipton County", "city": "Covington", "ncessch": "470408010410"}, {"name": "Trenton Middle School", "lat": 35.9633, "lon": -88.9266, "proficiency": 0.22, "district": "Trenton", "city": "Trenton", "ncessch": "470410001704"}, {"name": "Jim Satterfield Middle School", "lat": 36.3938, "lon": -86.1607, "proficiency": 0.47, "district": "Trousdale County", "city": "Hartsville", "ncessch": "470417000508"}, {"name": "Trousdale Co High School", "lat": 36.4049, "lon": -86.178, "proficiency": -0.03, "district": "Trousdale County", "city": "Hartsville", "ncessch": "470417001709"}, {"name": "East Middle School", "lat": 35.3751, "lon": -86.2023, "proficiency": 0.17, "district": "Tullahoma", "city": "Tullahoma", "ncessch": "470420001712"}, {"name": "West Middle School", "lat": 35.3418, "lon": -86.2295, "proficiency": 0.22, "district": "Tullahoma", "city": "Tullahoma", "ncessch": "470420001716"}, {"name": "Unicoi Co Middle School", "lat": 36.137512, "lon": -82.412341, "proficiency": 0.27, "district": "Unicoi County", "city": "Erwin", "ncessch": "470423000047"}, {"name": "Union City Middle School", "lat": 36.419, "lon": -89.0449, "proficiency": 0.37, "district": "Union City", "city": "Union City", "ncessch": "470426001730"}, {"name": "H Maynard Middle School", "lat": 36.2461, "lon": -83.8073, "proficiency": 0.17, "district": "Union County", "city": "Maynardville", "ncessch": "470429001732"}, {"name": "Maynardville Elementary", "lat": 36.2476, "lon": -83.8042, "proficiency": -0.03, "district": "Union County", "city": "Maynardville", "ncessch": "470429001734"}, {"name": "Elementary Middle Alternative", "lat": 36.248331, "lon": -83.802738, "proficiency": -0.03, "district": "Union County", "city": "Maynardville", "ncessch": "470429002278"}, {"name": "Tennessee Virtual Academy", "lat": 36.013581, "lon": -83.934428, "proficiency": 0.17, "district": "Union County", "city": "Knoxville", "ncessch": "470429002280"}, {"name": "Van Buren Co High School", "lat": 35.751789, "lon": -85.466961, "proficiency": 0.545, "district": "Van Buren County", "city": "Spencer", "ncessch": "470432001738"}, {"name": "Centertown Elementary", "lat": 35.706061, "lon": -85.893655, "proficiency": 0.445, "district": "Warren County", "city": "McMinnville", "ncessch": "470435001740"}, {"name": "Dibrell Elementary", "lat": 35.811873, "lon": -85.794519, "proficiency": 0.245, "district": "Warren County", "city": "McMinnville", "ncessch": "470435001741"}, {"name": "Eastside Elementary", "lat": 35.739452, "lon": -85.662552, "proficiency": 0.245, "district": "Warren County", "city": "Rock Island", "ncessch": "470435001742"}, {"name": "Irving College Elementary", "lat": 35.583738, "lon": -85.714721, "proficiency": 0.1, "district": "Warren County", "city": "McMinnville", "ncessch": "470435001744"}, {"name": "Morrison Elementary", "lat": 35.601364, "lon": -85.908403, "proficiency": 0.245, "district": "Warren County", "city": "Morrison", "ncessch": "470435001745"}, {"name": "Warren County Middle School", "lat": 35.695428, "lon": -85.769969, "proficiency": 0.27, "district": "Warren County", "city": "McMinnville", "ncessch": "470435001748"}, {"name": "Warren County Alternative Academy", "lat": 35.686076, "lon": -85.771376, "proficiency": -0.03, "district": "Warren County", "city": "McMinnville", "ncessch": "470435010412"}, {"name": "Fall Branch Elementary", "lat": 36.411084, "lon": -82.619368, "proficiency": 0.3, "district": "Washington County", "city": "Fall Branch", "ncessch": "470438001758"}, {"name": "Gray Elementary School", "lat": 36.4166, "lon": -82.4779, "proficiency": 0.445, "district": "Washington County", "city": "Gray", "ncessch": "470438001759"}, {"name": "Jonesborough Middle School", "lat": 36.3013, "lon": -82.458, "proficiency": 0.17, "district": "Washington County", "city": "Jonesborough", "ncessch": "470438001761"}, {"name": "Lamar Elementary", "lat": 36.2175, "lon": -82.4689, "proficiency": 0.245, "district": "Washington County", "city": "Jonesborough", "ncessch": "470438001762"}, {"name": "South Central Elementary", "lat": 36.1555, "lon": -82.6148, "proficiency": 0.245, "district": "Washington County", "city": "Chuckey", "ncessch": "470438001763"}, {"name": "Sulphur Springs Elementary", "lat": 36.346578, "lon": -82.541225, "proficiency": 0.345, "district": "Washington County", "city": "Jonesborough", "ncessch": "470438001764"}, {"name": "West View School", "lat": 36.2238, "lon": -82.591, "proficiency": 0.245, "district": "Washington County", "city": "Limestone", "ncessch": "470438001765"}, {"name": "University School", "lat": 36.304984, "lon": -82.36793, "proficiency": 0.545, "district": "Washington County", "city": "Johnson City", "ncessch": "470438001893"}, {"name": "Ridgeview Elementary School", "lat": 36.392604, "lon": -82.504297, "proficiency": 0.47, "district": "Washington County", "city": "Gray", "ncessch": "470438002154"}, {"name": "Grandview Elementary School", "lat": 36.260427, "lon": -82.56747, "proficiency": 0.42, "district": "Washington County", "city": "Telford", "ncessch": "470438002160"}, {"name": "Boones Creek Elementary School", "lat": 36.355762, "lon": -82.445904, "proficiency": 0.27, "district": "Washington County", "city": "Johnson City", "ncessch": "470438002603"}, {"name": "Collinwood Middle School", "lat": 35.177534, "lon": -87.738604, "proficiency": 0.12, "district": "Wayne County", "city": "Collinwood", "ncessch": "470444001769"}, {"name": "Frank Hughes School", "lat": 35.382038, "lon": -87.993937, "proficiency": 0.1, "district": "Wayne County", "city": "Clifton", "ncessch": "470444001771"}, {"name": "Waynesboro Middle School", "lat": 35.3134, "lon": -87.7627, "proficiency": 0.15, "district": "Wayne County", "city": "Waynesboro", "ncessch": "470444001776"}, {"name": "Dresden Middle School", "lat": 36.278217, "lon": -88.704289, "proficiency": 0.67, "district": "Weakley County", "city": "Dresden", "ncessch": "470447001779"}, {"name": "Gleason School", "lat": 36.213216, "lon": -88.61371, "proficiency": 0.495, "district": "Weakley County", "city": "Gleason", "ncessch": "470447001780"}, {"name": "Greenfield School", "lat": 36.1523, "lon": -88.8071, "proficiency": 0.3, "district": "Weakley County", "city": "Greenfield", "ncessch": "470447001782"}, {"name": "Martin Middle School", "lat": 36.3109, "lon": -88.8563, "proficiency": 0.27, "district": "Weakley County", "city": "Martin", "ncessch": "470447001785"}, {"name": "Sharon School", "lat": 36.23639, "lon": -88.823819, "proficiency": 0.245, "district": "Weakley County", "city": "Sharon", "ncessch": "470447001788"}, {"name": "West Carroll Junior/Senior High School", "lat": 35.9745, "lon": -88.657, "proficiency": 0.15, "district": "West Carroll Sp Dist", "city": "Atwood", "ncessch": "470449001913"}, {"name": "White Co Middle School", "lat": 35.942712, "lon": -85.468277, "proficiency": 0.27, "district": "White County", "city": "Sparta", "ncessch": "470450001800"}, {"name": "Heritage Middle School", "lat": 35.787031, "lon": -86.918164, "proficiency": 0.47, "district": "Williamson County", "city": "Thompson Station", "ncessch": "470453001364"}, {"name": "Hillsboro Elementary/ Middle School", "lat": 35.891915, "lon": -87.015421, "proficiency": 0.42, "district": "Williamson County", "city": "Franklin", "ncessch": "470453001808"}, {"name": "Brentwood Middle School", "lat": 36.017079, "lon": -86.820072, "proficiency": 0.76, "district": "Williamson County", "city": "Brentwood", "ncessch": "470453001812"}, {"name": "Fairview Middle School", "lat": 35.950945, "lon": -87.137816, "proficiency": 0.27, "district": "Williamson County", "city": "Fairview", "ncessch": "470453001895"}, {"name": "Fred J Page Middle School", "lat": 35.851054, "lon": -86.752997, "proficiency": 0.6, "district": "Williamson County", "city": "Franklin", "ncessch": "470453001896"}, {"name": "Grassland Middle School", "lat": 36.009637, "lon": -86.886074, "proficiency": 0.57, "district": "Williamson County", "city": "Franklin", "ncessch": "470453001969"}, {"name": "Sunset Middle School", "lat": 35.964897, "lon": -86.684127, "proficiency": 0.62, "district": "Williamson County", "city": "Brentwood", "ncessch": "470453002098"}, {"name": "Spring Station Middle School", "lat": 35.764847, "lon": -86.872002, "proficiency": 0.46, "district": "Williamson County", "city": "Spring Hill", "ncessch": "470453002237"}, {"name": "Mill Creek Middle School", "lat": 35.939665, "lon": -86.65117, "proficiency": 0.52, "district": "Williamson County", "city": "Nolensville", "ncessch": "470453002472"}, {"name": "Thompson's Station Middle School", "lat": 35.803933, "lon": -86.875788, "proficiency": 0.52, "district": "Williamson County", "city": "Thompson's Station", "ncessch": "470453002525"}, {"name": "Legacy Middle School", "lat": 35.873359, "lon": -86.854961, "proficiency": 0.47, "district": "Williamson County", "city": "Franklin", "ncessch": "470453002638"}, {"name": "Woodland Middle School", "lat": 35.979885, "lon": -86.772078, "proficiency": 0.62, "district": "Williamson County", "city": "Brentwood", "ncessch": "470453010413"}, {"name": "Mt. Juliet Middle School", "lat": 36.21969, "lon": -86.513901, "proficiency": 0.36, "district": "Wilson County", "city": "Mt. Juliet", "ncessch": "470455001636"}, {"name": "Carroll Oakland Elementary", "lat": 36.276114, "lon": -86.278934, "proficiency": 0.37, "district": "Wilson County", "city": "Lebanon", "ncessch": "470455001816"}, {"name": "West Wilson Middle School", "lat": 36.184265, "lon": -86.509973, "proficiency": 0.54, "district": "Wilson County", "city": "Mt Juliet", "ncessch": "470455001822"}, {"name": "Southside Elementary", "lat": 36.169582, "lon": -86.305387, "proficiency": 0.17, "district": "Wilson County", "city": "Lebanon", "ncessch": "470455001823"}, {"name": "Tuckers Crossroads Elementary", "lat": 36.199957, "lon": -86.174909, "proficiency": 0.15, "district": "Wilson County", "city": "Lebanon", "ncessch": "470455001824"}, {"name": "Barry Tatum Virtual Learning Academy", "lat": 36.167459, "lon": -86.305948, "proficiency": 0.37, "district": "Wilson County", "city": "Lebanon", "ncessch": "470455002262"}, {"name": "Watertown Middle School", "lat": 36.099847, "lon": -86.140935, "proficiency": 0.17, "district": "Wilson County", "city": "Watertown", "ncessch": "470455002383"}, {"name": "Gladeville Middle School", "lat": 36.114319, "lon": -86.42874, "proficiency": 0.62, "district": "Wilson County", "city": "Mt. Juliet", "ncessch": "470455002593"}, {"name": "Kingsbury High", "lat": 35.1661, "lon": -89.9253, "proficiency": -0.03, "district": "Memphis-Shelby County Schools", "city": "Memphis", "ncessch": "470014801093"}, {"name": "Ridgeway High", "lat": 35.089, "lon": -89.8601, "proficiency": -0.03, "district": "Memphis-Shelby County Schools", "city": "Memphis", "ncessch": "470014801142"}, {"name": "Dickson County High School", "lat": 36.0895, "lon": -87.3846, "proficiency": -0.03, "district": "Dickson County", "city": "Dickson", "ncessch": "470102000329"}, {"name": "Rockwood High School", "lat": 35.8731, "lon": -84.6898, "proficiency": -0.03, "district": "Roane County", "city": "Rockwood", "ncessch": "470359001489"}, {"name": "Daniel Boone High School", "lat": 36.3809, "lon": -82.5011, "proficiency": -0.03, "district": "Washington County", "city": "Gray", "ncessch": "470438001756"}, {"name": "David Crockett High School", "lat": 36.2599, "lon": -82.5074, "proficiency": -0.03, "district": "Washington County", "city": "Jonesborough", "ncessch": "470438001757"}], "districts": [{"name": "Hamblen County", "lat": 36.21709975, "lon": -83.27347575, "proficiency": 0.3075, "schoolCount": 4}, {"name": "Alcoa", "lat": 35.79198, "lon": -83.980171, "proficiency": 0.37, "schoolCount": 1}, {"name": "Anderson County", "lat": 36.13416525, "lon": -84.16949375, "proficiency": 0.2025, "schoolCount": 4}, {"name": "Athens", "lat": 35.43519, "lon": -84.606175, "proficiency": 0.52, "schoolCount": 1}, {"name": "Tennessee School for Blind", "lat": 36.167611, "lon": -86.653802, "proficiency": 0.245, "schoolCount": 1}, {"name": "Tennessee Schools for the Deaf", "lat": 35.9581, "lon": -83.8777, "proficiency": 0.1075, "schoolCount": 2}, {"name": "Achievement School District", "lat": 35.40671775, "lon": -89.15619825, "proficiency": 0.0563, "schoolCount": 8}, {"name": "Memphis-Shelby County Schools", "lat": 35.123265184615384, "lon": -89.9460804923077, "proficiency": 0.0743, "schoolCount": 65}, {"name": "Collierville", "lat": 35.049685, "lon": -89.6739695, "proficiency": 0.45, "schoolCount": 2}, {"name": "Germantown", "lat": 35.099047, "lon": -89.7827385, "proficiency": 0.37, "schoolCount": 2}, {"name": "Arlington", "lat": 35.276137, "lon": -89.69152, "proficiency": 0.62, "schoolCount": 1}, {"name": "Bartlett", "lat": 35.21845166666667, "lon": -89.81685333333333, "proficiency": 0.4033, "schoolCount": 3}, {"name": "Lakeland", "lat": 35.26324, "lon": -89.747537, "proficiency": 0.57, "schoolCount": 1}, {"name": "Bedford County", "lat": 35.524446999999995, "lon": -86.466496, "proficiency": 0.345, "schoolCount": 4}, {"name": "Benton County", "lat": 36.05691133333334, "lon": -88.112287, "proficiency": 0.3217, "schoolCount": 3}, {"name": "Bledsoe County", "lat": 35.5839, "lon": -85.2178, "proficiency": 0.27, "schoolCount": 1}, {"name": "Blount County", "lat": 35.73863925, "lon": -83.98047375, "proficiency": 0.4275, "schoolCount": 4}, {"name": "Bradley County", "lat": 35.152493, "lon": -84.85956033333333, "proficiency": 0.2767, "schoolCount": 3}, {"name": "Bristol", "lat": 36.584086, "lon": -82.177956, "proficiency": 0.42, "schoolCount": 1}, {"name": "Campbell County", "lat": 36.46861833333333, "lon": -84.13001183333334, "proficiency": 0.2058, "schoolCount": 6}, {"name": "Cannon County", "lat": 35.82144433333333, "lon": -86.05361033333334, "proficiency": 0.2142, "schoolCount": 6}, {"name": "Carter County", "lat": 36.3244575, "lon": -82.161714375, "proficiency": 0.1719, "schoolCount": 8}, {"name": "Cheatham County", "lat": 36.2594145, "lon": -87.07058075, "proficiency": 0.2888, "schoolCount": 4}, {"name": "Chester County", "lat": 35.4441, "lon": -88.6169, "proficiency": 0.52, "schoolCount": 1}, {"name": "Claiborne County", "lat": 36.50635, "lon": -83.68598, "proficiency": 0.1936, "schoolCount": 7}, {"name": "Clay County", "lat": 36.55745, "lon": -85.64519999999999, "proficiency": 0.295, "schoolCount": 2}, {"name": "Cleveland", "lat": 35.2047, "lon": -84.8904, "proficiency": 0.28, "schoolCount": 1}, {"name": "Cocke County", "lat": 35.930030333333335, "lon": -83.15486466666667, "proficiency": 0.3411, "schoolCount": 9}, {"name": "Coffee County", "lat": 35.530528, "lon": -86.083531, "proficiency": 0.15, "schoolCount": 1}, {"name": "Crockett County", "lat": 35.7981, "lon": -89.15, "proficiency": 0.47, "schoolCount": 1}, {"name": "Cumberland County", "lat": 35.93241166666667, "lon": -85.00721800000001, "proficiency": 0.4089, "schoolCount": 9}, {"name": "Dayton", "lat": 35.486989, "lon": -85.017367, "proficiency": 0.47, "schoolCount": 1}, {"name": "Decatur County", "lat": 35.6109, "lon": -88.1222, "proficiency": 0.57, "schoolCount": 1}, {"name": "DeKalb County", "lat": 35.98775, "lon": -85.92335, "proficiency": 0.085, "schoolCount": 2}, {"name": "Dickson County", "lat": 36.11243233333334, "lon": -87.32167366666665, "proficiency": 0.245, "schoolCount": 6}, {"name": "Dyer County", "lat": 36.0818, "lon": -89.3591, "proficiency": 0.445, "schoolCount": 2}, {"name": "Dyersburg", "lat": 36.033061, "lon": -89.353582, "proficiency": 0.52, "schoolCount": 1}, {"name": "Elizabethton", "lat": 36.3479, "lon": -82.229, "proficiency": 0.52, "schoolCount": 1}, {"name": "Etowah", "lat": 35.3272, "lon": -84.5342, "proficiency": 0.445, "schoolCount": 1}, {"name": "Fayette County Public Schools", "lat": 35.244091499999996, "lon": -89.442345, "proficiency": 0.025, "schoolCount": 2}, {"name": "Fayetteville", "lat": 35.1462, "lon": -86.5874, "proficiency": 0.12, "schoolCount": 1}, {"name": "Fentress County", "lat": 36.37445675, "lon": -84.938969, "proficiency": 0.2838, "schoolCount": 4}, {"name": "Franklin SSD", "lat": 35.932846999999995, "lon": -86.8921055, "proficiency": 0.495, "schoolCount": 2}, {"name": "Franklin County", "lat": 35.144561, "lon": -86.13387966666666, "proficiency": 0.1533, "schoolCount": 3}, {"name": "Bradford", "lat": 36.0756, "lon": -88.814, "proficiency": 0.445, "schoolCount": 1}, {"name": "Gibson Co Sp Dist", "lat": 36.01968359999999, "lon": -89.004671, "proficiency": 0.47, "schoolCount": 5}, {"name": "Giles County", "lat": 35.164384749999996, "lon": -87.0256425, "proficiency": 0.2712, "schoolCount": 4}, {"name": "Grainger County", "lat": 36.2837685, "lon": -83.56315599999999, "proficiency": 0.21, "schoolCount": 2}, {"name": "Greene County", "lat": 36.19122, "lon": -82.858879, "proficiency": 0.3325, "schoolCount": 4}, {"name": "Greeneville", "lat": 36.149, "lon": -82.8443, "proficiency": 0.37, "schoolCount": 1}, {"name": "Grundy County", "lat": 35.34311983333333, "lon": -85.70345683333333, "proficiency": 0.3058, "schoolCount": 6}, {"name": "Hamilton County", "lat": 35.09700968, "lon": -85.22072336, "proficiency": 0.2668, "schoolCount": 25}, {"name": "Hancock County", "lat": 36.5432, "lon": -83.1983, "proficiency": 0.22, "schoolCount": 1}, {"name": "Hardeman County Schools", "lat": 35.243015, "lon": -88.96484960000001, "proficiency": 0.148, "schoolCount": 5}, {"name": "Hardin County", "lat": 35.123850000000004, "lon": -88.29929999999999, "proficiency": 0.335, "schoolCount": 2}, {"name": "Hawkins County", "lat": 36.427778599999996, "lon": -82.9540848, "proficiency": 0.29, "schoolCount": 5}, {"name": "Haywood County", "lat": 35.597785, "lon": -89.280629, "proficiency": 0.025, "schoolCount": 1}, {"name": "Henderson County", "lat": 35.631457, "lon": -88.38889171428572, "proficiency": 0.5136, "schoolCount": 7}, {"name": "Henry County", "lat": 36.3007505, "lon": -88.3416385, "proficiency": 0.3262, "schoolCount": 4}, {"name": "Hickman County", "lat": 35.84076733333333, "lon": -87.40487033333333, "proficiency": 0.0717, "schoolCount": 3}, {"name": "Hollow Rock - Bruceton", "lat": 36.033982, "lon": -88.262133, "proficiency": 0.15, "schoolCount": 1}, {"name": "Houston County", "lat": 36.315635, "lon": -87.71721, "proficiency": 0.17, "schoolCount": 1}, {"name": "Humboldt City Schools", "lat": 35.8406, "lon": -88.9071, "proficiency": 0.025, "schoolCount": 1}, {"name": "Humphreys County", "lat": 36.046833, "lon": -87.8694785, "proficiency": 0.1825, "schoolCount": 2}, {"name": "Huntingdon Special School District", "lat": 36.0063, "lon": -88.4222, "proficiency": 0.52, "schoolCount": 1}, {"name": "Jackson County", "lat": 36.3489285, "lon": -85.59588299999999, "proficiency": 0.4825, "schoolCount": 2}, {"name": "Jefferson County", "lat": 36.0735805, "lon": -83.47385750000001, "proficiency": 0.3137, "schoolCount": 4}, {"name": "Johnson City", "lat": 36.323354, "lon": -82.374127, "proficiency": 0.47, "schoolCount": 1}, {"name": "Johnson County", "lat": 36.4746105, "lon": -84.235769, "proficiency": 0.135, "schoolCount": 2}, {"name": "Kingsport", "lat": 36.539550000000006, "lon": -82.5324, "proficiency": 0.27, "schoolCount": 2}, {"name": "Knox County", "lat": 35.986252300000004, "lon": -83.97838645, "proficiency": 0.2225, "schoolCount": 20}, {"name": "Lake County", "lat": 36.2658, "lon": -89.4805, "proficiency": 0.15, "schoolCount": 1}, {"name": "Lauderdale County", "lat": 35.8043615, "lon": -89.479926, "proficiency": 0.195, "schoolCount": 2}, {"name": "Lawrence County", "lat": 35.242861857142856, "lon": -87.32912471428571, "proficiency": 0.295, "schoolCount": 7}, {"name": "Lebanon", "lat": 36.211115, "lon": -86.30807, "proficiency": 0.295, "schoolCount": 2}, {"name": "Lenoir City", "lat": 35.8117, "lon": -84.2789, "proficiency": 0.27, "schoolCount": 1}, {"name": "Lewis County", "lat": 35.544, "lon": -87.5541, "proficiency": 0.37, "schoolCount": 1}, {"name": "Lexington", "lat": 35.65355, "lon": -88.376688, "proficiency": 0.42, "schoolCount": 1}, {"name": "Lincoln County", "lat": 35.1116322, "lon": -86.5578184, "proficiency": 0.5, "schoolCount": 5}, {"name": "Loudon County", "lat": 35.725345000000004, "lon": -84.3052895, "proficiency": 0.445, "schoolCount": 4}, {"name": "Macon County", "lat": 36.51625, "lon": -85.9175, "proficiency": 0.285, "schoolCount": 2}, {"name": "Madison County", "lat": 35.631317, "lon": -88.8005245, "proficiency": 0.1008, "schoolCount": 6}, {"name": "Manchester", "lat": 35.472293, "lon": -86.096408, "proficiency": 0.27, "schoolCount": 1}, {"name": "Marion County", "lat": 35.1262695, "lon": -85.67674025, "proficiency": 0.32, "schoolCount": 4}, {"name": "Marshall County", "lat": 35.482169666666664, "lon": -86.78232433333334, "proficiency": 0.27, "schoolCount": 3}, {"name": "Maryville", "lat": 35.7419, "lon": -83.9711, "proficiency": 0.46, "schoolCount": 1}, {"name": "Maury County", "lat": 35.629765222222225, "lon": -87.06571166666667, "proficiency": 0.2411, "schoolCount": 9}, {"name": "McKenzie", "lat": 36.1385, "lon": -88.5211, "proficiency": 0.57, "schoolCount": 1}, {"name": "McMinn County", "lat": 35.41444857142857, "lon": -84.62858728571429, "proficiency": 0.3629, "schoolCount": 7}, {"name": "McNairy County", "lat": 35.15542733333333, "lon": -88.53485783333333, "proficiency": 0.2333, "schoolCount": 6}, {"name": "Meigs County", "lat": 35.519915, "lon": -84.785157, "proficiency": 0.22, "schoolCount": 1}, {"name": "Milan", "lat": 35.9426, "lon": -88.7537, "proficiency": 0.47, "schoolCount": 1}, {"name": "Monroe County", "lat": 35.4197248, "lon": -84.3135144, "proficiency": 0.221, "schoolCount": 5}, {"name": "Montgomery County", "lat": 36.55189571428571, "lon": -87.34443542857142, "proficiency": 0.2086, "schoolCount": 7}, {"name": "Moore County", "lat": 35.30219, "lon": -86.360789, "proficiency": 0.42, "schoolCount": 1}, {"name": "Morgan County", "lat": 36.08508, "lon": -84.53566, "proficiency": 0.105, "schoolCount": 5}, {"name": "Davidson County", "lat": 36.14504206122449, "lon": -86.74085526530612, "proficiency": 0.1165, "schoolCount": 49}, {"name": "Newport", "lat": 35.9631, "lon": -83.1871, "proficiency": 0.47, "schoolCount": 1}, {"name": "Oak Ridge", "lat": 36.0191, "lon": -84.25085, "proficiency": 0.32, "schoolCount": 2}, {"name": "Obion County", "lat": 36.3979922, "lon": -89.1151346, "proficiency": 0.45, "schoolCount": 5}, {"name": "Oneida", "lat": 36.505973, "lon": -84.512304, "proficiency": 0.32, "schoolCount": 1}, {"name": "Overton County", "lat": 36.3419334, "lon": -85.3315112, "proficiency": 0.357, "schoolCount": 5}, {"name": "Paris", "lat": 36.2911, "lon": -88.3346, "proficiency": 0.42, "schoolCount": 1}, {"name": "Perry County", "lat": 35.662892666666664, "lon": -87.81979000000001, "proficiency": 0.205, "schoolCount": 3}, {"name": "Pickett County", "lat": 36.575558, "lon": -85.135448, "proficiency": 0.445, "schoolCount": 1}, {"name": "Polk County", "lat": 35.125786, "lon": -84.56545433333334, "proficiency": 0.3217, "schoolCount": 3}, {"name": "Putnam County", "lat": 36.15842085714286, "lon": -85.4648267142857, "proficiency": 0.32, "schoolCount": 7}, {"name": "Rhea County", "lat": 35.6388375, "lon": -84.905588, "proficiency": 0.42, "schoolCount": 2}, {"name": "Richard City", "lat": 34.995758, "lon": -85.721246, "proficiency": 0.1, "schoolCount": 1}, {"name": "Roane County", "lat": 35.891197142857145, "lon": -84.55737514285714, "proficiency": 0.3307, "schoolCount": 7}, {"name": "Robertson County", "lat": 36.494554799999996, "lon": -86.8425883, "proficiency": 0.1855, "schoolCount": 10}, {"name": "Rogersville", "lat": 36.402857, "lon": -83.005576, "proficiency": 0.42, "schoolCount": 1}, {"name": "Rutherford County", "lat": 35.89311058823529, "lon": -86.47847958823529, "proficiency": 0.4094, "schoolCount": 17}, {"name": "Scott County", "lat": 36.437760000000004, "lon": -84.492731, "proficiency": 0.168, "schoolCount": 5}, {"name": "Sequatchie County", "lat": 35.3575, "lon": -85.4001, "proficiency": 0.27, "schoolCount": 1}, {"name": "Sevier County", "lat": 35.833835125, "lon": -83.540001625, "proficiency": 0.4338, "schoolCount": 8}, {"name": "Smith County", "lat": 36.241672799999996, "lon": -85.9411972, "proficiency": 0.427, "schoolCount": 5}, {"name": "South Carroll", "lat": 35.8715, "lon": -88.3899, "proficiency": 0.695, "schoolCount": 1}, {"name": "Stewart County", "lat": 36.487, "lon": -87.8299, "proficiency": 0.42, "schoolCount": 1}, {"name": "Sullivan County", "lat": 36.488283333333335, "lon": -82.40415533333334, "proficiency": 0.1717, "schoolCount": 3}, {"name": "Sumner County", "lat": 36.410396, "lon": -86.53230830769232, "proficiency": 0.4788, "schoolCount": 13}, {"name": "Sweetwater", "lat": 35.599116, "lon": -84.47178, "proficiency": 0.12, "schoolCount": 1}, {"name": "Tipton County", "lat": 35.5195752, "lon": -89.7022956, "proficiency": 0.199, "schoolCount": 5}, {"name": "Trenton", "lat": 35.9633, "lon": -88.9266, "proficiency": 0.22, "schoolCount": 1}, {"name": "Trousdale County", "lat": 36.39935, "lon": -86.16935000000001, "proficiency": 0.22, "schoolCount": 2}, {"name": "Tullahoma", "lat": 35.358450000000005, "lon": -86.2159, "proficiency": 0.195, "schoolCount": 2}, {"name": "Unicoi County", "lat": 36.137512, "lon": -82.412341, "proficiency": 0.27, "schoolCount": 1}, {"name": "Union City", "lat": 36.419, "lon": -89.0449, "proficiency": 0.37, "schoolCount": 1}, {"name": "Union County", "lat": 36.188902999999996, "lon": -83.8371665, "proficiency": 0.07, "schoolCount": 4}, {"name": "Van Buren County", "lat": 35.751789, "lon": -85.466961, "proficiency": 0.545, "schoolCount": 1}, {"name": "Warren County", "lat": 35.68914171428571, "lon": -85.78788499999999, "proficiency": 0.2171, "schoolCount": 7}, {"name": "Washington County", "lat": 36.309764538461536, "lon": -82.51271492307691, "proficiency": 0.28, "schoolCount": 13}, {"name": "Wayne County", "lat": 35.290990666666666, "lon": -87.831747, "proficiency": 0.1233, "schoolCount": 3}, {"name": "Weakley County", "lat": 36.2382046, "lon": -88.76104360000001, "proficiency": 0.396, "schoolCount": 5}, {"name": "West Carroll Sp Dist", "lat": 35.9745, "lon": -88.657, "proficiency": 0.15, "schoolCount": 1}, {"name": "White County", "lat": 35.942712, "lon": -85.468277, "proficiency": 0.27, "schoolCount": 1}, {"name": "Williamson County", "lat": 35.902853916666665, "lon": -86.85338916666666, "proficiency": 0.525, "schoolCount": 12}, {"name": "Wilson County", "lat": 36.178904125, "lon": -86.332340875, "proficiency": 0.3438, "schoolCount": 8}], "cities": [{"name": "Whitesburg", "lat": 36.2672, "lon": -83.1838, "proficiency": 0.37, "schoolCount": 1}, {"name": "Morristown", "lat": 36.20039966666667, "lon": -83.30336766666666, "proficiency": 0.2867, "schoolCount": 3}, {"name": "Alcoa", "lat": 35.79198, "lon": -83.980171, "proficiency": 0.37, "schoolCount": 1}, {"name": "Clinton", "lat": 36.101337, "lon": -84.13582, "proficiency": 0.27, "schoolCount": 1}, {"name": "Lake City", "lat": 36.209341, "lon": -84.146753, "proficiency": 0.27, "schoolCount": 1}, {"name": "Norris", "lat": 36.195672, "lon": -84.070274, "proficiency": 0.12, "schoolCount": 1}, {"name": "Oliver Springs", "lat": 36.046664666666665, "lon": -84.37521166666666, "proficiency": 0.14, "schoolCount": 3}, {"name": "Athens", "lat": 35.459995, "lon": -84.66529466666667, "proficiency": 0.4033, "schoolCount": 3}, {"name": "Nashville", "lat": 36.152983575, "lon": -86.76263335, "proficiency": 0.1389, "schoolCount": 40}, {"name": "Knoxville", "lat": 35.98129652380952, "lon": -83.97582652380953, "proficiency": 0.2069, "schoolCount": 21}, {"name": "Memphis", "lat": 35.11380909375, "lon": -89.96026315625, "proficiency": 0.0751, "schoolCount": 64}, {"name": "Madison", "lat": 36.253178500000004, "lon": -86.6952585, "proficiency": 0.025, "schoolCount": 2}, {"name": "Cordova", "lat": 35.15946266666666, "lon": -89.76920133333333, "proficiency": 0.0583, "schoolCount": 3}, {"name": "Arlington", "lat": 35.312468499999994, "lon": -89.70551, "proficiency": 0.335, "schoolCount": 2}, {"name": "Millington", "lat": 35.30945, "lon": -90.00274999999999, "proficiency": 0.0625, "schoolCount": 2}, {"name": "Germantown", "lat": 35.090498, "lon": -89.78839233333333, "proficiency": 0.2717, "schoolCount": 3}, {"name": "Collierville", "lat": 35.049685, "lon": -89.6739695, "proficiency": 0.45, "schoolCount": 2}, {"name": "Bartlett", "lat": 35.21845166666667, "lon": -89.81685333333333, "proficiency": 0.4033, "schoolCount": 3}, {"name": "Lakeland", "lat": 35.26324, "lon": -89.747537, "proficiency": 0.57, "schoolCount": 1}, {"name": "Shelbyville", "lat": 35.45885, "lon": -86.4626, "proficiency": 0.295, "schoolCount": 2}, {"name": "Unionville", "lat": 35.613129, "lon": -86.581946, "proficiency": 0.32, "schoolCount": 1}, {"name": "Wartrace", "lat": 35.566959, "lon": -86.358838, "proficiency": 0.47, "schoolCount": 1}, {"name": "Big Sandy", "lat": 36.2286, "lon": -88.0866, "proficiency": 0.3, "schoolCount": 1}, {"name": "Holladay", "lat": 35.870434, "lon": -88.145661, "proficiency": 0.245, "schoolCount": 1}, {"name": "Camden", "lat": 36.0717, "lon": -88.1046, "proficiency": 0.42, "schoolCount": 1}, {"name": "Pikeville", "lat": 35.5839, "lon": -85.2178, "proficiency": 0.27, "schoolCount": 1}, {"name": "Maryville", "lat": 35.73733675, "lon": -83.95490975, "proficiency": 0.4625, "schoolCount": 4}, {"name": "Friendsville", "lat": 35.74711, "lon": -84.073356, "proficiency": 0.32, "schoolCount": 1}, {"name": "Cleveland", "lat": 35.16554475, "lon": -84.86727025, "proficiency": 0.2775, "schoolCount": 4}, {"name": "Bristol", "lat": 36.584086, "lon": -82.177956, "proficiency": 0.42, "schoolCount": 1}, {"name": "Pioneer", "lat": 36.4825, "lon": -84.2527, "proficiency": 0.245, "schoolCount": 1}, {"name": "Jacksboro", "lat": 36.332524, "lon": -84.190752, "proficiency": 0.27, "schoolCount": 1}, {"name": "Jellico", "lat": 36.5752, "lon": -84.1295, "proficiency": 0.1, "schoolCount": 1}, {"name": "La Follette", "lat": 36.389883, "lon": -84.103023, "proficiency": 0.075, "schoolCount": 1}, {"name": "Duff", "lat": 36.515801499999995, "lon": -84.052048, "proficiency": 0.2725, "schoolCount": 2}, {"name": "Auburntown", "lat": 35.945473, "lon": -86.097522, "proficiency": 0.245, "schoolCount": 1}, {"name": "Woodbury", "lat": 35.81749333333334, "lon": -86.00554066666666, "proficiency": 0.2633, "schoolCount": 3}, {"name": "Readyville", "lat": 35.818936, "lon": -86.150006, "proficiency": 0.15, "schoolCount": 1}, {"name": "Bradyville", "lat": 35.711777, "lon": -86.057512, "proficiency": 0.1, "schoolCount": 1}, {"name": "Johnson City", "lat": 36.32911575, "lon": -82.368878, "proficiency": 0.3463, "schoolCount": 4}, {"name": "Roan Mountain", "lat": 36.193559, "lon": -82.063416, "proficiency": 0.05, "schoolCount": 1}, {"name": "Hampton", "lat": 36.2849, "lon": -82.1672, "proficiency": 0.17, "schoolCount": 1}, {"name": "Elizabethton", "lat": 36.3637876, "lon": -82.19688959999999, "proficiency": 0.266, "schoolCount": 5}, {"name": "Butler", "lat": 36.3138, "lon": -82.0201, "proficiency": 0.245, "schoolCount": 1}, {"name": "Pleasant View", "lat": 36.368183, "lon": -87.049217, "proficiency": 0.27, "schoolCount": 1}, {"name": "Ashland City", "lat": 36.288782999999995, "lon": -87.0686605, "proficiency": 0.3075, "schoolCount": 2}, {"name": "Kingston Springs", "lat": 36.091909, "lon": -87.095785, "proficiency": 0.27, "schoolCount": 1}, {"name": "Henderson", "lat": 35.4441, "lon": -88.6169, "proficiency": 0.52, "schoolCount": 1}, {"name": "Clairfield", "lat": 36.568402, "lon": -83.926246, "proficiency": -0.03, "schoolCount": 1}, {"name": "Harrogate", "lat": 36.5656975, "lon": -83.61977949999999, "proficiency": 0.335, "schoolCount": 2}, {"name": "New Tazewell", "lat": 36.441175, "lon": -83.685434, "proficiency": 0.15, "schoolCount": 1}, {"name": "Speedwell", "lat": 36.502381, "lon": -83.790183, "proficiency": 0.15, "schoolCount": 1}, {"name": "Tazewell", "lat": 36.4505485, "lon": -83.580219, "proficiency": 0.2075, "schoolCount": 2}, {"name": "Celina", "lat": 36.5389, "lon": -85.508, "proficiency": 0.345, "schoolCount": 1}, {"name": "Red Boiling Springs", "lat": 36.555099999999996, "lon": -85.81205, "proficiency": 0.1975, "schoolCount": 2}, {"name": "Newport", "lat": 35.9899566, "lon": -83.1824718, "proficiency": 0.286, "schoolCount": 5}, {"name": "Cosby", "lat": 35.819477666666664, "lon": -83.25664333333333, "proficiency": 0.5817, "schoolCount": 3}, {"name": "Del Rio", "lat": 35.902, "lon": -83.0144, "proficiency": 0.3, "schoolCount": 1}, {"name": "Hartford", "lat": 35.8434, "lon": -83.0966, "proficiency": 0.695, "schoolCount": 1}, {"name": "Parrottsville", "lat": 36.005873, "lon": -83.098441, "proficiency": 0.12, "schoolCount": 1}, {"name": "Manchester", "lat": 35.5014105, "lon": -86.0899695, "proficiency": 0.21, "schoolCount": 2}, {"name": "Alamo", "lat": 35.7981, "lon": -89.15, "proficiency": 0.47, "schoolCount": 1}, {"name": "Crab Orchard", "lat": 35.912049, "lon": -84.897785, "proficiency": 0.245, "schoolCount": 1}, {"name": "Crossville", "lat": 35.9383, "lon": -85.03446666666666, "proficiency": 0.4908, "schoolCount": 6}, {"name": "Rockwood", "lat": 35.8726, "lon": -84.71473333333334, "proficiency": 0.1783, "schoolCount": 3}, {"name": "Pleasant Hill", "lat": 35.977356, "lon": -85.194777, "proficiency": 0.245, "schoolCount": 1}, {"name": "Dayton", "lat": 35.486989, "lon": -85.017367, "proficiency": 0.47, "schoolCount": 1}, {"name": "Parsons", "lat": 35.6109, "lon": -88.1222, "proficiency": 0.57, "schoolCount": 1}, {"name": "Smithville", "lat": 35.9693, "lon": -85.8535, "proficiency": 0.12, "schoolCount": 1}, {"name": "Liberty", "lat": 36.0062, "lon": -85.9932, "proficiency": 0.05, "schoolCount": 1}, {"name": "Charlotte", "lat": 36.1825775, "lon": -87.342818, "proficiency": 0.295, "schoolCount": 2}, {"name": "Dickson", "lat": 36.08155, "lon": -87.3832, "proficiency": 0.145, "schoolCount": 2}, {"name": "White Bluff", "lat": 36.1074, "lon": -87.2174, "proficiency": 0.32, "schoolCount": 1}, {"name": "Burns", "lat": 36.038939, "lon": -87.260606, "proficiency": 0.27, "schoolCount": 1}, {"name": "Newbern", "lat": 36.1139, "lon": -89.2832, "proficiency": 0.47, "schoolCount": 1}, {"name": "Dyersburg", "lat": 36.0413805, "lon": -89.39429100000001, "proficiency": 0.47, "schoolCount": 2}, {"name": "Etowah", "lat": 35.326601, "lon": -84.53842850000001, "proficiency": 0.4325, "schoolCount": 2}, {"name": "Somerville", "lat": 35.2843, "lon": -89.3696, "proficiency": 0.025, "schoolCount": 1}, {"name": "Oakland", "lat": 35.203883, "lon": -89.51509, "proficiency": 0.025, "schoolCount": 1}, {"name": "Fayetteville", "lat": 35.101804, "lon": -86.564418, "proficiency": 0.3762, "schoolCount": 4}, {"name": "Allardt", "lat": 36.378, "lon": -84.8801, "proficiency": 0.245, "schoolCount": 1}, {"name": "Jamestown", "lat": 36.436404499999995, "lon": -84.9363755, "proficiency": 0.37, "schoolCount": 2}, {"name": "Grimsley", "lat": 36.247018, "lon": -85.003025, "proficiency": 0.15, "schoolCount": 1}, {"name": "Franklin", "lat": 35.9152765, "lon": -86.88227733333333, "proficiency": 0.5083, "schoolCount": 6}, {"name": "Huntland", "lat": 35.0471, "lon": -86.2665, "proficiency": 0.17, "schoolCount": 1}, {"name": "Winchester", "lat": 35.22327, "lon": -86.101435, "proficiency": 0.17, "schoolCount": 1}, {"name": "Cowan", "lat": 35.163313, "lon": -86.033704, "proficiency": 0.12, "schoolCount": 1}, {"name": "Bradford", "lat": 36.0756, "lon": -88.814, "proficiency": 0.445, "schoolCount": 1}, {"name": "Dyer", "lat": 36.068855, "lon": -88.98839, "proficiency": 0.445, "schoolCount": 1}, {"name": "Rutherford", "lat": 36.129, "lon": -88.9872, "proficiency": 0.545, "schoolCount": 1}, {"name": "Trenton", "lat": 35.973699999999994, "lon": -89.02529999999999, "proficiency": 0.3575, "schoolCount": 2}, {"name": "Yorkville", "lat": 36.092563, "lon": -89.119565, "proficiency": 0.245, "schoolCount": 1}, {"name": "Medina", "lat": 35.8239, "lon": -88.8042, "proficiency": 0.62, "schoolCount": 1}, {"name": "Pulaski", "lat": 35.21, "lon": -87.0228, "proficiency": 0.22, "schoolCount": 1}, {"name": "Elkton", "lat": 35.057539, "lon": -86.89067, "proficiency": 0.15, "schoolCount": 1}, {"name": "Minor Hill", "lat": 35.0536, "lon": -87.1573, "proficiency": 0.445, "schoolCount": 1}, {"name": "Lynnville", "lat": 35.3364, "lon": -87.0318, "proficiency": 0.27, "schoolCount": 1}, {"name": "Washburn", "lat": 36.2937, "lon": -83.5908, "proficiency": 0.15, "schoolCount": 1}, {"name": "Rutledge", "lat": 36.273837, "lon": -83.535512, "proficiency": 0.27, "schoolCount": 1}, {"name": "Afton", "lat": 36.1875, "lon": -82.7326, "proficiency": 0.47, "schoolCount": 1}, {"name": "Greeneville", "lat": 36.176813333333335, "lon": -82.863447, "proficiency": 0.3367, "schoolCount": 3}, {"name": "Mosheim", "lat": 36.19594, "lon": -82.956875, "proficiency": 0.22, "schoolCount": 1}, {"name": "Coalmont", "lat": 35.34489, "lon": -85.700355, "proficiency": 0.1, "schoolCount": 1}, {"name": "Palmer", "lat": 35.352903, "lon": -85.563806, "proficiency": 0.245, "schoolCount": 1}, {"name": "Pelham", "lat": 35.309506, "lon": -85.884593, "proficiency": 0.75, "schoolCount": 1}, {"name": "Gruetli- Laager", "lat": 35.380994, "lon": -85.61157, "proficiency": 0.245, "schoolCount": 1}, {"name": "Altamont", "lat": 35.414648, "lon": -85.711075, "proficiency": 0.445, "schoolCount": 1}, {"name": "Tracy City", "lat": 35.255778, "lon": -85.749342, "proficiency": 0.05, "schoolCount": 1}, {"name": "Ooltewah", "lat": 35.088485, "lon": -85.07803899999999, "proficiency": 0.295, "schoolCount": 2}, {"name": "Hixson", "lat": 35.173832000000004, "lon": -85.192025, "proficiency": 0.47, "schoolCount": 2}, {"name": "Harrison", "lat": 35.1095, "lon": -85.1393, "proficiency": 0.17, "schoolCount": 1}, {"name": "Chattanooga", "lat": 35.05079453333334, "lon": -85.26082606666667, "proficiency": 0.2047, "schoolCount": 15}, {"name": "Sale Creek", "lat": 35.382161, "lon": -85.104615, "proficiency": 0.37, "schoolCount": 1}, {"name": "Signal Mountain", "lat": 35.161727, "lon": -85.368051, "proficiency": 0.57, "schoolCount": 1}, {"name": "Soddy Daisy", "lat": 35.242014, "lon": -85.1966575, "proficiency": 0.22, "schoolCount": 2}, {"name": "Apison", "lat": 35.001274, "lon": -85.060284, "proficiency": 0.52, "schoolCount": 1}, {"name": "Sneedville", "lat": 36.5096465, "lon": -83.15656200000001, "proficiency": 0.2325, "schoolCount": 2}, {"name": "Bolivar", "lat": 35.2522, "lon": -89.0005, "proficiency": 0.12, "schoolCount": 1}, {"name": "Hornsby", "lat": 35.226626, "lon": -88.831214, "proficiency": 0.3, "schoolCount": 1}, {"name": "Middleton", "lat": 35.063179, "lon": -88.895021, "proficiency": 0.12, "schoolCount": 1}, {"name": "Toone", "lat": 35.3548, "lon": -88.9523, "proficiency": 0.1, "schoolCount": 1}, {"name": "Whiteville", "lat": 35.31827, "lon": -89.145213, "proficiency": 0.1, "schoolCount": 1}, {"name": "Savannah", "lat": 35.2048, "lon": -88.2511, "proficiency": 0.37, "schoolCount": 1}, {"name": "Counce", "lat": 35.0429, "lon": -88.3475, "proficiency": 0.3, "schoolCount": 1}, {"name": "Bulls Gap", "lat": 36.2625, "lon": -83.0849, "proficiency": 0.345, "schoolCount": 1}, {"name": "Church Hill", "lat": 36.5255, "lon": -82.7101, "proficiency": 0.32, "schoolCount": 1}, {"name": "Rogersville", "lat": 36.4070785, "lon": -82.999788, "proficiency": 0.27, "schoolCount": 2}, {"name": "Surgoinsville", "lat": 36.4635, "lon": -82.8666, "proficiency": 0.42, "schoolCount": 1}, {"name": "Brownsville", "lat": 35.597785, "lon": -89.280629, "proficiency": 0.025, "schoolCount": 1}, {"name": "Lexington", "lat": 35.649468, "lon": -88.40041325, "proficiency": 0.4525, "schoolCount": 4}, {"name": "Wildersville", "lat": 35.77, "lon": -88.3933, "proficiency": 0.345, "schoolCount": 1}, {"name": "Scotts Hill", "lat": 35.513815, "lon": -88.24428, "proficiency": 0.545, "schoolCount": 1}, {"name": "Huron", "lat": 35.689162, "lon": -88.537597, "proficiency": 0.67, "schoolCount": 1}, {"name": "Reagan", "lat": 35.5029, "lon": -88.3221, "proficiency": 0.645, "schoolCount": 1}, {"name": "Henry", "lat": 36.205051, "lon": -88.411277, "proficiency": 0.445, "schoolCount": 1}, {"name": "Puryear", "lat": 36.431, "lon": -88.3306, "proficiency": 0.52, "schoolCount": 1}, {"name": "Buchanan", "lat": 36.3619, "lon": -88.2134, "proficiency": 0.37, "schoolCount": 1}, {"name": "Paris", "lat": 36.2480755, "lon": -88.3729385, "proficiency": 0.195, "schoolCount": 2}, {"name": "Lyles", "lat": 35.93012, "lon": -87.31936, "proficiency": 0.075, "schoolCount": 1}, {"name": "Centerville", "lat": 35.796091000000004, "lon": -87.4476255, "proficiency": 0.07, "schoolCount": 2}, {"name": "Bruceton", "lat": 36.033982, "lon": -88.262133, "proficiency": 0.15, "schoolCount": 1}, {"name": "Erin", "lat": 36.315635, "lon": -87.71721, "proficiency": 0.17, "schoolCount": 1}, {"name": "Humboldt", "lat": 35.8406, "lon": -88.9071, "proficiency": 0.025, "schoolCount": 1}, {"name": "New Johnsonville", "lat": 36.0084, "lon": -87.9613, "proficiency": 0.245, "schoolCount": 1}, {"name": "Waverly", "lat": 36.085266, "lon": -87.777657, "proficiency": 0.12, "schoolCount": 1}, {"name": "Huntingdon", "lat": 36.0063, "lon": -88.4222, "proficiency": 0.52, "schoolCount": 1}, {"name": "Cookeville", "lat": 36.1816122, "lon": -85.4892356, "proficiency": 0.44, "schoolCount": 5}, {"name": "Gainesboro", "lat": 36.388857, "lon": -85.662866, "proficiency": 0.27, "schoolCount": 1}, {"name": "Jefferson City", "lat": 36.1094, "lon": -83.5126, "proficiency": 0.27, "schoolCount": 1}, {"name": "Dandridge", "lat": 36.021852, "lon": -83.404163, "proficiency": 0.37, "schoolCount": 1}, {"name": "Strawberry Plains", "lat": 36.044585, "lon": -83.69958349999999, "proficiency": 0.3075, "schoolCount": 2}, {"name": "White Pine", "lat": 36.0988, "lon": -83.2964, "proficiency": 0.27, "schoolCount": 1}, {"name": "Mountain City", "lat": 36.47868, "lon": -81.796869, "proficiency": 0.22, "schoolCount": 1}, {"name": "White House", "lat": 36.4621205, "lon": -86.68428449999999, "proficiency": 0.2412, "schoolCount": 4}, {"name": "Kingsport", "lat": 36.519733333333335, "lon": -82.5532, "proficiency": 0.1967, "schoolCount": 3}, {"name": "Powell", "lat": 36.0227, "lon": -84.0483, "proficiency": 0.22, "schoolCount": 1}, {"name": "Ridgely", "lat": 36.2658, "lon": -89.4805, "proficiency": 0.15, "schoolCount": 1}, {"name": "Ripley", "lat": 35.7288, "lon": -89.5558, "proficiency": 0.12, "schoolCount": 1}, {"name": "Halls", "lat": 35.879923, "lon": -89.404052, "proficiency": 0.27, "schoolCount": 1}, {"name": "Lawrenceburg", "lat": 35.240003, "lon": -87.29698066666667, "proficiency": 0.1783, "schoolCount": 3}, {"name": "Ethridge", "lat": 35.323251, "lon": -87.296519, "proficiency": 0.245, "schoolCount": 1}, {"name": "Loretto", "lat": 35.068, "lon": -87.4589, "proficiency": 0.42, "schoolCount": 1}, {"name": "Summertown", "lat": 35.432973, "lon": -87.308212, "proficiency": 0.42, "schoolCount": 1}, {"name": "Leoma", "lat": 35.1558, "lon": -87.3493, "proficiency": 0.445, "schoolCount": 1}, {"name": "Lebanon", "lat": 36.205890333333336, "lon": -86.28021966666667, "proficiency": 0.275, "schoolCount": 6}, {"name": "Lenoir City", "lat": 35.825950000000006, "lon": -84.28405, "proficiency": 0.495, "schoolCount": 2}, {"name": "Hohenwald", "lat": 35.544, "lon": -87.5541, "proficiency": 0.37, "schoolCount": 1}, {"name": "Petersburg", "lat": 35.237563, "lon": -86.705259, "proficiency": 0.545, "schoolCount": 1}, {"name": "Flintville", "lat": 35.059582, "lon": -86.413561, "proficiency": 0.57, "schoolCount": 1}, {"name": "Loudon", "lat": 35.723736, "lon": -84.350802, "proficiency": 0.37, "schoolCount": 1}, {"name": "Greenback", "lat": 35.656744, "lon": -84.178656, "proficiency": 0.245, "schoolCount": 1}, {"name": "Philadelphia", "lat": 35.6807, "lon": -84.4025, "proficiency": 0.445, "schoolCount": 1}, {"name": "Lafayette", "lat": 36.4983, "lon": -85.9933, "proficiency": 0.42, "schoolCount": 1}, {"name": "Jackson", "lat": 35.631317, "lon": -88.8005245, "proficiency": 0.1008, "schoolCount": 6}, {"name": "Monteagle", "lat": 35.239054, "lon": -85.831511, "proficiency": 0.495, "schoolCount": 1}, {"name": "South Pittsburg", "lat": 35.000991, "lon": -85.715498, "proficiency": 0.1725, "schoolCount": 2}, {"name": "Whitwell", "lat": 35.1806, "lon": -85.534, "proficiency": 0.32, "schoolCount": 1}, {"name": "Jasper", "lat": 35.0792, "lon": -85.6317, "proficiency": 0.22, "schoolCount": 1}, {"name": "Lewisburg", "lat": 35.460234, "lon": -86.815421, "proficiency": 0.27, "schoolCount": 1}, {"name": "Cornersville", "lat": 35.356175, "lon": -86.841652, "proficiency": 0.22, "schoolCount": 1}, {"name": "Chapel Hill", "lat": 35.6301, "lon": -86.6899, "proficiency": 0.32, "schoolCount": 1}, {"name": "Columbia", "lat": 35.62233366666667, "lon": -87.02901000000001, "proficiency": 0.115, "schoolCount": 3}, {"name": "Culleoka", "lat": 35.481813, "lon": -86.987187, "proficiency": 0.32, "schoolCount": 1}, {"name": "Hampshire", "lat": 35.5953, "lon": -87.2905, "proficiency": 0.15, "schoolCount": 1}, {"name": "Santa Fe", "lat": 35.7322, "lon": -87.1291, "proficiency": 0.545, "schoolCount": 1}, {"name": "Mt. Pleasant", "lat": 35.5487, "lon": -87.2052, "proficiency": 0.12, "schoolCount": 1}, {"name": "Spring Hill", "lat": 35.735906666666665, "lon": -86.92146333333334, "proficiency": 0.3833, "schoolCount": 3}, {"name": "McKenzie", "lat": 36.1385, "lon": -88.5211, "proficiency": 0.57, "schoolCount": 1}, {"name": "Calhoun", "lat": 35.292936, "lon": -84.744279, "proficiency": 0.245, "schoolCount": 1}, {"name": "Englewood", "lat": 35.424458, "lon": -84.483572, "proficiency": 0.47, "schoolCount": 1}, {"name": "Niota", "lat": 35.518381, "lon": -84.554404, "proficiency": 0.245, "schoolCount": 1}, {"name": "Riceville", "lat": 35.394568, "lon": -84.68549, "proficiency": 0.47, "schoolCount": 1}, {"name": "Adamsville", "lat": 35.232928, "lon": -88.386709, "proficiency": 0.27, "schoolCount": 1}, {"name": "Bethel Springs", "lat": 35.234277, "lon": -88.608269, "proficiency": 0.245, "schoolCount": 1}, {"name": "Michie", "lat": 35.0695, "lon": -88.4343, "proficiency": 0.3, "schoolCount": 1}, {"name": "Ramer", "lat": 35.071276, "lon": -88.618717, "proficiency": 0.345, "schoolCount": 1}, {"name": "Selmer", "lat": 35.162291499999995, "lon": -88.580576, "proficiency": 0.12, "schoolCount": 2}, {"name": "Decatur", "lat": 35.519915, "lon": -84.785157, "proficiency": 0.22, "schoolCount": 1}, {"name": "Milan", "lat": 35.9426, "lon": -88.7537, "proficiency": 0.47, "schoolCount": 1}, {"name": "Tellico Plains", "lat": 35.321982999999996, "lon": -84.32486566666667, "proficiency": 0.2217, "schoolCount": 3}, {"name": "Madisonville", "lat": 35.536875, "lon": -84.356575, "proficiency": 0.17, "schoolCount": 1}, {"name": "Vonore", "lat": 35.5958, "lon": -84.2364, "proficiency": 0.27, "schoolCount": 1}, {"name": "Clarksville", "lat": 36.57702833333334, "lon": -87.33827466666666, "proficiency": 0.2067, "schoolCount": 6}, {"name": "Cunningham", "lat": 36.4011, "lon": -87.3814, "proficiency": 0.22, "schoolCount": 1}, {"name": "Lynchburg", "lat": 35.30219, "lon": -86.360789, "proficiency": 0.42, "schoolCount": 1}, {"name": "Coalfield", "lat": 36.0272, "lon": -84.421, "proficiency": 0.15, "schoolCount": 1}, {"name": "Oakdale", "lat": 35.9823, "lon": -84.5783, "proficiency": 0.15, "schoolCount": 1}, {"name": "Sunbright", "lat": 36.2599, "lon": -84.6779, "proficiency": 0.05, "schoolCount": 1}, {"name": "Wartburg", "lat": 36.0888, "lon": -84.5454, "proficiency": 0.075, "schoolCount": 1}, {"name": "Antioch", "lat": 36.04906871428572, "lon": -86.64979014285714, "proficiency": 0.0393, "schoolCount": 7}, {"name": "Hermitage", "lat": 36.1995, "lon": -86.6118, "proficiency": 0.025, "schoolCount": 1}, {"name": "Old Hickory", "lat": 36.2506, "lon": -86.643, "proficiency": 0.075, "schoolCount": 1}, {"name": "Goodlettsville", "lat": 36.3181, "lon": -86.7122, "proficiency": 0.025, "schoolCount": 1}, {"name": "Oak Ridge", "lat": 36.0191, "lon": -84.25085, "proficiency": 0.32, "schoolCount": 2}, {"name": "South Fulton", "lat": 36.494261, "lon": -88.899973, "proficiency": 0.345, "schoolCount": 1}, {"name": "Union City", "lat": 36.41276666666667, "lon": -89.08026666666667, "proficiency": 0.4533, "schoolCount": 3}, {"name": "Hornbeak", "lat": 36.3446, "lon": -89.3086, "proficiency": 0.345, "schoolCount": 1}, {"name": "Troy", "lat": 36.3318, "lon": -89.1712, "proficiency": 0.57, "schoolCount": 1}, {"name": "Oneida", "lat": 36.504836499999996, "lon": -84.522452, "proficiency": 0.235, "schoolCount": 2}, {"name": "Allons", "lat": 36.437703, "lon": -85.346497, "proficiency": 0.3, "schoolCount": 1}, {"name": "Hilham", "lat": 36.4091, "lon": -85.4339, "proficiency": 0.445, "schoolCount": 1}, {"name": "Livingston", "lat": 36.382964, "lon": -85.332859, "proficiency": 0.42, "schoolCount": 1}, {"name": "Rickman", "lat": 36.2633, "lon": -85.3725, "proficiency": 0.32, "schoolCount": 1}, {"name": "Crawford", "lat": 36.2166, "lon": -85.1718, "proficiency": 0.3, "schoolCount": 1}, {"name": "Lobelville", "lat": 35.7712, "lon": -87.7805, "proficiency": 0.495, "schoolCount": 1}, {"name": "Linden", "lat": 35.608739, "lon": -87.83943500000001, "proficiency": 0.06, "schoolCount": 2}, {"name": "Byrdstown", "lat": 36.575558, "lon": -85.135448, "proficiency": 0.445, "schoolCount": 1}, {"name": "Copperhill", "lat": 35.020727, "lon": -84.38906, "proficiency": 0.345, "schoolCount": 1}, {"name": "Benton", "lat": 35.1783155, "lon": -84.6536515, "proficiency": 0.31, "schoolCount": 2}, {"name": "Monterey", "lat": 36.142588, "lon": -85.260339, "proficiency": 0.22, "schoolCount": 1}, {"name": "Baxter", "lat": 36.169081, "lon": -85.631857, "proficiency": 0.27, "schoolCount": 1}, {"name": "Algood", "lat": 36.198216, "lon": -85.444313, "proficiency": 0.245, "schoolCount": 1}, {"name": "Spring City", "lat": 35.6914, "lon": -84.8712, "proficiency": 0.42, "schoolCount": 1}, {"name": "Evensville", "lat": 35.586275, "lon": -84.939976, "proficiency": 0.42, "schoolCount": 1}, {"name": "Harriman", "lat": 35.9049485, "lon": -84.55950949999999, "proficiency": 0.3325, "schoolCount": 2}, {"name": "Kingston", "lat": 35.8632, "lon": -84.5039, "proficiency": 0.52, "schoolCount": 1}, {"name": "Ten Mile", "lat": 35.7775, "lon": -84.5553, "proficiency": 0.67, "schoolCount": 1}, {"name": "Cross Plains", "lat": 36.5465, "lon": -86.7049, "proficiency": 0.27, "schoolCount": 1}, {"name": "Greenbrier", "lat": 36.4235, "lon": -86.8038, "proficiency": 0.27, "schoolCount": 1}, {"name": "Cedar Hill", "lat": 36.5664, "lon": -87.0249, "proficiency": 0.17, "schoolCount": 1}, {"name": "Springfield", "lat": 36.4927414, "lon": -86.90286280000001, "proficiency": 0.15, "schoolCount": 5}, {"name": "Murfreesboro", "lat": 35.85474383333334, "lon": -86.37855266666668, "proficiency": 0.4525, "schoolCount": 6}, {"name": "Eagleville", "lat": 35.7394, "lon": -86.643, "proficiency": 0.57, "schoolCount": 1}, {"name": "Smyrna", "lat": 35.96678385714286, "lon": -86.53580628571429, "proficiency": 0.395, "schoolCount": 7}, {"name": "Christiana", "lat": 35.7327, "lon": -86.4077, "proficiency": 0.31, "schoolCount": 1}, {"name": "La Vergne", "lat": 36.030367, "lon": -86.560226, "proficiency": 0.2, "schoolCount": 1}, {"name": "Rockvale", "lat": 35.784463, "lon": -86.501267, "proficiency": 0.4, "schoolCount": 1}, {"name": "Robbins", "lat": 36.353334, "lon": -84.585601, "proficiency": 0.1, "schoolCount": 1}, {"name": "Huntsville", "lat": 36.3953185, "lon": -84.4451735, "proficiency": 0.245, "schoolCount": 2}, {"name": "Winfield", "lat": 36.541129, "lon": -84.455107, "proficiency": 0.1, "schoolCount": 1}, {"name": "Dunlap", "lat": 35.3575, "lon": -85.4001, "proficiency": 0.27, "schoolCount": 1}, {"name": "Sevierville", "lat": 35.822834, "lon": -83.54789433333333, "proficiency": 0.2633, "schoolCount": 3}, {"name": "Pigeon Forge", "lat": 35.803057, "lon": -83.585069, "proficiency": 0.47, "schoolCount": 1}, {"name": "Seymour", "lat": 35.884358, "lon": -83.744806, "proficiency": 0.52, "schoolCount": 1}, {"name": "Kodak", "lat": 35.953865, "lon": -83.587559, "proficiency": 0.32, "schoolCount": 1}, {"name": "Gatlinburg", "lat": 35.734783, "lon": -83.448048, "proficiency": 0.62, "schoolCount": 1}, {"name": "Carthage", "lat": 36.273688, "lon": -85.96929533333333, "proficiency": 0.49, "schoolCount": 3}, {"name": "Elmwood", "lat": 36.2157, "lon": -85.869, "proficiency": 0.495, "schoolCount": 1}, {"name": "Gordonsville", "lat": 36.1716, "lon": -85.9291, "proficiency": 0.17, "schoolCount": 1}, {"name": "Clarksburg", "lat": 35.8715, "lon": -88.3899, "proficiency": 0.695, "schoolCount": 1}, {"name": "Dover", "lat": 36.487, "lon": -87.8299, "proficiency": 0.42, "schoolCount": 1}, {"name": "Blountville", "lat": 36.4897, "lon": -82.4143, "proficiency": 0.345, "schoolCount": 1}, {"name": "Bluff City", "lat": 36.49505, "lon": -82.203366, "proficiency": 0.12, "schoolCount": 1}, {"name": "Hendersonville", "lat": 36.325720000000004, "lon": -86.61048000000001, "proficiency": 0.645, "schoolCount": 5}, {"name": "Gallatin", "lat": 36.38672725, "lon": -86.47053425, "proficiency": 0.355, "schoolCount": 4}, {"name": "Portland", "lat": 36.5786195, "lon": -86.5225355, "proficiency": 0.345, "schoolCount": 2}, {"name": "Westmoreland", "lat": 36.5699, "lon": -86.2559, "proficiency": 0.37, "schoolCount": 1}, {"name": "Sweetwater", "lat": 35.599116, "lon": -84.47178, "proficiency": 0.12, "schoolCount": 1}, {"name": "Covington", "lat": 35.55227433333334, "lon": -89.65521366666667, "proficiency": 0.065, "schoolCount": 3}, {"name": "Munford", "lat": 35.45864, "lon": -89.80279, "proficiency": 0.45, "schoolCount": 1}, {"name": "Brighton", "lat": 35.482413, "lon": -89.743047, "proficiency": 0.35, "schoolCount": 1}, {"name": "Hartsville", "lat": 36.39935, "lon": -86.16935000000001, "proficiency": 0.22, "schoolCount": 2}, {"name": "Tullahoma", "lat": 35.358450000000005, "lon": -86.2159, "proficiency": 0.195, "schoolCount": 2}, {"name": "Erwin", "lat": 36.137512, "lon": -82.412341, "proficiency": 0.27, "schoolCount": 1}, {"name": "Maynardville", "lat": 36.247343666666666, "lon": -83.80474600000001, "proficiency": 0.0367, "schoolCount": 3}, {"name": "Spencer", "lat": 35.751789, "lon": -85.466961, "proficiency": 0.545, "schoolCount": 1}, {"name": "McMinnville", "lat": 35.696635199999996, "lon": -85.788848, "proficiency": 0.206, "schoolCount": 5}, {"name": "Rock Island", "lat": 35.739452, "lon": -85.662552, "proficiency": 0.245, "schoolCount": 1}, {"name": "Morrison", "lat": 35.601364, "lon": -85.908403, "proficiency": 0.245, "schoolCount": 1}, {"name": "Fall Branch", "lat": 36.411084, "lon": -82.619368, "proficiency": 0.3, "schoolCount": 1}, {"name": "Gray", "lat": 36.39670133333333, "lon": -82.49443233333334, "proficiency": 0.295, "schoolCount": 3}, {"name": "Jonesborough", "lat": 36.2813195, "lon": -82.49388125, "proficiency": 0.1825, "schoolCount": 4}, {"name": "Chuckey", "lat": 36.1555, "lon": -82.6148, "proficiency": 0.245, "schoolCount": 1}, {"name": "Limestone", "lat": 36.2238, "lon": -82.591, "proficiency": 0.245, "schoolCount": 1}, {"name": "Telford", "lat": 36.260427, "lon": -82.56747, "proficiency": 0.42, "schoolCount": 1}, {"name": "Collinwood", "lat": 35.177534, "lon": -87.738604, "proficiency": 0.12, "schoolCount": 1}, {"name": "Clifton", "lat": 35.382038, "lon": -87.993937, "proficiency": 0.1, "schoolCount": 1}, {"name": "Waynesboro", "lat": 35.3134, "lon": -87.7627, "proficiency": 0.15, "schoolCount": 1}, {"name": "Dresden", "lat": 36.278217, "lon": -88.704289, "proficiency": 0.67, "schoolCount": 1}, {"name": "Gleason", "lat": 36.213216, "lon": -88.61371, "proficiency": 0.495, "schoolCount": 1}, {"name": "Greenfield", "lat": 36.1523, "lon": -88.8071, "proficiency": 0.3, "schoolCount": 1}, {"name": "Martin", "lat": 36.3109, "lon": -88.8563, "proficiency": 0.27, "schoolCount": 1}, {"name": "Sharon", "lat": 36.23639, "lon": -88.823819, "proficiency": 0.245, "schoolCount": 1}, {"name": "Atwood", "lat": 35.9745, "lon": -88.657, "proficiency": 0.15, "schoolCount": 1}, {"name": "Sparta", "lat": 35.942712, "lon": -85.468277, "proficiency": 0.27, "schoolCount": 1}, {"name": "Thompson Station", "lat": 35.787031, "lon": -86.918164, "proficiency": 0.47, "schoolCount": 1}, {"name": "Brentwood", "lat": 35.987287, "lon": -86.758759, "proficiency": 0.6667, "schoolCount": 3}, {"name": "Fairview", "lat": 35.950945, "lon": -87.137816, "proficiency": 0.27, "schoolCount": 1}, {"name": "Nolensville", "lat": 35.939665, "lon": -86.65117, "proficiency": 0.52, "schoolCount": 1}, {"name": "Thompson's Station", "lat": 35.803933, "lon": -86.875788, "proficiency": 0.52, "schoolCount": 1}, {"name": "Mt. Juliet", "lat": 36.167004500000004, "lon": -86.4713205, "proficiency": 0.49, "schoolCount": 2}, {"name": "Mt Juliet", "lat": 36.184265, "lon": -86.509973, "proficiency": 0.54, "schoolCount": 1}, {"name": "Watertown", "lat": 36.099847, "lon": -86.140935, "proficiency": 0.17, "schoolCount": 1}]}