{"state": "UT", "stateName": "Utah", "year": 2024, "naep": {"text": "7 out of 10", "numerator": 7, "denominator": 10}, "schools": [{"name": "American Fork Jr High", "lat": 40.400306, "lon": -111.798427, "proficiency": 0.5187, "district": "Alpine District", "city": "AMERICAN FORK", "ncessch": "490003000003"}, {"name": "Canyon View Jr High", "lat": 40.315569, "lon": -111.679876, "proficiency": 0.5, "district": "Alpine District", "city": "OREM", "ncessch": "490003000819"}, {"name": "Frontier Middle School", "lat": 40.334162, "lon": -112.016069, "proficiency": 0.4213, "district": "Alpine District", "city": "EAGLE MOUNTAIN", "ncessch": "490003001454"}, {"name": "Lake Mountain Middle", "lat": 40.342618, "lon": -111.91922, "proficiency": 0.5117, "district": "Alpine District", "city": "SARATOGA SPRINGS", "ncessch": "490003001575"}, {"name": "Lakeridge Jr High", "lat": 40.27994, "lon": -111.702917, "proficiency": 0.3448, "district": "Alpine District", "city": "OREM", "ncessch": "490003000016"}, {"name": "Lehi Jr High", "lat": 40.403414, "lon": -111.837094, "proficiency": 0.5578, "district": "Alpine District", "city": "LEHI", "ncessch": "490003000018"}, {"name": "Mountain Ridge Jr High", "lat": 40.419768, "lon": -111.790693, "proficiency": 0.5804, "district": "Alpine District", "city": "HIGHLAND", "ncessch": "490003000074"}, {"name": "Oak Canyon Jr High", "lat": 40.335722, "lon": -111.698348, "proficiency": 0.5276, "district": "Alpine District", "city": "LINDON", "ncessch": "490003000075"}, {"name": "Orem Jr High", "lat": 40.310867, "lon": -111.711747, "proficiency": 0.2444, "district": "Alpine District", "city": "OREM", "ncessch": "490003000022"}, {"name": "Pleasant Grove Jr High", "lat": 40.371557, "lon": -111.73815, "proficiency": 0.6403, "district": "Alpine District", "city": "PLEASANT GROVE", "ncessch": "490003000025"}, {"name": "Timberline Middle", "lat": 40.450339, "lon": -111.787263, "proficiency": 0.5784, "district": "Alpine District", "city": "ALPINE", "ncessch": "490003000909"}, {"name": "Viewpoint Middle", "lat": 40.436633, "lon": -111.853691, "proficiency": 0.3837, "district": "Alpine District", "city": "LEHI", "ncessch": "490003001619"}, {"name": "Vista Heights Middle", "lat": 40.3634, "lon": -111.9277, "proficiency": 0.3991, "district": "Alpine District", "city": "SARATOGA SPRINGS", "ncessch": "490003001387"}, {"name": "Willowcreek Middle", "lat": 40.389773, "lon": -111.884573, "proficiency": 0.4615, "district": "Alpine District", "city": "LEHI", "ncessch": "490003001109"}, {"name": "American Preparatory Academy - Accelerated School", "lat": 40.704646, "lon": -111.977833, "proficiency": 0.1834, "district": "American Preparatory Academy", "city": "WEST VALLEY CITY", "ncessch": "490000501404"}, {"name": "American Preparatory Academy - Draper #3", "lat": 40.534382, "lon": -111.903092, "proficiency": 0.4798, "district": "American Preparatory Academy", "city": "DRAPER", "ncessch": "490000501471"}, {"name": "Ascent Academies of Utah West Jordan", "lat": 40.602935, "lon": -112.026484, "proficiency": 0.2679, "district": "Ascent Academies of Utah", "city": "WEST JORDAN", "ncessch": "490017401472"}, {"name": "Beaver High", "lat": 38.274897, "lon": -112.638169, "proficiency": 0.4177, "district": "Beaver District", "city": "BEAVER", "ncessch": "490006000036"}, {"name": "Bear River Middle", "lat": 41.725216, "lon": -112.158637, "proficiency": 0.4571, "district": "Box Elder District", "city": "GARLAND", "ncessch": "490009000044"}, {"name": "Box Elder Middle", "lat": 41.509862, "lon": -112.008799, "proficiency": 0.5506, "district": "Box Elder District", "city": "BRIGHAM CITY", "ncessch": "490009000047"}, {"name": "North Cache Middle School", "lat": 41.911456, "lon": -111.812986, "proficiency": 0.6516, "district": "Cache District", "city": "RICHMOND", "ncessch": "490012000078"}, {"name": "South Cache Middle School", "lat": 41.633878, "lon": -111.86909, "proficiency": 0.5949, "district": "Cache District", "city": "HYRUM", "ncessch": "490012000084"}, {"name": "Spring Creek Middle School", "lat": 41.709442, "lon": -111.82659, "proficiency": 0.7135, "district": "Cache District", "city": "PROVIDENCE", "ncessch": "490012000846"}, {"name": "Albion Middle", "lat": 40.586761, "lon": -111.813155, "proficiency": 0.6711, "district": "Canyons District", "city": "SANDY", "ncessch": "490014200815"}, {"name": "Butler Middle", "lat": 40.614237, "lon": -111.818309, "proficiency": 0.6824, "district": "Canyons District", "city": "Salt Lake City", "ncessch": "490014200293"}, {"name": "Draper Park Middle", "lat": 40.51267, "lon": -111.851443, "proficiency": 0.5898, "district": "Canyons District", "city": "DRAPER", "ncessch": "490014200875"}, {"name": "Eastmont Middle", "lat": 40.56687, "lon": -111.854721, "proficiency": 0.5104, "district": "Canyons District", "city": "SANDY", "ncessch": "490014200302"}, {"name": "Indian Hills Middle", "lat": 40.539035, "lon": -111.856755, "proficiency": 0.5014, "district": "Canyons District", "city": "SANDY", "ncessch": "490014200719"}, {"name": "Midvale Middle", "lat": 40.608129, "lon": -111.901239, "proficiency": 0.2617, "district": "Canyons District", "city": "SANDY", "ncessch": "490014200311"}, {"name": "Mt. Jordan Middle", "lat": 40.58184, "lon": -111.882782, "proficiency": 0.2594, "district": "Canyons District", "city": "SANDY", "ncessch": "490014200316"}, {"name": "Union Middle", "lat": 40.607263, "lon": -111.874661, "proficiency": 0.3519, "district": "Canyons District", "city": "SANDY", "ncessch": "490014200328"}, {"name": "Helper Middle", "lat": 39.689319, "lon": -110.85883, "proficiency": 0.3462, "district": "Carbon District", "city": "HELPER", "ncessch": "490015000092"}, {"name": "Mont Harmon Middle", "lat": 39.605747, "lon": -110.812787, "proficiency": 0.3602, "district": "Carbon District", "city": "PRICE", "ncessch": "490015000093"}, {"name": "Bountiful Jr High", "lat": 40.894172, "lon": -111.881665, "proficiency": 0.3262, "district": "Davis District", "city": "BOUNTIFUL", "ncessch": "490021000106"}, {"name": "Centennial Jr High", "lat": 41.022399, "lon": -111.956069, "proficiency": 0.5827, "district": "Davis District", "city": "KAYSVILLE", "ncessch": "490021001403"}, {"name": "Centerville Jr High", "lat": 40.910407, "lon": -111.878065, "proficiency": 0.5385, "district": "Davis District", "city": "CENTERVILLE", "ncessch": "490021000109"}, {"name": "Central Davis Jr High", "lat": 41.069225, "lon": -111.965148, "proficiency": 0.4014, "district": "Davis District", "city": "LAYTON", "ncessch": "490021000111"}, {"name": "Fairfield Jr High", "lat": 41.050115, "lon": -111.940224, "proficiency": 0.4281, "district": "Davis District", "city": "KAYSVILLE", "ncessch": "490021000169"}, {"name": "Farmington Jr High", "lat": 40.977818, "lon": -111.892864, "proficiency": 0.5699, "district": "Davis District", "city": "FARMINGTON", "ncessch": "490021000749"}, {"name": "Kaysville Jr High", "lat": 41.028522, "lon": -111.935975, "proficiency": 0.6052, "district": "Davis District", "city": "KAYSVILLE", "ncessch": "490021000126"}, {"name": "Legacy Jr High", "lat": 41.066111, "lon": -112.027582, "proficiency": 0.4689, "district": "Davis District", "city": "LAYTON", "ncessch": "490021001275"}, {"name": "Millcreek Jr High", "lat": 40.879804, "lon": -111.875305, "proficiency": 0.3557, "district": "Davis District", "city": "BOUNTIFUL", "ncessch": "490021000133"}, {"name": "Mueller Park Jr High", "lat": 40.872633, "lon": -111.861153, "proficiency": 0.3189, "district": "Davis District", "city": "BOUNTIFUL", "ncessch": "490021000750"}, {"name": "North Davis Jr High", "lat": 41.102516, "lon": -112.011052, "proficiency": 0.1808, "district": "Davis District", "city": "CLEARFIELD", "ncessch": "490021000135"}, {"name": "North Layton Jr High", "lat": 41.090026, "lon": -111.98627, "proficiency": 0.1888, "district": "Davis District", "city": "LAYTON", "ncessch": "490021000136"}, {"name": "Shoreline Junior High", "lat": 41.042376, "lon": -111.997796, "proficiency": 0.52, "district": "Davis District", "city": "LAYTON", "ncessch": "490021001569"}, {"name": "South Davis Jr High", "lat": 40.862136, "lon": -111.888172, "proficiency": 0.2384, "district": "Davis District", "city": "BOUNTIFUL", "ncessch": "490021000142"}, {"name": "Sunset Jr High", "lat": 41.137281, "lon": -112.029729, "proficiency": 0.3031, "district": "Davis District", "city": "SUNSET", "ncessch": "490021000145"}, {"name": "Syracuse Jr High", "lat": 41.093048, "lon": -112.065604, "proficiency": 0.2846, "district": "Davis District", "city": "SYRACUSE", "ncessch": "490021000848"}, {"name": "West Point Jr High", "lat": 41.120705, "lon": -112.079639, "proficiency": 0.2754, "district": "Davis District", "city": "WEST POINT", "ncessch": "490021000923"}, {"name": "Altamont High", "lat": 40.360109, "lon": -110.291395, "proficiency": 0.3415, "district": "Duchesne District", "city": "ALTAMONT", "ncessch": "490024000158"}, {"name": "Duchesne High", "lat": 40.164029, "lon": -110.404512, "proficiency": 0.0968, "district": "Duchesne District", "city": "DUCHESNE", "ncessch": "490024000162"}, {"name": "Roosevelt Jr High", "lat": 40.296175, "lon": -109.998304, "proficiency": 0.364, "district": "Duchesne District", "city": "ROOSEVELT", "ncessch": "490024000167"}, {"name": "Canyon View Middle School", "lat": 39.33628, "lon": -110.973206, "proficiency": 0.1918, "district": "Emery District", "city": "HUNTINGTON", "ncessch": "490027000174"}, {"name": "San Rafael Middle School", "lat": 39.081473, "lon": -111.140071, "proficiency": 0.3898, "district": "Emery District", "city": "FERRON", "ncessch": "490027000182"}, {"name": "Entheos Academy Kearns", "lat": 40.640591, "lon": -112.002841, "proficiency": 0.2353, "district": "Entheos Academy", "city": "KEARNS", "ncessch": "490004101136"}, {"name": "Entheos Academy Magna", "lat": 40.712864, "lon": -112.064479, "proficiency": 0.125, "district": "Entheos Academy", "city": "MAGNA", "ncessch": "490004101437"}, {"name": "Grand County Middle", "lat": 38.566856, "lon": -109.547861, "proficiency": 0.2626, "district": "Grand District", "city": "MOAB", "ncessch": "490033000192"}, {"name": "Bennion Jr High", "lat": 40.641127, "lon": -111.956748, "proficiency": 0.4362, "district": "Granite District", "city": "TAYLORSVILLE", "ncessch": "490036000715"}, {"name": "Bonneville Jr High", "lat": 40.654592, "lon": -111.84576, "proficiency": 0.31, "district": "Granite District", "city": "SALT LAKE CITY", "ncessch": "490036000200"}, {"name": "Churchill Jr High", "lat": 40.677798, "lon": -111.797495, "proficiency": 0.5278, "district": "Granite District", "city": "SALT LAKE CITY", "ncessch": "490036000205"}, {"name": "Eisenhower Jr High", "lat": 40.675068, "lon": -111.937464, "proficiency": 0.2285, "district": "Granite District", "city": "TAYLORSVILLE", "ncessch": "490036000215"}, {"name": "Evergreen Jr High", "lat": 40.697572, "lon": -111.833516, "proficiency": 0.5102, "district": "Granite District", "city": "SALT LAKE CITY", "ncessch": "490036000216"}, {"name": "Granite Park Jr High", "lat": 40.704499, "lon": -111.884772, "proficiency": 0.0658, "district": "Granite District", "city": "SALT LAKE CITY", "ncessch": "490036000223"}, {"name": "Hunter Jr High", "lat": 40.688788, "lon": -112.037602, "proficiency": 0.1364, "district": "Granite District", "city": "WEST VALLEY CITY", "ncessch": "490036000829"}, {"name": "John F. Kennedy Jr High", "lat": 40.673003, "lon": -112.0043, "proficiency": 0.1241, "district": "Granite District", "city": "WEST VALLEY CITY", "ncessch": "490036000233"}, {"name": "Kearns Jr High", "lat": 40.655909, "lon": -111.987397, "proficiency": 0.1411, "district": "Granite District", "city": "KEARNS", "ncessch": "490036000235"}, {"name": "Olympus Jr High", "lat": 40.667877, "lon": -111.82896, "proficiency": 0.608, "district": "Granite District", "city": "SALT LAKE CITY", "ncessch": "490036000249"}, {"name": "Scott M Matheson Jr High", "lat": 40.693665, "lon": -112.077618, "proficiency": 0.1344, "district": "Granite District", "city": "MAGNA", "ncessch": "490036000763"}, {"name": "Thomas Jefferson Jr High", "lat": 40.644923, "lon": -112.025621, "proficiency": 0.138, "district": "Granite District", "city": "KEARNS", "ncessch": "490036000871"}, {"name": "Valley Jr High", "lat": 40.679826, "lon": -111.966659, "proficiency": 0.2148, "district": "Granite District", "city": "WEST VALLEY CITY", "ncessch": "490036000267"}, {"name": "Wasatch Jr High", "lat": 40.690238, "lon": -111.806222, "proficiency": 0.519, "district": "Granite District", "city": "SALT LAKE CITY", "ncessch": "490036000269"}, {"name": "West Lake Jr High", "lat": 40.699154, "lon": -111.974179, "proficiency": 0.1733, "district": "Granite District", "city": "WEST VALLEY CITY", "ncessch": "490036000272"}, {"name": "Hawthorn Academy West Jordan", "lat": 40.586419, "lon": -111.949835, "proficiency": 0.3409, "district": "Hawthorn Academy", "city": "WEST JORDAN", "ncessch": "490013701298"}, {"name": "Canyon View Middle", "lat": 37.711144, "lon": -113.062692, "proficiency": 0.4147, "district": "Iron District", "city": "CEDAR CITY", "ncessch": "490039001122"}, {"name": "Cedar Middle", "lat": 37.658596, "lon": -113.090374, "proficiency": 0.4116, "district": "Iron District", "city": "CEDAR CITY", "ncessch": "490039000280"}, {"name": "Parowan High", "lat": 37.845776, "lon": -112.828448, "proficiency": 0.3387, "district": "Iron District", "city": "PAROWAN", "ncessch": "490039000284"}, {"name": "Copper Mountain Middle", "lat": 40.532161, "lon": -112.025916, "proficiency": 0.3133, "district": "Jordan District", "city": "HERRIMAN", "ncessch": "490042001459"}, {"name": "Elk Ridge Middle", "lat": 40.571861, "lon": -111.978586, "proficiency": 0.5648, "district": "Jordan District", "city": "SOUTH JORDAN", "ncessch": "490042000195"}, {"name": "Fort Herriman Middle", "lat": 40.495589, "lon": -112.035238, "proficiency": 0.3662, "district": "Jordan District", "city": "HERRIMAN", "ncessch": "490042001075"}, {"name": "Hidden Valley Middle", "lat": 40.471778, "lon": -111.929138, "proficiency": 0.4088, "district": "Jordan District", "city": "BLUFFDALE", "ncessch": "490042001541"}, {"name": "Joel P. Jensen Middle", "lat": 40.604288, "lon": -111.965921, "proficiency": 0.2778, "district": "Jordan District", "city": "WEST JORDAN", "ncessch": "490042000816"}, {"name": "Mountain Creek Middle School", "lat": 40.563964, "lon": -112.017222, "proficiency": 0.4603, "district": "Jordan District", "city": "South Jordan", "ncessch": "490042001540"}, {"name": "Oquirrh Hills Middle", "lat": 40.5161, "lon": -111.955524, "proficiency": 0.4696, "district": "Jordan District", "city": "RIVERTON", "ncessch": "490042000720"}, {"name": "South Hills Middle", "lat": 40.50578, "lon": -111.987781, "proficiency": 0.2857, "district": "Jordan District", "city": "RIVERTON", "ncessch": "490042000531"}, {"name": "South Jordan Middle", "lat": 40.565105, "lon": -111.955347, "proficiency": 0.4787, "district": "Jordan District", "city": "SOUTH JORDAN", "ncessch": "490042000896"}, {"name": "Sunset Ridge Middle", "lat": 40.601261, "lon": -112.054804, "proficiency": 0.3, "district": "Jordan District", "city": "WEST JORDAN", "ncessch": "490042001103"}, {"name": "West Hills Middle", "lat": 40.601155, "lon": -112.021562, "proficiency": 0.1808, "district": "Jordan District", "city": "WEST JORDAN", "ncessch": "490042000428"}, {"name": "West Jordan Middle", "lat": 40.614659, "lon": -111.943007, "proficiency": 0.1895, "district": "Jordan District", "city": "WEST JORDAN", "ncessch": "490042000330"}, {"name": "Juab Jr High", "lat": 39.719931, "lon": -111.82538, "proficiency": 0.3317, "district": "Juab District", "city": "NEPHI", "ncessch": "490045000952"}, {"name": "Kanab Middle", "lat": 37.036877, "lon": -112.530219, "proficiency": 0.5775, "district": "Kane District", "city": "KANAB", "ncessch": "490048000796"}, {"name": "Mount Logan Middle", "lat": 41.748221, "lon": -111.830341, "proficiency": 0.3116, "district": "Logan City District", "city": "LOGAN", "ncessch": "490051000352"}, {"name": "Delta Middle", "lat": 39.358489, "lon": -112.568923, "proficiency": 0.65, "district": "Millard District", "city": "DELTA", "ncessch": "490054000357"}, {"name": "Fillmore Middle", "lat": 38.959123, "lon": -112.336537, "proficiency": 0.5309, "district": "Millard District", "city": "FILLMORE", "ncessch": "490054000798"}, {"name": "Morgan Middle", "lat": 41.03732, "lon": -111.675858, "proficiency": 0.4571, "district": "Morgan District", "city": "MORGAN", "ncessch": "490057000364"}, {"name": "Mountain Green Middle", "lat": 41.148758, "lon": -111.793546, "proficiency": 0.7303, "district": "Morgan District", "city": "MORGAN", "ncessch": "490057001554"}, {"name": "Hillcrest Jr High", "lat": 40.654613, "lon": -111.885234, "proficiency": 0.3305, "district": "Murray District", "city": "MURRAY", "ncessch": "490060000369"}, {"name": "Riverview Jr High", "lat": 40.645229, "lon": -111.911788, "proficiency": 0.4462, "district": "Murray District", "city": "MURRAY", "ncessch": "490060000376"}, {"name": "Mapleton Junior High", "lat": 40.140464, "lon": -111.575752, "proficiency": 0.3503, "district": "Nebo District", "city": "MAPLETON", "ncessch": "490063001127"}, {"name": "Nebo Online School", "lat": 40.061652, "lon": -111.670127, "proficiency": 0.3438, "district": "Nebo District", "city": "SALEM", "ncessch": "490063001635"}, {"name": "Payson Jr High", "lat": 40.028256, "lon": -111.737586, "proficiency": 0.1711, "district": "Nebo District", "city": "PAYSON", "ncessch": "490063000391"}, {"name": "Salem Junior High", "lat": 40.063851, "lon": -111.672081, "proficiency": 0.3307, "district": "Nebo District", "city": "SALEM", "ncessch": "490063001390"}, {"name": "Spanish Fork Jr High", "lat": 40.102106, "lon": -111.641279, "proficiency": 0.2879, "district": "Nebo District", "city": "SPANISH FORK", "ncessch": "490063000482"}, {"name": "Springville Jr High", "lat": 40.163754, "lon": -111.582761, "proficiency": 0.3408, "district": "Nebo District", "city": "SPRINGVILLE", "ncessch": "490063000403"}, {"name": "North Sanpete Middle", "lat": 39.523428, "lon": -111.571173, "proficiency": 0.3526, "district": "North Sanpete District", "city": "MORONI", "ncessch": "490066000413"}, {"name": "North Summit Middle", "lat": 40.916053, "lon": -111.395849, "proficiency": 0.5181, "district": "North Summit District", "city": "COALVILLE", "ncessch": "490069000724"}, {"name": "Highland Junior High", "lat": 41.257201, "lon": -111.95813, "proficiency": 0.0526, "district": "Ogden City District", "city": "OGDEN", "ncessch": "490072001294"}, {"name": "Mound Fort Junior High", "lat": 41.241537, "lon": -111.958511, "proficiency": 0.1667, "district": "Ogden City District", "city": "OGDEN", "ncessch": "490072001295"}, {"name": "Mount Ogden Junior High", "lat": 41.20476, "lon": -111.94766, "proficiency": 0.2838, "district": "Ogden City District", "city": "OGDEN", "ncessch": "490072001288"}, {"name": "Treasure Mtn. Junior High School", "lat": 40.669335, "lon": -111.490375, "proficiency": 0.5516, "district": "Park City District", "city": "PARK CITY", "ncessch": "490075000773"}, {"name": "Centennial Middle", "lat": 40.265463, "lon": -111.65369, "proficiency": 0.3411, "district": "Provo District", "city": "PROVO", "ncessch": "490081000438"}, {"name": "Clayton Middle", "lat": 40.737487, "lon": -111.83735, "proficiency": 0.597, "district": "Salt Lake District", "city": "SALT LAKE CITY", "ncessch": "490087000480"}, {"name": "Glendale Middle", "lat": 40.737567, "lon": -111.930759, "proficiency": 0.2536, "district": "Salt Lake District", "city": "SALT LAKE CITY", "ncessch": "490087000492"}, {"name": "Hillside Middle", "lat": 40.73101, "lon": -111.82294, "proficiency": 0.4958, "district": "Salt Lake District", "city": "SALT LAKE CITY", "ncessch": "490087000498"}, {"name": "Northwest Middle", "lat": 40.806631, "lon": -111.940368, "proficiency": 0.1071, "district": "Salt Lake District", "city": "SALT LAKE CITY", "ncessch": "490087000512"}, {"name": "Salt Lake Center for Science Education Bryant", "lat": 40.768372, "lon": -111.869312, "proficiency": 0.2222, "district": "Salt Lake District", "city": "SALT LAKE CITY", "ncessch": "490087000477"}, {"name": "Albert R. Lyman Middle", "lat": 37.632853, "lon": -109.476838, "proficiency": 0.3398, "district": "San Juan District", "city": "BLANDING", "ncessch": "490090000526"}, {"name": "North Sevier Middle", "lat": 38.960009, "lon": -111.862973, "proficiency": 0.5085, "district": "Sevier District", "city": "SALINA", "ncessch": "490093000782"}, {"name": "Red Hills Middle", "lat": 38.76256, "lon": -112.095803, "proficiency": 0.3118, "district": "Sevier District", "city": "RICHFIELD", "ncessch": "490093000839"}, {"name": "South Sevier Middle", "lat": 38.631395, "lon": -112.115029, "proficiency": 0.4118, "district": "Sevier District", "city": "MONROE", "ncessch": "490093000783"}, {"name": "Ephraim Middle", "lat": 39.350263, "lon": -111.583075, "proficiency": 0.434, "district": "South Sanpete District", "city": "EPHRAIM", "ncessch": "490096000548"}, {"name": "Gunnison Valley Middle", "lat": 39.142669, "lon": -111.811319, "proficiency": 0.2917, "district": "South Sanpete District", "city": "GUNNISON", "ncessch": "490096000668"}, {"name": "South Summit Middle", "lat": 40.639093, "lon": -111.272487, "proficiency": 0.5319, "district": "South Summit District", "city": "KAMAS", "ncessch": "490099000733"}, {"name": "Spectrum Academy - NSL", "lat": 40.852654, "lon": -111.932266, "proficiency": 0.1132, "district": "Spectrum Academy", "city": "NORTH SALT LAKE", "ncessch": "490004201137"}, {"name": "Spectrum Academy - Pleasant Grove", "lat": 40.352723, "lon": -111.752028, "proficiency": 0.25, "district": "Spectrum Academy", "city": "PLEASANT GROVE", "ncessch": "490004201464"}, {"name": "Summit Academy - Draper Campus", "lat": 40.512454, "lon": -111.855147, "proficiency": 0.5571, "district": "Summit Academy", "city": "DRAPER", "ncessch": "490006600996"}, {"name": "Summit Academy - Independence", "lat": 40.473238, "lon": -111.918731, "proficiency": 0.5, "district": "Summit Academy", "city": "BLUFFDALE", "ncessch": "490006601469"}, {"name": "Syracuse Arts Academy - Antelope", "lat": 41.088772, "lon": -112.082019, "proficiency": 0.6419, "district": "Syracuse Arts Academy", "city": "SYRACUSE", "ncessch": "490004401145"}, {"name": "Thomas Edison - South", "lat": 41.690222, "lon": -111.864271, "proficiency": 0.4697, "district": "Thomas Edison", "city": "NIBLEY", "ncessch": "490001501284"}, {"name": "Clarke N. Johnsen Jr High", "lat": 40.567683, "lon": -112.31158, "proficiency": 0.427, "district": "Tooele District", "city": "TOOELE", "ncessch": "490105001263"}, {"name": "Grantsville Jr High", "lat": 40.591099, "lon": -112.464659, "proficiency": 0.5854, "district": "Tooele District", "city": "GRANTSVILLE", "ncessch": "490105000784"}, {"name": "Tooele Jr High", "lat": 40.528839, "lon": -112.310446, "proficiency": 0.3426, "district": "Tooele District", "city": "TOOELE", "ncessch": "490105000575"}, {"name": "Uintah Middle School", "lat": 40.457702, "lon": -109.546894, "proficiency": 0.3353, "district": "Uintah District", "city": "VERNAL", "ncessch": "490108000588"}, {"name": "Vernal Middle", "lat": 40.453247, "lon": -109.542442, "proficiency": 0.4545, "district": "Uintah District", "city": "VERNAL", "ncessch": "490108000786"}, {"name": "Utah Military Academy - Camp Williams", "lat": 40.414523, "lon": -111.911174, "proficiency": 0.05, "district": "Utah Military Academy", "city": "LEHI", "ncessch": "490017601501"}, {"name": "Wallace Stegner Academy West Valley", "lat": 40.712028, "lon": -112.033574, "proficiency": 0.6944, "district": "Wallace Stegner Academy", "city": "WEST VALLEY CITY", "ncessch": "490018401609"}, {"name": "Rocky Mountain Middle", "lat": 40.496932, "lon": -111.426336, "proficiency": 0.4378, "district": "Wasatch District", "city": "HEBER CITY", "ncessch": "490111000738"}, {"name": "Timpanogos Middle School", "lat": 40.496875, "lon": -111.392456, "proficiency": 0.5794, "district": "Wasatch District", "city": "HEBER CITY", "ncessch": "490111001533"}, {"name": "Crimson Cliffs Middle", "lat": 37.07327, "lon": -113.507443, "proficiency": 0.8505, "district": "Washington District", "city": "WASHINGTON", "ncessch": "490114001549"}, {"name": "Desert Hills Middle", "lat": 37.050831, "lon": -113.56366, "proficiency": 0.5516, "district": "Washington District", "city": "SAINT GEORGE", "ncessch": "490114001226"}, {"name": "Dixie Middle", "lat": 37.092526, "lon": -113.580197, "proficiency": 0.4804, "district": "Washington District", "city": "ST GEORGE", "ncessch": "490114000805"}, {"name": "Enterprise High", "lat": 37.564766, "lon": -113.715557, "proficiency": 0.35, "district": "Washington District", "city": "ENTERPRISE", "ncessch": "490114000599"}, {"name": "Hurricane Middle", "lat": 37.182836, "lon": -113.294111, "proficiency": 0.273, "district": "Washington District", "city": "HURRICANE", "ncessch": "490114000702"}, {"name": "Pine View Middle", "lat": 37.11143, "lon": -113.53786, "proficiency": 0.3817, "district": "Washington District", "city": "ST GEORGE", "ncessch": "490114000880"}, {"name": "Snow Canyon Middle", "lat": 37.128991, "lon": -113.634895, "proficiency": 0.3088, "district": "Washington District", "city": "ST GEORGE", "ncessch": "490114000063"}, {"name": "North Ogden Jr High", "lat": 41.314671, "lon": -111.961387, "proficiency": 0.3496, "district": "Weber District", "city": "OGDEN", "ncessch": "490120000625"}, {"name": "Orion Jr High", "lat": 41.296306, "lon": -111.987235, "proficiency": 0.3206, "district": "Weber District", "city": "HARRISVILLE", "ncessch": "490120000967"}, {"name": "Rocky Mountain Jr High", "lat": 41.17714, "lon": -112.085104, "proficiency": 0.3762, "district": "Weber District", "city": "WEST HAVEN", "ncessch": "490120000212"}, {"name": "Roy Jr High", "lat": 41.166577, "lon": -112.032762, "proficiency": 0.2645, "district": "Weber District", "city": "ROY", "ncessch": "490120000635"}, {"name": "Sand Ridge Jr High", "lat": 41.179833, "lon": -112.032345, "proficiency": 0.1727, "district": "Weber District", "city": "ROY", "ncessch": "490120000637"}, {"name": "Snowcrest Jr High", "lat": 41.307859, "lon": -111.833031, "proficiency": 0.5854, "district": "Weber District", "city": "EDEN", "ncessch": "490120000669"}, {"name": "South Ogden Jr High", "lat": 41.159686, "lon": -111.963649, "proficiency": 0.2512, "district": "Weber District", "city": "OGDEN", "ncessch": "490120000638"}, {"name": "T.H. Bell Jr High", "lat": 41.17007, "lon": -111.980189, "proficiency": 0.196, "district": "Weber District", "city": "OGDEN", "ncessch": "490120000639"}, {"name": "Wahlquist Jr High", "lat": 41.304748, "lon": -112.037442, "proficiency": 0.3441, "district": "Weber District", "city": "FARR WEST", "ncessch": "490120000643"}], "districts": [{"name": "Alpine District", "lat": 40.36814771428572, "lon": -111.810412, "proficiency": 0.4764, "schoolCount": 14}, {"name": "American Preparatory Academy", "lat": 40.619513999999995, "lon": -111.9404625, "proficiency": 0.3316, "schoolCount": 2}, {"name": "Ascent Academies of Utah", "lat": 40.602935, "lon": -112.026484, "proficiency": 0.2679, "schoolCount": 1}, {"name": "Beaver District", "lat": 38.274897, "lon": -112.638169, "proficiency": 0.4177, "schoolCount": 1}, {"name": "Box Elder District", "lat": 41.617539, "lon": -112.083718, "proficiency": 0.5039, "schoolCount": 2}, {"name": "Cache District", "lat": 41.751592, "lon": -111.836222, "proficiency": 0.6533, "schoolCount": 3}, {"name": "Canyons District", "lat": 40.577100625, "lon": -111.856633125, "proficiency": 0.4785, "schoolCount": 8}, {"name": "Carbon District", "lat": 39.647532999999996, "lon": -110.8358085, "proficiency": 0.3532, "schoolCount": 2}, {"name": "Davis District", "lat": 41.01289964705882, "lon": -111.95719482352942, "proficiency": 0.3874, "schoolCount": 17}, {"name": "Duchesne District", "lat": 40.273437666666666, "lon": -110.23140366666667, "proficiency": 0.2674, "schoolCount": 3}, {"name": "Emery District", "lat": 39.2088765, "lon": -111.0566385, "proficiency": 0.2908, "schoolCount": 2}, {"name": "Entheos Academy", "lat": 40.6767275, "lon": -112.03366, "proficiency": 0.1802, "schoolCount": 2}, {"name": "Grand District", "lat": 38.566856, "lon": -109.547861, "proficiency": 0.2626, "schoolCount": 1}, {"name": "Granite District", "lat": 40.676269266666665, "lon": -111.9309542, "proficiency": 0.2845, "schoolCount": 15}, {"name": "Hawthorn Academy", "lat": 40.586419, "lon": -111.949835, "proficiency": 0.3409, "schoolCount": 1}, {"name": "Iron District", "lat": 37.738505333333336, "lon": -112.993838, "proficiency": 0.3883, "schoolCount": 3}, {"name": "Jordan District", "lat": 40.553641750000004, "lon": -111.9891705, "proficiency": 0.358, "schoolCount": 12}, {"name": "Juab District", "lat": 39.719931, "lon": -111.82538, "proficiency": 0.3317, "schoolCount": 1}, {"name": "Kane District", "lat": 37.036877, "lon": -112.530219, "proficiency": 0.5775, "schoolCount": 1}, {"name": "Logan City District", "lat": 41.748221, "lon": -111.830341, "proficiency": 0.3116, "schoolCount": 1}, {"name": "Millard District", "lat": 39.158806, "lon": -112.45273, "proficiency": 0.5905, "schoolCount": 2}, {"name": "Morgan District", "lat": 41.093039000000005, "lon": -111.734702, "proficiency": 0.5937, "schoolCount": 2}, {"name": "Murray District", "lat": 40.649921, "lon": -111.898511, "proficiency": 0.3883, "schoolCount": 2}, {"name": "Nebo District", "lat": 40.09334716666667, "lon": -111.64659766666666, "proficiency": 0.3041, "schoolCount": 6}, {"name": "North Sanpete District", "lat": 39.523428, "lon": -111.571173, "proficiency": 0.3526, "schoolCount": 1}, {"name": "North Summit District", "lat": 40.916053, "lon": -111.395849, "proficiency": 0.5181, "schoolCount": 1}, {"name": "Ogden City District", "lat": 41.23449933333333, "lon": -111.954767, "proficiency": 0.1677, "schoolCount": 3}, {"name": "Park City District", "lat": 40.669335, "lon": -111.490375, "proficiency": 0.5516, "schoolCount": 1}, {"name": "Provo District", "lat": 40.265463, "lon": -111.65369, "proficiency": 0.3411, "schoolCount": 1}, {"name": "Salt Lake District", "lat": 40.7562134, "lon": -111.8801458, "proficiency": 0.3351, "schoolCount": 5}, {"name": "San Juan District", "lat": 37.632853, "lon": -109.476838, "proficiency": 0.3398, "schoolCount": 1}, {"name": "Sevier District", "lat": 38.78465466666666, "lon": -112.02460166666667, "proficiency": 0.4107, "schoolCount": 3}, {"name": "South Sanpete District", "lat": 39.246466, "lon": -111.69719699999999, "proficiency": 0.3629, "schoolCount": 2}, {"name": "South Summit District", "lat": 40.639093, "lon": -111.272487, "proficiency": 0.5319, "schoolCount": 1}, {"name": "Spectrum Academy", "lat": 40.6026885, "lon": -111.842147, "proficiency": 0.1816, "schoolCount": 2}, {"name": "Summit Academy", "lat": 40.492846, "lon": -111.886939, "proficiency": 0.5286, "schoolCount": 2}, {"name": "Syracuse Arts Academy", "lat": 41.088772, "lon": -112.082019, "proficiency": 0.6419, "schoolCount": 1}, {"name": "Thomas Edison", "lat": 41.690222, "lon": -111.864271, "proficiency": 0.4697, "schoolCount": 1}, {"name": "Tooele District", "lat": 40.56254033333334, "lon": -112.36222833333333, "proficiency": 0.4517, "schoolCount": 3}, {"name": "Uintah District", "lat": 40.455474499999994, "lon": -109.544668, "proficiency": 0.3949, "schoolCount": 2}, {"name": "Utah Military Academy", "lat": 40.414523, "lon": -111.911174, "proficiency": 0.05, "schoolCount": 1}, {"name": "Wallace Stegner Academy", "lat": 40.712028, "lon": -112.033574, "proficiency": 0.6944, "schoolCount": 1}, {"name": "Wasatch District", "lat": 40.4969035, "lon": -111.409396, "proficiency": 0.5086, "schoolCount": 2}, {"name": "Washington District", "lat": 37.17209285714286, "lon": -113.5476747142857, "proficiency": 0.4566, "schoolCount": 7}, {"name": "Weber District", "lat": 41.23076555555556, "lon": -111.99034933333333, "proficiency": 0.3178, "schoolCount": 9}], "cities": [{"name": "AMERICAN FORK", "lat": 40.400306, "lon": -111.798427, "proficiency": 0.5187, "schoolCount": 1}, {"name": "OREM", "lat": 40.302125333333336, "lon": -111.69818, "proficiency": 0.3631, "schoolCount": 3}, {"name": "EAGLE MOUNTAIN", "lat": 40.334162, "lon": -112.016069, "proficiency": 0.4213, "schoolCount": 1}, {"name": "SARATOGA SPRINGS", "lat": 40.353009, "lon": -111.92346, "proficiency": 0.4554, "schoolCount": 2}, {"name": "LEHI", "lat": 40.41108575, "lon": -111.871633, "proficiency": 0.3633, "schoolCount": 4}, {"name": "HIGHLAND", "lat": 40.419768, "lon": -111.790693, "proficiency": 0.5804, "schoolCount": 1}, {"name": "LINDON", "lat": 40.335722, "lon": -111.698348, "proficiency": 0.5276, "schoolCount": 1}, {"name": "PLEASANT GROVE", "lat": 40.36214, "lon": -111.74508900000001, "proficiency": 0.4451, "schoolCount": 2}, {"name": "ALPINE", "lat": 40.450339, "lon": -111.787263, "proficiency": 0.5784, "schoolCount": 1}, {"name": "WEST VALLEY CITY", "lat": 40.6929075, "lon": -111.9990245, "proficiency": 0.2544, "schoolCount": 6}, {"name": "DRAPER", "lat": 40.51983533333333, "lon": -111.869894, "proficiency": 0.5422, "schoolCount": 3}, {"name": "WEST JORDAN", "lat": 40.60178616666666, "lon": -111.99360216666666, "proficiency": 0.2595, "schoolCount": 6}, {"name": "BEAVER", "lat": 38.274897, "lon": -112.638169, "proficiency": 0.4177, "schoolCount": 1}, {"name": "GARLAND", "lat": 41.725216, "lon": -112.158637, "proficiency": 0.4571, "schoolCount": 1}, {"name": "BRIGHAM CITY", "lat": 41.509862, "lon": -112.008799, "proficiency": 0.5506, "schoolCount": 1}, {"name": "RICHMOND", "lat": 41.911456, "lon": -111.812986, "proficiency": 0.6516, "schoolCount": 1}, {"name": "HYRUM", "lat": 41.633878, "lon": -111.86909, "proficiency": 0.5949, "schoolCount": 1}, {"name": "PROVIDENCE", "lat": 41.709442, "lon": -111.82659, "proficiency": 0.7135, "schoolCount": 1}, {"name": "SANDY", "lat": 40.58164966666667, "lon": -111.8638855, "proficiency": 0.426, "schoolCount": 6}, {"name": "Salt Lake City", "lat": 40.614237, "lon": -111.818309, "proficiency": 0.6824, "schoolCount": 1}, {"name": "HELPER", "lat": 39.689319, "lon": -110.85883, "proficiency": 0.3462, "schoolCount": 1}, {"name": "PRICE", "lat": 39.605747, "lon": -110.812787, "proficiency": 0.3602, "schoolCount": 1}, {"name": "BOUNTIFUL", "lat": 40.87718625, "lon": -111.87657375, "proficiency": 0.3098, "schoolCount": 4}, {"name": "KAYSVILLE", "lat": 41.03367866666667, "lon": -111.94408933333334, "proficiency": 0.5387, "schoolCount": 3}, {"name": "CENTERVILLE", "lat": 40.910407, "lon": -111.878065, "proficiency": 0.5385, "schoolCount": 1}, {"name": "LAYTON", "lat": 41.0669345, "lon": -111.994199, "proficiency": 0.3948, "schoolCount": 4}, {"name": "FARMINGTON", "lat": 40.977818, "lon": -111.892864, "proficiency": 0.5699, "schoolCount": 1}, {"name": "CLEARFIELD", "lat": 41.102516, "lon": -112.011052, "proficiency": 0.1808, "schoolCount": 1}, {"name": "SUNSET", "lat": 41.137281, "lon": -112.029729, "proficiency": 0.3031, "schoolCount": 1}, {"name": "SYRACUSE", "lat": 41.09091, "lon": -112.0738115, "proficiency": 0.4633, "schoolCount": 2}, {"name": "WEST POINT", "lat": 41.120705, "lon": -112.079639, "proficiency": 0.2754, "schoolCount": 1}, {"name": "ALTAMONT", "lat": 40.360109, "lon": -110.291395, "proficiency": 0.3415, "schoolCount": 1}, {"name": "DUCHESNE", "lat": 40.164029, "lon": -110.404512, "proficiency": 0.0968, "schoolCount": 1}, {"name": "ROOSEVELT", "lat": 40.296175, "lon": -109.998304, "proficiency": 0.364, "schoolCount": 1}, {"name": "HUNTINGTON", "lat": 39.33628, "lon": -110.973206, "proficiency": 0.1918, "schoolCount": 1}, {"name": "FERRON", "lat": 39.081473, "lon": -111.140071, "proficiency": 0.3898, "schoolCount": 1}, {"name": "KEARNS", "lat": 40.647141, "lon": -112.00528633333333, "proficiency": 0.1715, "schoolCount": 3}, {"name": "MAGNA", "lat": 40.7032645, "lon": -112.0710485, "proficiency": 0.1297, "schoolCount": 2}, {"name": "MOAB", "lat": 38.566856, "lon": -109.547861, "proficiency": 0.2626, "schoolCount": 1}, {"name": "TAYLORSVILLE", "lat": 40.6580975, "lon": -111.947106, "proficiency": 0.3323, "schoolCount": 2}, {"name": "SALT LAKE CITY", "lat": 40.71578572727273, "lon": -111.85431399999999, "proficiency": 0.3833, "schoolCount": 11}, {"name": "CEDAR CITY", "lat": 37.684870000000004, "lon": -113.076533, "proficiency": 0.4132, "schoolCount": 2}, {"name": "PAROWAN", "lat": 37.845776, "lon": -112.828448, "proficiency": 0.3387, "schoolCount": 1}, {"name": "HERRIMAN", "lat": 40.513875, "lon": -112.030577, "proficiency": 0.3397, "schoolCount": 2}, {"name": "SOUTH JORDAN", "lat": 40.568483, "lon": -111.96696650000001, "proficiency": 0.5217, "schoolCount": 2}, {"name": "BLUFFDALE", "lat": 40.472508000000005, "lon": -111.9239345, "proficiency": 0.4544, "schoolCount": 2}, {"name": "South Jordan", "lat": 40.563964, "lon": -112.017222, "proficiency": 0.4603, "schoolCount": 1}, {"name": "RIVERTON", "lat": 40.510940000000005, "lon": -111.9716525, "proficiency": 0.3777, "schoolCount": 2}, {"name": "NEPHI", "lat": 39.719931, "lon": -111.82538, "proficiency": 0.3317, "schoolCount": 1}, {"name": "KANAB", "lat": 37.036877, "lon": -112.530219, "proficiency": 0.5775, "schoolCount": 1}, {"name": "LOGAN", "lat": 41.748221, "lon": -111.830341, "proficiency": 0.3116, "schoolCount": 1}, {"name": "DELTA", "lat": 39.358489, "lon": -112.568923, "proficiency": 0.65, "schoolCount": 1}, {"name": "FILLMORE", "lat": 38.959123, "lon": -112.336537, "proficiency": 0.5309, "schoolCount": 1}, {"name": "MORGAN", "lat": 41.093039000000005, "lon": -111.734702, "proficiency": 0.5937, "schoolCount": 2}, {"name": "MURRAY", "lat": 40.649921, "lon": -111.898511, "proficiency": 0.3883, "schoolCount": 2}, {"name": "MAPLETON", "lat": 40.140464, "lon": -111.575752, "proficiency": 0.3503, "schoolCount": 1}, {"name": "SALEM", "lat": 40.062751500000005, "lon": -111.671104, "proficiency": 0.3372, "schoolCount": 2}, {"name": "PAYSON", "lat": 40.028256, "lon": -111.737586, "proficiency": 0.1711, "schoolCount": 1}, {"name": "SPANISH FORK", "lat": 40.102106, "lon": -111.641279, "proficiency": 0.2879, "schoolCount": 1}, {"name": "SPRINGVILLE", "lat": 40.163754, "lon": -111.582761, "proficiency": 0.3408, "schoolCount": 1}, {"name": "MORONI", "lat": 39.523428, "lon": -111.571173, "proficiency": 0.3526, "schoolCount": 1}, {"name": "COALVILLE", "lat": 40.916053, "lon": -111.395849, "proficiency": 0.5181, "schoolCount": 1}, {"name": "OGDEN", "lat": 41.22465416666667, "lon": -111.96158766666667, "proficiency": 0.2167, "schoolCount": 6}, {"name": "PARK CITY", "lat": 40.669335, "lon": -111.490375, "proficiency": 0.5516, "schoolCount": 1}, {"name": "PROVO", "lat": 40.265463, "lon": -111.65369, "proficiency": 0.3411, "schoolCount": 1}, {"name": "BLANDING", "lat": 37.632853, "lon": -109.476838, "proficiency": 0.3398, "schoolCount": 1}, {"name": "SALINA", "lat": 38.960009, "lon": -111.862973, "proficiency": 0.5085, "schoolCount": 1}, {"name": "RICHFIELD", "lat": 38.76256, "lon": -112.095803, "proficiency": 0.3118, "schoolCount": 1}, {"name": "MONROE", "lat": 38.631395, "lon": -112.115029, "proficiency": 0.4118, "schoolCount": 1}, {"name": "EPHRAIM", "lat": 39.350263, "lon": -111.583075, "proficiency": 0.434, "schoolCount": 1}, {"name": "GUNNISON", "lat": 39.142669, "lon": -111.811319, "proficiency": 0.2917, "schoolCount": 1}, {"name": "KAMAS", "lat": 40.639093, "lon": -111.272487, "proficiency": 0.5319, "schoolCount": 1}, {"name": "NORTH SALT LAKE", "lat": 40.852654, "lon": -111.932266, "proficiency": 0.1132, "schoolCount": 1}, {"name": "NIBLEY", "lat": 41.690222, "lon": -111.864271, "proficiency": 0.4697, "schoolCount": 1}, {"name": "TOOELE", "lat": 40.548261, "lon": -112.311013, "proficiency": 0.3848, "schoolCount": 2}, {"name": "GRANTSVILLE", "lat": 40.591099, "lon": -112.464659, "proficiency": 0.5854, "schoolCount": 1}, {"name": "VERNAL", "lat": 40.455474499999994, "lon": -109.544668, "proficiency": 0.3949, "schoolCount": 2}, {"name": "HEBER CITY", "lat": 40.4969035, "lon": -111.409396, "proficiency": 0.5086, "schoolCount": 2}, {"name": "WASHINGTON", "lat": 37.07327, "lon": -113.507443, "proficiency": 0.8505, "schoolCount": 1}, {"name": "SAINT GEORGE", "lat": 37.050831, "lon": -113.56366, "proficiency": 0.5516, "schoolCount": 1}, {"name": "ST GEORGE", "lat": 37.11098233333333, "lon": -113.58431733333333, "proficiency": 0.3903, "schoolCount": 3}, {"name": "ENTERPRISE", "lat": 37.564766, "lon": -113.715557, "proficiency": 0.35, "schoolCount": 1}, {"name": "HURRICANE", "lat": 37.182836, "lon": -113.294111, "proficiency": 0.273, "schoolCount": 1}, {"name": "HARRISVILLE", "lat": 41.296306, "lon": -111.987235, "proficiency": 0.3206, "schoolCount": 1}, {"name": "WEST HAVEN", "lat": 41.17714, "lon": -112.085104, "proficiency": 0.3762, "schoolCount": 1}, {"name": "ROY", "lat": 41.173204999999996, "lon": -112.0325535, "proficiency": 0.2186, "schoolCount": 2}, {"name": "EDEN", "lat": 41.307859, "lon": -111.833031, "proficiency": 0.5854, "schoolCount": 1}, {"name": "FARR WEST", "lat": 41.304748, "lon": -112.037442, "proficiency": 0.3441, "schoolCount": 1}]}