{"state": "VA", "stateName": "Virginia", "year": 2025, "naep": {"text": "7 out of 10", "numerator": 7, "denominator": 10}, "schools": [{"name": "Covington Middle", "lat": 37.784048, "lon": -79.99159, "proficiency": 0.35, "district": "Alleghany Highlands Public Schools", "city": "Covington", "ncessch": "510015201888"}, {"name": "Bland County High", "lat": 37.241302, "lon": -81.109487, "proficiency": 0.62, "district": "Bland County Public Schools", "city": "Rocky Gap", "ncessch": "510039003009"}, {"name": "Rappahannock County Elementary", "lat": 38.6878, "lon": -78.1765, "proficiency": 1.0, "district": "Rappahannock County Public Schools", "city": "Washington", "ncessch": "510321001347"}, {"name": "Rappahannock County High", "lat": 38.686424, "lon": -78.188282, "proficiency": 0.46, "district": "Rappahannock County Public Schools", "city": "Washington", "ncessch": "510321001346"}, {"name": "Albert Hill Middle", "lat": 37.562397, "lon": -77.481584, "proficiency": 0.39, "district": "Richmond City Public Schools", "city": "Richmond", "ncessch": "510324001351"}, {"name": "Dogwood Middle", "lat": 37.548923, "lon": -77.462389, "proficiency": 0.14, "district": "Richmond City Public Schools", "city": "Richmond", "ncessch": "510324001356"}, {"name": "Franklin Military Academy", "lat": 37.528697, "lon": -77.403739, "proficiency": 0.8, "district": "Richmond City Public Schools", "city": "Richmond", "ncessch": "510324002214"}, {"name": "Lucille M. Brown Middle", "lat": 37.521461, "lon": -77.513764, "proficiency": 0.13, "district": "Richmond City Public Schools", "city": "Richmond", "ncessch": "510324001894"}, {"name": "Martin Luther King Jr. Middle", "lat": 37.542237, "lon": -77.419916, "proficiency": 0.08, "district": "Richmond City Public Schools", "city": "Richmond", "ncessch": "510324001385"}, {"name": "River City Middle", "lat": 37.4815, "lon": -77.509631, "proficiency": 0.09, "district": "Richmond City Public Schools", "city": "Richmond", "ncessch": "510324003019"}, {"name": "Thomas C. Boushall Middle", "lat": 37.472983, "lon": -77.469725, "proficiency": 0.07, "district": "Richmond City Public Schools", "city": "Richmond", "ncessch": "510324002078"}, {"name": "Rappahannock High", "lat": 37.948982, "lon": -76.743366, "proficiency": 0.42, "district": "Richmond County Public Schools", "city": "Warsaw", "ncessch": "510327001409"}, {"name": "Richmond County Elementary", "lat": 37.945528, "lon": -76.744655, "proficiency": 1.0, "district": "Richmond County Public Schools", "city": "Warsaw", "ncessch": "510327001974"}, {"name": "Addison Aerospace Magnet Middle", "lat": 37.2843, "lon": -79.9475, "proficiency": 0.18, "district": "Roanoke City Public Schools", "city": "Roanoke", "ncessch": "510330001412"}, {"name": "Breckinridge Middle", "lat": 37.3092, "lon": -79.9465, "proficiency": 0.26, "district": "Roanoke City Public Schools", "city": "Roanoke", "ncessch": "510330001413"}, {"name": "James Madison Middle", "lat": 37.2493, "lon": -79.9743, "proficiency": 0.17, "district": "Roanoke City Public Schools", "city": "Roanoke", "ncessch": "510330001424"}, {"name": "John P. Fishwick Middle", "lat": 37.2659, "lon": -79.9265, "proficiency": 0.41, "district": "Roanoke City Public Schools", "city": "Roanoke", "ncessch": "510330001434"}, {"name": "Woodrow Wilson Middle", "lat": 37.2622, "lon": -79.9865, "proficiency": 0.19, "district": "Roanoke City Public Schools", "city": "Roanoke", "ncessch": "510330001440"}, {"name": "Cave Spring Middle", "lat": 37.215517, "lon": -80.018208, "proficiency": 0.83, "district": "Roanoke County Public Schools", "city": "Roanoke", "ncessch": "510333001448"}, {"name": "Glenvar Middle", "lat": 37.2808, "lon": -80.1392, "proficiency": 0.71, "district": "Roanoke County Public Schools", "city": "Salem", "ncessch": "510333001408"}, {"name": "Hidden Valley Middle", "lat": 37.2555, "lon": -80.0296, "proficiency": 0.85, "district": "Roanoke County Public Schools", "city": "Roanoke", "ncessch": "510333001460"}, {"name": "Northside Middle", "lat": 37.3302, "lon": -80.0004, "proficiency": 0.51, "district": "Roanoke County Public Schools", "city": "Roanoke", "ncessch": "510333001466"}, {"name": "William Byrd Middle", "lat": 37.2849, "lon": -79.8605, "proficiency": 0.58, "district": "Roanoke County Public Schools", "city": "Vinton", "ncessch": "510333001477"}, {"name": "Maury River Middle", "lat": 37.7738, "lon": -79.4436, "proficiency": 0.81, "district": "Rockbridge County Public Schools", "city": "Lexington", "ncessch": "510337001871"}, {"name": "Elkton Middle", "lat": 38.404131, "lon": -78.609191, "proficiency": 0.33, "district": "Rockingham County Public Schools", "city": "Elkton", "ncessch": "510339001495"}, {"name": "J. Frank Hillyard Middle", "lat": 38.617255, "lon": -78.802299, "proficiency": 0.5, "district": "Rockingham County Public Schools", "city": "Broadway", "ncessch": "510339001498"}, {"name": "Montevideo Middle", "lat": 38.3658, "lon": -78.7748, "proficiency": 0.66, "district": "Rockingham County Public Schools", "city": "Penn Laird", "ncessch": "510339001975"}, {"name": "Wilbur S. Pence Middle", "lat": 38.4187, "lon": -78.9432, "proficiency": 0.55, "district": "Rockingham County Public Schools", "city": "Dayton", "ncessch": "510339001511"}, {"name": "Honaker High", "lat": 37.0171, "lon": -81.9783, "proficiency": 1.0, "district": "Russell County Public Schools", "city": "Honaker", "ncessch": "510342001522"}, {"name": "Lebanon High", "lat": 36.8885, "lon": -82.1101, "proficiency": 1.0, "district": "Russell County Public Schools", "city": "Lebanon", "ncessch": "510342002042"}, {"name": "Andrew Lewis Middle", "lat": 37.2863, "lon": -80.052, "proficiency": 0.67, "district": "Salem City Public Schools", "city": "Salem", "ncessch": "510346002045"}, {"name": "Virginia Virtual Academy at Salem", "lat": 37.287848, "lon": -80.052828, "proficiency": 0.56, "district": "Salem City Public Schools", "city": "Salem", "ncessch": "510346003134"}, {"name": "Gate City Middle", "lat": 36.639079, "lon": -82.570252, "proficiency": 0.88, "district": "Scott County Public Schools", "city": "Gate City", "ncessch": "510348002132"}, {"name": "Rye Cove High", "lat": 36.7354, "lon": -82.6909, "proficiency": 0.7, "district": "Scott County Public Schools", "city": "Duffield", "ncessch": "510348001536"}, {"name": "Twin Springs High", "lat": 36.7797, "lon": -82.4633, "proficiency": 0.59, "district": "Scott County Public Schools", "city": "Nickelsville", "ncessch": "510348001539"}, {"name": "Virginia Connections Academy", "lat": 36.64105, "lon": -82.575852, "proficiency": 0.24, "district": "Scott County Public Schools", "city": "Gate City", "ncessch": "510348003096"}, {"name": "Central Academy Middle", "lat": 37.5073, "lon": -79.8633, "proficiency": 0.88, "district": "Botetourt County Public Schools", "city": "Fincastle", "ncessch": "510042000164"}, {"name": "Read Mountain Middle", "lat": 37.3577, "lon": -79.9025, "proficiency": 0.72, "district": "Botetourt County Public Schools", "city": "Cloverdale", "ncessch": "510042001354"}, {"name": "North Fork Middle", "lat": 38.7068, "lon": -78.6624, "proficiency": 0.68, "district": "Shenandoah County Public Schools", "city": "Quicksburg", "ncessch": "510351000581"}, {"name": "Peter Muhlenberg Middle", "lat": 38.8632, "lon": -78.5262, "proficiency": 0.78, "district": "Shenandoah County Public Schools", "city": "Woodstock", "ncessch": "510351000958"}, {"name": "Signal Knob Middle", "lat": 38.9769, "lon": -78.3662, "proficiency": 0.66, "district": "Shenandoah County Public Schools", "city": "Strasburg", "ncessch": "510351000221"}, {"name": "Chilhowie Middle", "lat": 36.804786, "lon": -81.673682, "proficiency": 0.83, "district": "Smyth County Public Schools", "city": "Chilhowie", "ncessch": "510352001441"}, {"name": "Marion Middle", "lat": 36.8373, "lon": -81.5135, "proficiency": 0.3, "district": "Smyth County Public Schools", "city": "Marion", "ncessch": "510352001560"}, {"name": "Northwood Middle", "lat": 36.9301, "lon": -81.6266, "proficiency": 0.53, "district": "Smyth County Public Schools", "city": "Saltville", "ncessch": "510352001411"}, {"name": "Southampton Middle", "lat": 36.7005, "lon": -77.1037, "proficiency": 0.46, "district": "Southampton County Public Schools", "city": "Courtland", "ncessch": "510360001583"}, {"name": "Battlefield Middle", "lat": 38.262199, "lon": -77.541203, "proficiency": 0.48, "district": "Spotsylvania County Public Schools", "city": "Fredericksburg", "ncessch": "510364001585"}, {"name": "Chancellor Middle", "lat": 38.2745, "lon": -77.5549, "proficiency": 0.5, "district": "Spotsylvania County Public Schools", "city": "Fredericksburg", "ncessch": "510364002165"}, {"name": "Freedom Middle", "lat": 38.254, "lon": -77.5784, "proficiency": 0.65, "district": "Spotsylvania County Public Schools", "city": "Fredericksburg", "ncessch": "510364002420"}, {"name": "Ni River Middle", "lat": 38.271, "lon": -77.6282, "proficiency": 0.66, "district": "Spotsylvania County Public Schools", "city": "Spotsylvania", "ncessch": "510364001922"}, {"name": "Post Oak Middle", "lat": 38.158, "lon": -77.6606, "proficiency": 0.48, "district": "Spotsylvania County Public Schools", "city": "Spotsylvania", "ncessch": "510364001588"}, {"name": "Spotsylvania Middle", "lat": 38.1974, "lon": -77.5858, "proficiency": 0.4, "district": "Spotsylvania County Public Schools", "city": "Spotsylvania", "ncessch": "510364001999"}, {"name": "Thornburg Middle", "lat": 38.1525, "lon": -77.5137, "proficiency": 0.37, "district": "Spotsylvania County Public Schools", "city": "Spotsylvania", "ncessch": "510364000981"}, {"name": "Andrew G. Wright Middle", "lat": 38.4741, "lon": -77.4809, "proficiency": 0.64, "district": "Stafford County Public Schools", "city": "Stafford", "ncessch": "510366001978"}, {"name": "Donald B. Dixon-Lyle R. Smith Middle", "lat": 38.335, "lon": -77.4183, "proficiency": 0.62, "district": "Stafford County Public Schools", "city": "Fredericksburg", "ncessch": "510366002600"}, {"name": "Edward E. Drew Jr. Middle", "lat": 38.3461, "lon": -77.4596, "proficiency": 0.49, "district": "Stafford County Public Schools", "city": "Falmouth", "ncessch": "510366001595"}, {"name": "H.H. Poole Middle", "lat": 38.4534, "lon": -77.4392, "proficiency": 0.44, "district": "Stafford County Public Schools", "city": "Stafford", "ncessch": "510366001199"}, {"name": "Rodney E. Thompson Middle", "lat": 38.4506, "lon": -77.4608, "proficiency": 0.73, "district": "Stafford County Public Schools", "city": "Stafford", "ncessch": "510366002548"}, {"name": "Shirley C. Heim Middle", "lat": 38.4839, "lon": -77.3768, "proficiency": 0.37, "district": "Stafford County Public Schools", "city": "Stafford", "ncessch": "510366002781"}, {"name": "Stafford Middle", "lat": 38.4066, "lon": -77.3959, "proficiency": 0.49, "district": "Stafford County Public Schools", "city": "Stafford", "ncessch": "510366001601"}, {"name": "T. Benton Gayle Middle", "lat": 38.3666, "lon": -77.4961, "proficiency": 0.55, "district": "Stafford County Public Schools", "city": "Fredericksburg", "ncessch": "510366001603"}, {"name": "Shelburne Middle", "lat": 38.159596, "lon": -79.099029, "proficiency": 0.56, "district": "Staunton City Public Schools", "city": "Staunton", "ncessch": "510369001607"}, {"name": "Colonel Fred Cherry Middle", "lat": 36.884956, "lon": -76.418289, "proficiency": 0.77, "district": "Suffolk City Public Schools", "city": "SUFFOLK", "ncessch": "510371003058"}, {"name": "Forest Glen Middle", "lat": 36.7128, "lon": -76.654, "proficiency": 0.8, "district": "Suffolk City Public Schools", "city": "Suffolk", "ncessch": "510371001619"}, {"name": "John F. Kennedy Middle", "lat": 36.734293, "lon": -76.553442, "proficiency": 0.78, "district": "Suffolk City Public Schools", "city": "Suffolk", "ncessch": "510371001621"}, {"name": "John Yeates Middle", "lat": 36.8424, "lon": -76.5047, "proficiency": 0.85, "district": "Suffolk City Public Schools", "city": "Suffolk", "ncessch": "510371001623"}, {"name": "King's Fork Middle", "lat": 36.7875, "lon": -76.5958, "proficiency": 0.62, "district": "Suffolk City Public Schools", "city": "Suffolk", "ncessch": "510371002321"}, {"name": "Luther P. Jackson Middle", "lat": 37.0833, "lon": -76.9034, "proficiency": 0.74, "district": "Surry County Public Schools", "city": "Dendron", "ncessch": "510375001201"}, {"name": "Sussex Central Middle", "lat": 36.9204, "lon": -77.2561, "proficiency": 0.58, "district": "Sussex County Public Schools", "city": "Stony Creek", "ncessch": "510378002962"}, {"name": "Graham Middle", "lat": 37.2357, "lon": -81.2615, "proficiency": 0.9, "district": "Tazewell County Public Schools", "city": "Bluefield", "ncessch": "510381001654"}, {"name": "Richlands Middle", "lat": 37.0958, "lon": -81.7787, "proficiency": 0.77, "district": "Tazewell County Public Schools", "city": "Richlands", "ncessch": "510381001662"}, {"name": "Tazewell Middle", "lat": 37.12837, "lon": -81.485853, "proficiency": 0.82, "district": "Tazewell County Public Schools", "city": "Tazewell", "ncessch": "510381001669"}, {"name": "Virginia Middle", "lat": 36.605165, "lon": -82.183495, "proficiency": 0.45, "district": "Bristol City Public Schools", "city": "Bristol", "ncessch": "510045000180"}, {"name": "Bayside Middle", "lat": 36.8668, "lon": -76.1595, "proficiency": 0.6, "district": "Virginia Beach City Public Schools", "city": "Virginia Beach", "ncessch": "510384001676"}, {"name": "Brandon Middle", "lat": 36.7925, "lon": -76.1921, "proficiency": 0.68, "district": "Virginia Beach City Public Schools", "city": "Virginia Beach", "ncessch": "510384001677"}, {"name": "Corporate Landing Middle", "lat": 36.7874, "lon": -76.0121, "proficiency": 0.79, "district": "Virginia Beach City Public Schools", "city": "Virginia Beach", "ncessch": "510384001639"}, {"name": "Great Neck Middle", "lat": 36.8983, "lon": -76.0584, "proficiency": 0.78, "district": "Virginia Beach City Public Schools", "city": "Virginia Beach", "ncessch": "510384001686"}, {"name": "Independence Middle", "lat": 36.8811, "lon": -76.125, "proficiency": 0.69, "district": "Virginia Beach City Public Schools", "city": "Virginia Beach", "ncessch": "510384001690"}, {"name": "Kempsville Middle", "lat": 36.8125, "lon": -76.1559, "proficiency": 0.72, "district": "Virginia Beach City Public Schools", "city": "Virginia Beach", "ncessch": "510384001695"}, {"name": "Landstown Middle", "lat": 36.7767, "lon": -76.1048, "proficiency": 0.74, "district": "Virginia Beach City Public Schools", "city": "Virginia Beach", "ncessch": "510384000436"}, {"name": "Larkspur Middle", "lat": 36.8155, "lon": -76.1413, "proficiency": 0.62, "district": "Virginia Beach City Public Schools", "city": "Virginia Beach", "ncessch": "510384001057"}, {"name": "Lynnhaven Middle", "lat": 36.867389, "lon": -76.036403, "proficiency": 0.76, "district": "Virginia Beach City Public Schools", "city": "Virginia Beach", "ncessch": "510384001702"}, {"name": "Old Donation School", "lat": 36.8701, "lon": -76.135, "proficiency": 1.0, "district": "Virginia Beach City Public Schools", "city": "Virginia Beach", "ncessch": "510384001353"}, {"name": "Plaza Middle", "lat": 36.8305, "lon": -76.0776, "proficiency": 0.8, "district": "Virginia Beach City Public Schools", "city": "Virginia Beach", "ncessch": "510384001710"}, {"name": "Princess Anne Middle", "lat": 36.758898, "lon": -76.05411, "proficiency": 0.91, "district": "Virginia Beach City Public Schools", "city": "Virginia Beach", "ncessch": "510384001714"}, {"name": "Salem Middle", "lat": 36.786, "lon": -76.1465, "proficiency": 0.73, "district": "Virginia Beach City Public Schools", "city": "Virginia Beach", "ncessch": "510384002138"}, {"name": "Virginia Beach Middle", "lat": 36.8509, "lon": -75.9861, "proficiency": 0.78, "district": "Virginia Beach City Public Schools", "city": "Virginia Beach", "ncessch": "510384001721"}, {"name": "Skyline Middle", "lat": 38.914866, "lon": -78.198526, "proficiency": 0.21, "district": "Warren County Public Schools", "city": "Front Royal", "ncessch": "510387003039"}, {"name": "Warren County Middle", "lat": 38.92598, "lon": -78.152646, "proficiency": 0.69, "district": "Warren County Public Schools", "city": "Front Royal", "ncessch": "510387003038"}, {"name": "Damascus Middle", "lat": 36.6396, "lon": -81.8039, "proficiency": 0.76, "district": "Washington County Public Schools", "city": "Damascus", "ncessch": "510390001984"}, {"name": "E.B. Stanley Middle", "lat": 36.7243, "lon": -81.9538, "proficiency": 0.84, "district": "Washington County Public Schools", "city": "Abingdon", "ncessch": "510390001739"}, {"name": "Glade Spring Middle", "lat": 36.7777, "lon": -81.7788, "proficiency": 0.88, "district": "Washington County Public Schools", "city": "Glade Spring", "ncessch": "510390001740"}, {"name": "Wallace Middle", "lat": 36.6503, "lon": -82.1311, "proficiency": 0.86, "district": "Washington County Public Schools", "city": "Bristol", "ncessch": "510390001752"}, {"name": "Kate Collins Middle", "lat": 38.081193, "lon": -78.894235, "proficiency": 0.59, "district": "Waynesboro City Public Schools", "city": "Waynesboro", "ncessch": "510393001755"}, {"name": "West Point Middle/High", "lat": 37.5577, "lon": -76.7968, "proficiency": 0.51, "district": "West Point Public Schools", "city": "West Point", "ncessch": "510395001763"}, {"name": "Montross Middle", "lat": 38.069169, "lon": -76.772429, "proficiency": 0.88, "district": "Westmoreland County Public Schools", "city": "Montross", "ncessch": "510398001764"}, {"name": "Berkeley Middle", "lat": 37.2738, "lon": -76.7378, "proficiency": 0.57, "district": "Williamsburg-James City County Public Schools", "city": "Williamsburg", "ncessch": "510402001770"}, {"name": "James Blair Middle", "lat": 37.291547, "lon": -76.726626, "proficiency": 0.53, "district": "Williamsburg-James City County Public Schools", "city": "Williamsburg", "ncessch": "510402003054"}, {"name": "Lois Hornsby Middle", "lat": 37.3338, "lon": -76.8062, "proficiency": 0.69, "district": "Williamsburg-James City County Public Schools", "city": "Williamsburg", "ncessch": "510402002830"}, {"name": "Matoaka Elementary", "lat": 37.2762, "lon": -76.8175, "proficiency": 1.0, "district": "Williamsburg-James City County Public Schools", "city": "Williamsburg", "ncessch": "510402002656"}, {"name": "Toano Middle", "lat": 37.3765, "lon": -76.80059, "proficiency": 0.6, "district": "Williamsburg-James City County Public Schools", "city": "Toano", "ncessch": "510402000446"}, {"name": "Daniel Morgan Middle", "lat": 39.1792, "lon": -78.1509, "proficiency": 0.73, "district": "Winchester City Public Schools", "city": "Winchester", "ncessch": "510405001777"}, {"name": "Coeburn Middle", "lat": 36.951, "lon": -82.4677, "proficiency": 0.86, "district": "Wise County Public Schools", "city": "Coeburn", "ncessch": "510408001787"}, {"name": "J.W. Adams Combined", "lat": 37.111, "lon": -82.599, "proficiency": 0.95, "district": "Wise County Public Schools", "city": "Pound", "ncessch": "510408001790"}, {"name": "L.F. Addington Middle", "lat": 36.9746, "lon": -82.5758, "proficiency": 0.98, "district": "Wise County Public Schools", "city": "Wise", "ncessch": "510408001797"}, {"name": "St. Paul Elementary", "lat": 36.9087, "lon": -82.3097, "proficiency": 1.0, "district": "Wise County Public Schools", "city": "St Paul", "ncessch": "510408001794"}, {"name": "Union Middle", "lat": 36.8847, "lon": -82.7349, "proficiency": 0.83, "district": "Wise County Public Schools", "city": "Big Stone Gap", "ncessch": "510408002050"}, {"name": "James S. Russell Middle", "lat": 36.7783, "lon": -77.8736, "proficiency": 0.54, "district": "Brunswick County Public Schools", "city": "Lawrenceville", "ncessch": "510048000182"}, {"name": "Fort Chiswell Middle", "lat": 36.9297, "lon": -80.9391, "proficiency": 0.8, "district": "Wythe County Public Schools", "city": "Max Meadows", "ncessch": "510411002327"}, {"name": "Rural Retreat Middle", "lat": 36.8952, "lon": -81.2692, "proficiency": 0.64, "district": "Wythe County Public Schools", "city": "Rural Retreat", "ncessch": "510411002328"}, {"name": "Scott Memorial Middle", "lat": 36.9454, "lon": -81.0706, "proficiency": 0.76, "district": "Wythe County Public Schools", "city": "Wytheville", "ncessch": "510411002329"}, {"name": "Grafton Middle", "lat": 37.1641, "lon": -76.4706, "proficiency": 0.87, "district": "York County Public Schools", "city": "Yorktown", "ncessch": "510415001445"}, {"name": "Queens Lake Middle", "lat": 37.2835, "lon": -76.6719, "proficiency": 0.82, "district": "York County Public Schools", "city": "Williamsburg", "ncessch": "510415001817"}, {"name": "Tabb Middle", "lat": 37.1245, "lon": -76.451, "proficiency": 0.93, "district": "York County Public Schools", "city": "Yorktown", "ncessch": "510415001821"}, {"name": "Yorktown Middle", "lat": 37.2247, "lon": -76.5163, "proficiency": 0.75, "district": "York County Public Schools", "city": "Yorktown", "ncessch": "510415001825"}, {"name": "Council High", "lat": 37.081879, "lon": -82.079185, "proficiency": 0.53, "district": "Buchanan County Public Schools", "city": "Honaker", "ncessch": "510051000193"}, {"name": "Hurley High", "lat": 37.379987, "lon": -82.000645, "proficiency": 0.57, "district": "Buchanan County Public Schools", "city": "Hurley", "ncessch": "510051000200"}, {"name": "Riverview Elementary/Middle", "lat": 37.3089, "lon": -82.1459, "proficiency": 0.33, "district": "Buchanan County Public Schools", "city": "Grundy", "ncessch": "510051001945"}, {"name": "Twin Valley High", "lat": 37.240767, "lon": -81.913688, "proficiency": 0.09, "district": "Buchanan County Public Schools", "city": "Pilgrim Knob", "ncessch": "510051001947"}, {"name": "Buckingham County Middle", "lat": 37.536, "lon": -78.5024, "proficiency": 0.59, "district": "Buckingham County Public Schools", "city": "Buckingham", "ncessch": "510054000209"}, {"name": "Parry McCluer High", "lat": 37.7183, "lon": -79.3599, "proficiency": 0.67, "district": "Buena Vista City Public Schools", "city": "Buena Vista", "ncessch": "510056000217"}, {"name": "Altavista High", "lat": 37.110053, "lon": -79.295692, "proficiency": 0.53, "district": "Campbell County Public Schools", "city": "Altavista", "ncessch": "510060000220"}, {"name": "Brookville Middle", "lat": 37.3455, "lon": -79.2394, "proficiency": 0.46, "district": "Campbell County Public Schools", "city": "Lynchburg", "ncessch": "510060000224"}, {"name": "Rustburg Middle", "lat": 37.2739, "lon": -79.1033, "proficiency": 0.42, "district": "Campbell County Public Schools", "city": "Rustburg", "ncessch": "510060002771"}, {"name": "William Campbell High", "lat": 37.113, "lon": -79.007, "proficiency": 0.43, "district": "Campbell County Public Schools", "city": "Naruna", "ncessch": "510060000233"}, {"name": "Caroline Middle", "lat": 38.0033, "lon": -77.4106, "proficiency": 0.5, "district": "Caroline County Public Schools", "city": "Milford", "ncessch": "510066000051"}, {"name": "Carroll County Middle", "lat": 36.768739, "lon": -80.739134, "proficiency": 0.49, "district": "Carroll County Public Schools", "city": "Hillsville", "ncessch": "510069000257"}, {"name": "Community Lab School", "lat": 38.040712, "lon": -78.48276, "proficiency": 0.63, "district": "Albemarle County Public Schools", "city": "Charlottesville", "ncessch": "510009000030"}, {"name": "Jackson P. Burley Middle", "lat": 38.0399, "lon": -78.4866, "proficiency": 0.45, "district": "Albemarle County Public Schools", "city": "Charlottesville", "ncessch": "510009000024"}, {"name": "Joseph T. Henley Middle", "lat": 38.0521, "lon": -78.7058, "proficiency": 0.55, "district": "Albemarle County Public Schools", "city": "Crozet", "ncessch": "510009000025"}, {"name": "Journey Middle", "lat": 38.0773, "lon": -78.5066, "proficiency": 0.31, "district": "Albemarle County Public Schools", "city": "Charlottesville", "ncessch": "510009000023"}, {"name": "Lakeside Middle", "lat": 38.1124, "lon": -78.4369, "proficiency": 0.62, "district": "Albemarle County Public Schools", "city": "Charlottesville", "ncessch": "510009000751"}, {"name": "Leslie H. Walton Middle", "lat": 37.9215, "lon": -78.5522, "proficiency": 0.63, "district": "Albemarle County Public Schools", "city": "Charlottesville", "ncessch": "510009000026"}, {"name": "Charles City County High", "lat": 37.351, "lon": -77.0763, "proficiency": 0.42, "district": "Charles City County Public Schools", "city": "Charles City", "ncessch": "510072000258"}, {"name": "Central Middle", "lat": 37.0527, "lon": -78.6461, "proficiency": 0.81, "district": "Charlotte County Public Schools", "city": "Charlotte Court House", "ncessch": "510075000264"}, {"name": "Crestwood Middle", "lat": 36.7643, "lon": -76.2831, "proficiency": 0.6, "district": "Chesapeake City Public Schools", "city": "Chesapeake", "ncessch": "510081000287"}, {"name": "Deep Creek Middle", "lat": 36.7551, "lon": -76.3419, "proficiency": 0.66, "district": "Chesapeake City Public Schools", "city": "Chesapeake", "ncessch": "510081000289"}, {"name": "Great Bridge Middle", "lat": 36.708, "lon": -76.2351, "proficiency": 0.81, "district": "Chesapeake City Public Schools", "city": "Chesapeake", "ncessch": "510081000296"}, {"name": "Greenbrier Middle", "lat": 36.7594, "lon": -76.2265, "proficiency": 0.71, "district": "Chesapeake City Public Schools", "city": "Chesapeake", "ncessch": "510081002557"}, {"name": "Hickory Middle", "lat": 36.6524, "lon": -76.2152, "proficiency": 0.87, "district": "Chesapeake City Public Schools", "city": "Chesapeake", "ncessch": "510081000297"}, {"name": "Hugo A. Owens Middle", "lat": 36.7336, "lon": -76.34, "proficiency": 0.77, "district": "Chesapeake City Public Schools", "city": "Chesapeake", "ncessch": "510081001672"}, {"name": "Indian River Middle", "lat": 36.8009, "lon": -76.2361, "proficiency": 0.55, "district": "Chesapeake City Public Schools", "city": "Chesapeake", "ncessch": "510081000300"}, {"name": "Jolliff Middle", "lat": 36.7897, "lon": -76.4173, "proficiency": 0.82, "district": "Chesapeake City Public Schools", "city": "Chesapeake", "ncessch": "510081001954"}, {"name": "Oscar Smith Middle", "lat": 36.8017, "lon": -76.2727, "proficiency": 0.78, "district": "Chesapeake City Public Schools", "city": "Chesapeake", "ncessch": "510081000310"}, {"name": "Western Branch Middle", "lat": 36.8509, "lon": -76.4035, "proficiency": 0.8, "district": "Chesapeake City Public Schools", "city": "Chesapeake", "ncessch": "510081000313"}, {"name": "Bailey Bridge Middle", "lat": 37.4081, "lon": -77.617, "proficiency": 0.77, "district": "Chesterfield County Public Schools", "city": "Midlothian", "ncessch": "510084000053"}, {"name": "Carver Middle", "lat": 37.3017, "lon": -77.431, "proficiency": 0.54, "district": "Chesterfield County Public Schools", "city": "Chester", "ncessch": "510084000321"}, {"name": "Chesterfield Virtual School", "lat": 37.491504, "lon": -77.544386, "proficiency": 0.58, "district": "Chesterfield County Public Schools", "city": "Chesterfield", "ncessch": "510084003097"}, {"name": "Elizabeth Davis Middle", "lat": 37.336, "lon": -77.3425, "proficiency": 0.68, "district": "Chesterfield County Public Schools", "city": "Chester", "ncessch": "510084002767"}, {"name": "Falling Creek Middle", "lat": 37.4584, "lon": -77.4703, "proficiency": 0.52, "district": "Chesterfield County Public Schools", "city": "North Chesterfield", "ncessch": "510084000329"}, {"name": "Manchester Middle", "lat": 37.4689, "lon": -77.5292, "proficiency": 0.57, "district": "Chesterfield County Public Schools", "city": "North Chesterfield", "ncessch": "510084000338"}, {"name": "Matoaca Middle", "lat": 37.24543, "lon": -77.47564, "proficiency": 0.91, "district": "Chesterfield County Public Schools", "city": "Matoaca", "ncessch": "510084000341"}, {"name": "Midlothian Middle", "lat": 37.5022, "lon": -77.6491, "proficiency": 0.88, "district": "Chesterfield County Public Schools", "city": "Midlothian", "ncessch": "510084000343"}, {"name": "Providence Middle", "lat": 37.4883, "lon": -77.543, "proficiency": 0.72, "district": "Chesterfield County Public Schools", "city": "North Chesterfield", "ncessch": "510084000344"}, {"name": "Robious Middle", "lat": 37.5296, "lon": -77.6134, "proficiency": 0.99, "district": "Chesterfield County Public Schools", "city": "Midlothian", "ncessch": "510084000347"}, {"name": "Salem Church Middle", "lat": 37.3846, "lon": -77.4866, "proficiency": 0.61, "district": "Chesterfield County Public Schools", "city": "North Chesterfield", "ncessch": "510084000349"}, {"name": "Swift Creek Middle", "lat": 37.44, "lon": -77.6452, "proficiency": 0.96, "district": "Chesterfield County Public Schools", "city": "Midlothian", "ncessch": "510084001834"}, {"name": "Tomahawk Creek Middle", "lat": 37.466155, "lon": -77.669864, "proficiency": 0.83, "district": "Chesterfield County Public Schools", "city": "Midlothian", "ncessch": "510084002754"}, {"name": "Johnson-Williams Middle", "lat": 39.151265, "lon": -77.987577, "proficiency": 0.69, "district": "Clarke County Public Schools", "city": "Berryville", "ncessch": "510087000353"}, {"name": "Colonial Beach High", "lat": 38.257575, "lon": -76.969085, "proficiency": 0.6, "district": "Colonial Beach Public Schools", "city": "Colonial Beach", "ncessch": "510093001957"}, {"name": "Colonial Heights Middle", "lat": 37.247, "lon": -77.4, "proficiency": 0.48, "district": "Colonial Heights City Public Schools", "city": "Colonial Heights", "ncessch": "510096000362"}, {"name": "Craig County High", "lat": 37.5158, "lon": -80.0849, "proficiency": 0.09, "district": "Craig County Public Schools", "city": "New Castle", "ncessch": "510102002111"}, {"name": "Culpeper Middle", "lat": 38.494, "lon": -77.9851, "proficiency": 0.58, "district": "Culpeper County Public Schools", "city": "Culpeper", "ncessch": "510105000377"}, {"name": "Floyd T. Binns Middle", "lat": 38.48682, "lon": -77.991869, "proficiency": 0.75, "district": "Culpeper County Public Schools", "city": "Culpeper", "ncessch": "510105001958"}, {"name": "Amelia County Middle", "lat": 37.3347, "lon": -77.99, "proficiency": 0.71, "district": "Amelia County Public Schools", "city": "Amelia", "ncessch": "510018000063"}, {"name": "Cumberland Middle", "lat": 37.491812, "lon": -78.248365, "proficiency": 0.54, "district": "Cumberland County Public Schools", "city": "Cumberland", "ncessch": "510108000058"}, {"name": "O. Trent Bonner Middle", "lat": 36.5974, "lon": -79.411, "proficiency": 0.64, "district": "Danville City Public Schools", "city": "Danville", "ncessch": "510111000394"}, {"name": "Westwood Middle", "lat": 36.5975, "lon": -79.409, "proficiency": 0.49, "district": "Danville City Public Schools", "city": "Danville", "ncessch": "510111001233"}, {"name": "Ridgeview Middle", "lat": 37.134369, "lon": -82.389672, "proficiency": 0.59, "district": "Dickenson County Public Schools", "city": "Clintwood", "ncessch": "510114002982"}, {"name": "Dinwiddie County Middle", "lat": 37.111916, "lon": -77.587842, "proficiency": 0.64, "district": "Dinwiddie County Public Schools", "city": "Dinwiddie", "ncessch": "510117000409"}, {"name": "James H. Cary Intermediate", "lat": 37.925375, "lon": -76.867506, "proficiency": 0.72, "district": "Essex County Public Schools", "city": "Tappahannock", "ncessch": "510120000420"}, {"name": "Carson Middle", "lat": 38.927278, "lon": -77.419005, "proficiency": 0.75, "district": "Fairfax County Public Schools", "city": "Herndon", "ncessch": "510126001756"}, {"name": "Cooper Middle", "lat": 38.952228, "lon": -77.192261, "proficiency": 0.94, "district": "Fairfax County Public Schools", "city": "McLean", "ncessch": "510126000453"}, {"name": "Franklin Middle", "lat": 38.9072, "lon": -77.4204, "proficiency": 0.76, "district": "Fairfax County Public Schools", "city": "Chantilly", "ncessch": "510126002007"}, {"name": "Frost Middle", "lat": 38.8365, "lon": -77.2733, "proficiency": 0.79, "district": "Fairfax County Public Schools", "city": "Fairfax", "ncessch": "510126000479"}, {"name": "Glasgow Middle", "lat": 38.838311, "lon": -77.141008, "proficiency": 0.46, "district": "Fairfax County Public Schools", "city": "Alexandria", "ncessch": "510126000481"}, {"name": "Hayfield Secondary", "lat": 38.750786, "lon": -77.143765, "proficiency": 0.63, "district": "Fairfax County Public Schools", "city": "Alexandria", "ncessch": "510126000493"}, {"name": "Herndon Middle", "lat": 38.968, "lon": -77.3919, "proficiency": 0.55, "district": "Fairfax County Public Schools", "city": "Herndon", "ncessch": "510126000496"}, {"name": "Holmes Middle", "lat": 38.8151, "lon": -77.163, "proficiency": 0.52, "district": "Fairfax County Public Schools", "city": "Alexandria", "ncessch": "510126000500"}, {"name": "Hughes Middle", "lat": 38.9352, "lon": -77.3386, "proficiency": 0.66, "district": "Fairfax County Public Schools", "city": "Reston", "ncessch": "510126001839"}, {"name": "Irving Middle", "lat": 38.7816, "lon": -77.2252, "proficiency": 0.72, "district": "Fairfax County Public Schools", "city": "Springfield", "ncessch": "510126000504"}, {"name": "Jackson Middle", "lat": 38.8683, "lon": -77.2289, "proficiency": 0.55, "district": "Fairfax County Public Schools", "city": "Falls Church", "ncessch": "510126000530"}, {"name": "Johnson Middle", "lat": 38.859763, "lon": -77.327421, "proficiency": 0.68, "district": "Fairfax County Public Schools", "city": "Fairfax", "ncessch": "510126000518"}, {"name": "Key Center", "lat": 38.7798, "lon": -77.1617, "proficiency": 1.0, "district": "Fairfax County Public Schools", "city": "Springfield", "ncessch": "510126000510"}, {"name": "Key Middle", "lat": 38.7798, "lon": -77.1617, "proficiency": 0.46, "district": "Fairfax County Public Schools", "city": "Springfield", "ncessch": "510126000511"}, {"name": "Kilmer Middle", "lat": 38.9041, "lon": -77.2254, "proficiency": 0.75, "district": "Fairfax County Public Schools", "city": "Vienna", "ncessch": "510126000513"}, {"name": "Lake Braddock Secondary", "lat": 38.8033, "lon": -77.2661, "proficiency": 0.83, "district": "Fairfax County Public Schools", "city": "Burke", "ncessch": "510126000516"}, {"name": "Liberty Middle", "lat": 37.7808, "lon": -77.5331, "proficiency": 0.82, "district": "Hanover County Public Schools", "city": "Ashland", "ncessch": "510183000773"}, {"name": "Longfellow Middle", "lat": 38.9094, "lon": -77.1748, "proficiency": 0.87, "district": "Fairfax County Public Schools", "city": "Falls Church", "ncessch": "510126000527"}, {"name": "Poe Middle", "lat": 38.8207, "lon": -77.1868, "proficiency": 0.37, "district": "Fairfax County Public Schools", "city": "Annandale", "ncessch": "510126000557"}, {"name": "Robinson Secondary", "lat": 38.8161, "lon": -77.3025, "proficiency": 0.73, "district": "Fairfax County Public Schools", "city": "Fairfax", "ncessch": "510126000561"}, {"name": "Rocky Run Middle", "lat": 38.8742, "lon": -77.4101, "proficiency": 0.91, "district": "Fairfax County Public Schools", "city": "Chantilly", "ncessch": "510126001841"}, {"name": "Sandburg Middle", "lat": 38.728808, "lon": -77.061542, "proficiency": 0.59, "district": "Fairfax County Public Schools", "city": "Alexandria", "ncessch": "510126000474"}, {"name": "South County Middle", "lat": 38.7216, "lon": -77.2451, "proficiency": 0.8, "district": "Fairfax County Public Schools", "city": "Lorton", "ncessch": "510126002871"}, {"name": "Stone Middle", "lat": 38.8576, "lon": -77.4549, "proficiency": 0.93, "district": "Fairfax County Public Schools", "city": "Centreville", "ncessch": "510126000086"}, {"name": "Thoreau Middle", "lat": 38.8887, "lon": -77.2406, "proficiency": 0.76, "district": "Fairfax County Public Schools", "city": "Vienna", "ncessch": "510126000574"}, {"name": "Twain Middle", "lat": 38.7903, "lon": -77.1139, "proficiency": 0.67, "district": "Fairfax County Public Schools", "city": "Alexandria", "ncessch": "510126000576"}, {"name": "Whitman Middle", "lat": 38.7419, "lon": -77.0746, "proficiency": 0.59, "district": "Fairfax County Public Schools", "city": "Alexandria", "ncessch": "510126000475"}, {"name": "Auburn Middle", "lat": 37.06145, "lon": -80.442621, "proficiency": 0.83, "district": "Montgomery County Public Schools", "city": "Riner", "ncessch": "510252001916"}, {"name": "Cedar Lee Middle", "lat": 38.5755, "lon": -77.7672, "proficiency": 0.5, "district": "Fauquier County Public Schools", "city": "Bealeton", "ncessch": "510132000605"}, {"name": "Marshall Middle", "lat": 38.8735, "lon": -77.8174, "proficiency": 0.72, "district": "Fauquier County Public Schools", "city": "Marshall", "ncessch": "510132000609"}, {"name": "W.C. Taylor Middle", "lat": 38.71619, "lon": -77.803302, "proficiency": 0.72, "district": "Fauquier County Public Schools", "city": "Warrenton", "ncessch": "510132000614"}, {"name": "Floyd County High", "lat": 36.9088, "lon": -80.3078, "proficiency": 0.66, "district": "Floyd County Public Schools", "city": "Floyd", "ncessch": "510135000618"}, {"name": "Amherst Middle", "lat": 37.5694, "lon": -79.032, "proficiency": 0.73, "district": "Amherst County Public Schools", "city": "Amherst", "ncessch": "510021000066"}, {"name": "Monelison Middle", "lat": 37.4546, "lon": -79.1133, "proficiency": 0.54, "district": "Amherst County Public Schools", "city": "Madison Heights", "ncessch": "510021000072"}, {"name": "Fluvanna County High", "lat": 37.872316, "lon": -78.298589, "proficiency": 0.65, "district": "Fluvanna County Public Schools", "city": "Palmyra", "ncessch": "510138000625"}, {"name": "Fluvanna Middle", "lat": 37.825357, "lon": -78.274888, "proficiency": 0.99, "district": "Fluvanna County Public Schools", "city": "Palmyra", "ncessch": "510138000089"}, {"name": "Franklin High", "lat": 36.6914, "lon": -76.9479, "proficiency": 0.12, "district": "Franklin City Public Schools", "city": "Franklin", "ncessch": "510141000628"}, {"name": "Benjamin Franklin Middle", "lat": 37.0177, "lon": -79.8848, "proficiency": 0.72, "district": "Franklin County Public Schools", "city": "Rocky Mount", "ncessch": "510144002187"}, {"name": "Admiral Richard E. Byrd Middle", "lat": 39.1246, "lon": -78.1491, "proficiency": 0.61, "district": "Frederick County Public Schools", "city": "Winchester", "ncessch": "510147002437"}, {"name": "Frederick County Middle", "lat": 39.268795, "lon": -78.251265, "proficiency": 0.54, "district": "Frederick County Public Schools", "city": "Winchester", "ncessch": "510147000649"}, {"name": "James Wood Middle", "lat": 39.189778, "lon": -78.184894, "proficiency": 0.49, "district": "Frederick County Public Schools", "city": "Winchester", "ncessch": "510147000523"}, {"name": "Robert E. Aylor Middle", "lat": 39.083673, "lon": -78.16781, "proficiency": 0.57, "district": "Frederick County Public Schools", "city": "White Post", "ncessch": "510147000656"}, {"name": "Walker-Grant Middle", "lat": 38.274464, "lon": -77.486736, "proficiency": 0.46, "district": "Fredericksburg City Public Schools", "city": "Fredericksburg", "ncessch": "510151002612"}, {"name": "Galax Middle", "lat": 36.6543, "lon": -80.9251, "proficiency": 0.64, "district": "Galax City Public Schools", "city": "Galax", "ncessch": "510156000356"}, {"name": "Giles County K-12 Virtual School", "lat": 37.331367, "lon": -80.743989, "proficiency": 0.63, "district": "Giles County Public Schools", "city": "Pearisburg", "ncessch": "510159003123"}, {"name": "Giles High", "lat": 37.3278, "lon": -80.7045, "proficiency": 0.43, "district": "Giles County Public Schools", "city": "Pearisburg", "ncessch": "510159000669"}, {"name": "Narrows High", "lat": 37.3377, "lon": -80.8044, "proficiency": 0.61, "district": "Giles County Public Schools", "city": "Narrows", "ncessch": "510159000673"}, {"name": "Page Middle", "lat": 37.362546, "lon": -76.521408, "proficiency": 0.79, "district": "Gloucester County Public Schools", "city": "Gloucester", "ncessch": "510162003022"}, {"name": "Peasley Middle", "lat": 37.4133, "lon": -76.6077, "proficiency": 0.81, "district": "Gloucester County Public Schools", "city": "Gloucester", "ncessch": "510162002188"}, {"name": "Goochland Middle", "lat": 37.6993, "lon": -77.8967, "proficiency": 0.6, "district": "Goochland County Public Schools", "city": "Goochland", "ncessch": "510165000687"}, {"name": "Appomattox Middle", "lat": 37.3557, "lon": -78.8251, "proficiency": 0.61, "district": "Appomattox County Public Schools", "city": "Appomattox", "ncessch": "510024000078"}, {"name": "William Monroe Middle", "lat": 38.2952, "lon": -78.4431, "proficiency": 0.45, "district": "Greene County Public Schools", "city": "Stanardsville", "ncessch": "510171000106"}, {"name": "Edward W. Wyatt Middle", "lat": 36.7154, "lon": -77.5334, "proficiency": 0.47, "district": "Greensville County Public Schools", "city": "Emporia", "ncessch": "510174000707"}, {"name": "Halifax County Middle", "lat": 36.7251, "lon": -78.917, "proficiency": 0.77, "district": "Halifax County Public Schools", "city": "South Boston", "ncessch": "510177000714"}, {"name": "A.W.E. Bassette Elementary", "lat": 37.0164, "lon": -76.3757, "proficiency": 1.0, "district": "Hampton City Public Schools", "city": "Hampton", "ncessch": "510180000725"}, {"name": "Aberdeen Elementary", "lat": 37.0335, "lon": -76.4054, "proficiency": 1.0, "district": "Hampton City Public Schools", "city": "Hampton", "ncessch": "510180000726"}, {"name": "Albert W. Patrick III Elementary", "lat": 37.0569, "lon": -76.3372, "proficiency": 1.0, "district": "Hampton City Public Schools", "city": "Hampton", "ncessch": "510180000732"}, {"name": "Alfred S. Forrest Elementary", "lat": 37.0412, "lon": -76.4251, "proficiency": 1.0, "district": "Hampton City Public Schools", "city": "Hampton", "ncessch": "510180000727"}, {"name": "Benjamin Syms Middle", "lat": 37.0531, "lon": -76.33, "proficiency": 0.7, "district": "Hampton City Public Schools", "city": "Hampton", "ncessch": "510180000730"}, {"name": "C. Alton Lindsay Middle", "lat": 37.0181, "lon": -76.3996, "proficiency": 0.58, "district": "Hampton City Public Schools", "city": "Hampton", "ncessch": "510180000734"}, {"name": "Cesar Tarrant Middle", "lat": 37.0427, "lon": -76.4206, "proficiency": 0.76, "district": "Hampton City Public Schools", "city": "Hampton", "ncessch": "510180000744"}, {"name": "Christopher C. Kraft Elementary", "lat": 37.0497, "lon": -76.4158, "proficiency": 1.0, "district": "Hampton City Public Schools", "city": "Hampton", "ncessch": "510180000737"}, {"name": "Francis Asbury Elementary", "lat": 37.0702, "lon": -76.2992, "proficiency": 1.0, "district": "Hampton City Public Schools", "city": "Hampton", "ncessch": "510180000739"}, {"name": "Francis W. Jones Magnet Middle", "lat": 37.0451, "lon": -76.3074, "proficiency": 0.94, "district": "Hampton City Public Schools", "city": "Hampton", "ncessch": "510180001890"}, {"name": "George P. Phenix Elementary", "lat": 37.05294, "lon": -76.436371, "proficiency": 0.88, "district": "Hampton City Public Schools", "city": "Hampton", "ncessch": "510180002816"}, {"name": "Hunter B. Andrews", "lat": 37.01101, "lon": -76.367771, "proficiency": 0.81, "district": "Hampton City Public Schools", "city": "Hampton", "ncessch": "510180002811"}, {"name": "Jane H. Bryan Elementary", "lat": 37.0278, "lon": -76.3137, "proficiency": 1.0, "district": "Hampton City Public Schools", "city": "Hampton", "ncessch": "510180000743"}, {"name": "Luther W. Machen Elementary", "lat": 37.0667, "lon": -76.3843, "proficiency": 1.0, "district": "Hampton City Public Schools", "city": "Hampton", "ncessch": "510180000748"}, {"name": "Paul Burbank Elementary", "lat": 37.0552, "lon": -76.3734, "proficiency": 1.0, "district": "Hampton City Public Schools", "city": "Hampton", "ncessch": "510180000750"}, {"name": "Phillips Elementary", "lat": 37.0612, "lon": -76.3177, "proficiency": 1.0, "district": "Hampton City Public Schools", "city": "Hampton", "ncessch": "510180000754"}, {"name": "Samuel P. Langley Elementary", "lat": 37.0684, "lon": -76.3333, "proficiency": 1.0, "district": "Hampton City Public Schools", "city": "Hampton", "ncessch": "510180000758"}, {"name": "Thomas Eaton Middle", "lat": 37.0495, "lon": -76.3849, "proficiency": 0.66, "district": "Hampton City Public Schools", "city": "Hampton", "ncessch": "510180000760"}, {"name": "Bell Creek Middle", "lat": 37.6174, "lon": -77.341, "proficiency": 0.81, "district": "Hanover County Public Schools", "city": "Mechanicsville", "ncessch": "510183000780"}, {"name": "Chickahominy Middle", "lat": 37.6662, "lon": -77.4117, "proficiency": 0.82, "district": "Hanover County Public Schools", "city": "Mechanicsville", "ncessch": "510183002191"}, {"name": "Oak Knoll Middle", "lat": 37.6859, "lon": -77.3839, "proficiency": 0.82, "district": "Hanover County Public Schools", "city": "Mechanicsville", "ncessch": "510183002277"}, {"name": "Thomas Harrison Middle", "lat": 38.452, "lon": -78.8911, "proficiency": 0.35, "district": "Harrisonburg City Public Schools", "city": "Harrisonburg", "ncessch": "510186002150"}, {"name": "Brookland Middle", "lat": 37.642, "lon": -77.4819, "proficiency": 0.36, "district": "Henrico County Public Schools", "city": "Richmond", "ncessch": "510189000790"}, {"name": "Elko Middle", "lat": 37.5036, "lon": -77.233, "proficiency": 0.37, "district": "Henrico County Public Schools", "city": "Sandston", "ncessch": "510189002757"}, {"name": "Fairfield Middle", "lat": 37.5455, "lon": -77.3597, "proficiency": 0.37, "district": "Henrico County Public Schools", "city": "Richmond", "ncessch": "510189000799"}, {"name": "Gayton Elementary", "lat": 37.635, "lon": -77.6322, "proficiency": 1.0, "district": "Henrico County Public Schools", "city": "Richmond", "ncessch": "510189002123"}, {"name": "George H. Moody Middle", "lat": 37.6255, "lon": -77.4813, "proficiency": 0.5, "district": "Henrico County Public Schools", "city": "Richmond", "ncessch": "510189000800"}, {"name": "Glen Allen Elementary", "lat": 37.6785, "lon": -77.5234, "proficiency": 1.0, "district": "Henrico County Public Schools", "city": "Glen Allen", "ncessch": "510189000801"}, {"name": "Henrico Virtual Academy", "lat": 37.550422, "lon": -77.344146, "proficiency": 0.41, "district": "Henrico County Public Schools", "city": "Henrico", "ncessch": "510189003098"}, {"name": "Holman Middle", "lat": 37.689779, "lon": -77.590222, "proficiency": 0.63, "district": "Henrico County Public Schools", "city": "Glen Allen", "ncessch": "510189002833"}, {"name": "Hungary Creek Middle", "lat": 37.6584, "lon": -77.5379, "proficiency": 0.51, "district": "Henrico County Public Schools", "city": "Glen Allen", "ncessch": "510189002440"}, {"name": "John Rolfe Middle", "lat": 37.4768, "lon": -77.3729, "proficiency": 0.19, "district": "Henrico County Public Schools", "city": "Richmond", "ncessch": "510189001850"}, {"name": "L. Douglas Wilder Middle", "lat": 37.6205, "lon": -77.4217, "proficiency": 0.31, "district": "Henrico County Public Schools", "city": "Richmond", "ncessch": "510189001622"}, {"name": "Maude Trevvett Elementary", "lat": 37.6384, "lon": -77.4917, "proficiency": 1.0, "district": "Henrico County Public Schools", "city": "Richmond", "ncessch": "510189000830"}, {"name": "Nuckols Farm Elementary", "lat": 37.6558, "lon": -77.6391, "proficiency": 1.0, "district": "Henrico County Public Schools", "city": "Richmond", "ncessch": "510189001624"}, {"name": "Pocahontas Middle", "lat": 37.6457, "lon": -77.6078, "proficiency": 0.79, "district": "Henrico County Public Schools", "city": "Richmond", "ncessch": "510189001911"}, {"name": "Quioccasin Middle", "lat": 37.6083, "lon": -77.5818, "proficiency": 0.31, "district": "Henrico County Public Schools", "city": "Richmond", "ncessch": "510189000803"}, {"name": "Rivers Edge Elementary", "lat": 37.6871, "lon": -77.579, "proficiency": 1.0, "district": "Henrico County Public Schools", "city": "Glen Allen", "ncessch": "510189002410"}, {"name": "Shady Grove Elementary", "lat": 37.6951, "lon": -77.6141, "proficiency": 1.0, "district": "Henrico County Public Schools", "city": "Glen Allen", "ncessch": "510189000133"}, {"name": "Short Pump Middle", "lat": 37.6667, "lon": -77.6102, "proficiency": 0.76, "district": "Henrico County Public Schools", "city": "Glen Allen", "ncessch": "510189000123"}, {"name": "Three Chopt Elementary", "lat": 37.6026, "lon": -77.5388, "proficiency": 1.0, "district": "Henrico County Public Schools", "city": "Richmond", "ncessch": "510189000829"}, {"name": "Tuckahoe Elementary", "lat": 37.5842, "lon": -77.5533, "proficiency": 1.0, "district": "Henrico County Public Schools", "city": "Richmond", "ncessch": "510189000831"}, {"name": "Tuckahoe Middle", "lat": 37.6084, "lon": -77.5609, "proficiency": 0.44, "district": "Henrico County Public Schools", "city": "Richmond", "ncessch": "510189000832"}, {"name": "Twin Hickory Elementary", "lat": 37.6724, "lon": -77.5991, "proficiency": 1.0, "district": "Henrico County Public Schools", "city": "Glen Allen", "ncessch": "510189002536"}, {"name": "Fieldale-Collinsville Middle", "lat": 36.7088, "lon": -79.9217, "proficiency": 0.53, "district": "Henry County Public Schools", "city": "Collinsville", "ncessch": "510192000847"}, {"name": "Laurel Park Middle", "lat": 36.685323, "lon": -79.779825, "proficiency": 0.61, "district": "Henry County Public Schools", "city": "Martinsville", "ncessch": "510192000840"}, {"name": "Highland High", "lat": 38.4073, "lon": -79.5792, "proficiency": 0.73, "district": "Highland County Public Schools", "city": "Monterey", "ncessch": "510195000862"}, {"name": "Carter G. Woodson Middle", "lat": 37.2904, "lon": -77.2917, "proficiency": 0.45, "district": "Hopewell City Public Schools", "city": "Hopewell", "ncessch": "510198000865"}, {"name": "Dupont Elementary", "lat": 37.295776, "lon": -77.303572, "proficiency": 1.0, "district": "Hopewell City Public Schools", "city": "Hopewell", "ncessch": "510198000866"}, {"name": "Dorothy Hamm Middle", "lat": 38.900184, "lon": -77.112, "proficiency": 0.84, "district": "Arlington County Public Schools", "city": "Arlington", "ncessch": "510027003062"}, {"name": "Gunston Middle", "lat": 38.848, "lon": -77.0694, "proficiency": 0.74, "district": "Arlington County Public Schools", "city": "Arlington", "ncessch": "510027000752"}, {"name": "Jefferson Middle", "lat": 38.8699, "lon": -77.0965, "proficiency": 0.66, "district": "Arlington County Public Schools", "city": "Arlington", "ncessch": "510027000098"}, {"name": "Kenmore Middle", "lat": 38.8654, "lon": -77.1303, "proficiency": 0.81, "district": "Arlington County Public Schools", "city": "Arlington", "ncessch": "510027000099"}, {"name": "Swanson Middle", "lat": 38.883098, "lon": -77.139015, "proficiency": 0.84, "district": "Arlington County Public Schools", "city": "Arlington", "ncessch": "510027000107"}, {"name": "Williamsburg Middle", "lat": 38.9095, "lon": -77.1473, "proficiency": 0.95, "district": "Arlington County Public Schools", "city": "Arlington", "ncessch": "510027000113"}, {"name": "Georgie D. Tyler Middle", "lat": 36.818753, "lon": -76.74618, "proficiency": 0.77, "district": "Isle of Wight County Public Schools", "city": "Windsor", "ncessch": "510201000906"}, {"name": "Smithfield Middle", "lat": 36.9443, "lon": -76.5982, "proficiency": 0.72, "district": "Isle of Wight County Public Schools", "city": "Smithfield", "ncessch": "510201000874"}, {"name": "King George Middle", "lat": 38.2851, "lon": -77.1997, "proficiency": 0.65, "district": "King George County Public Schools", "city": "King George", "ncessch": "510210000883"}, {"name": "Hamilton Holmes Middle", "lat": 37.694962, "lon": -77.035328, "proficiency": 0.54, "district": "King William County Public Schools", "city": "King William", "ncessch": "510212000885"}, {"name": "Central High", "lat": 36.95565, "lon": -82.597872, "proficiency": 0.43, "district": "Wise County Public Schools", "city": "Norton", "ncessch": "510408001789"}, {"name": "Lancaster High", "lat": 37.768218, "lon": -76.456065, "proficiency": 0.27, "district": "Lancaster County Public Schools", "city": "Lancaster", "ncessch": "510216000887"}, {"name": "Lee High", "lat": 36.7308, "lon": -83.0889, "proficiency": 0.52, "district": "Lee County Public Schools", "city": "Jonesville", "ncessch": "510219002152"}, {"name": "Thomas Walker High", "lat": 36.647559, "lon": -83.407993, "proficiency": 0.55, "district": "Lee County Public Schools", "city": "Ewing", "ncessch": "510219000904"}, {"name": "Lylburn Downing Middle", "lat": 37.7862, "lon": -79.4345, "proficiency": 0.47, "district": "Lexington City Public Schools", "city": "Lexington", "ncessch": "510222000907"}, {"name": "Belmont Ridge Middle", "lat": 39.0902, "lon": -77.4905, "proficiency": 0.84, "district": "Loudoun County Public Schools", "city": "Leesburg", "ncessch": "510225002414"}, {"name": "Blue Ridge Middle", "lat": 39.1283, "lon": -77.7075, "proficiency": 0.82, "district": "Loudoun County Public Schools", "city": "Purcellville", "ncessch": "510225000912"}, {"name": "Brambleton Middle", "lat": 38.979713, "lon": -77.551945, "proficiency": 0.79, "district": "Loudoun County Public Schools", "city": "Ashburn", "ncessch": "510225003036"}, {"name": "Eagle Ridge Middle", "lat": 39.0153, "lon": -77.5161, "proficiency": 0.86, "district": "Loudoun County Public Schools", "city": "Ashburn", "ncessch": "510225002282"}, {"name": "Farmwell Station Middle", "lat": 39.0369, "lon": -77.4728, "proficiency": 0.81, "district": "Loudoun County Public Schools", "city": "Ashburn", "ncessch": "510225001131"}, {"name": "Harmony Middle", "lat": 39.13757, "lon": -77.683941, "proficiency": 0.84, "district": "Loudoun County Public Schools", "city": "Hamilton", "ncessch": "510225002831"}, {"name": "Harper Park Middle", "lat": 39.0948, "lon": -77.5227, "proficiency": 0.72, "district": "Loudoun County Public Schools", "city": "Leesburg", "ncessch": "510225001913"}, {"name": "J. Lupton Simpson Middle", "lat": 39.0903, "lon": -77.5698, "proficiency": 0.63, "district": "Loudoun County Public Schools", "city": "Leesburg", "ncessch": "510225000921"}, {"name": "J. Michael Lunsford Middle", "lat": 38.8966, "lon": -77.5232, "proficiency": 0.75, "district": "Loudoun County Public Schools", "city": "Chantilly", "ncessch": "510225002853"}, {"name": "John W. Tolbert Jr. Elementary", "lat": 39.0967, "lon": -77.5247, "proficiency": 1.0, "district": "Loudoun County Public Schools", "city": "Leesburg", "ncessch": "510225002287"}, {"name": "River Bend Middle", "lat": 39.0528, "lon": -77.3983, "proficiency": 0.59, "district": "Loudoun County Public Schools", "city": "Sterling", "ncessch": "510225002288"}, {"name": "Seneca Ridge Middle", "lat": 39.0284, "lon": -77.3731, "proficiency": 0.7, "district": "Loudoun County Public Schools", "city": "Sterling", "ncessch": "510225000931"}, {"name": "Smart's Mill Middle", "lat": 39.1333, "lon": -77.5482, "proficiency": 0.54, "district": "Loudoun County Public Schools", "city": "Leesburg", "ncessch": "510225002446"}, {"name": "Sterling Middle", "lat": 39.0007, "lon": -77.406, "proficiency": 0.33, "district": "Loudoun County Public Schools", "city": "Sterling", "ncessch": "510225000933"}, {"name": "Stone Hill Middle", "lat": 38.969539, "lon": -77.512201, "proficiency": 0.69, "district": "Loudoun County Public Schools", "city": "Ashburn", "ncessch": "510225002764"}, {"name": "Trailside Middle", "lat": 39.0553, "lon": -77.5026, "proficiency": 0.81, "district": "Loudoun County Public Schools", "city": "Ashburn", "ncessch": "510225002965"}, {"name": "Watson Mountain Middle", "lat": 38.988876, "lon": -77.56767, "proficiency": 1.0, "district": "Loudoun County Public Schools", "city": "Leesburg", "ncessch": "510225003137"}, {"name": "Willard Middle", "lat": 38.927577, "lon": -77.58964, "proficiency": 0.84, "district": "Loudoun County Public Schools", "city": "Aldie", "ncessch": "510225003059"}, {"name": "Louisa County Middle", "lat": 38.0203, "lon": -77.9253, "proficiency": 0.75, "district": "Louisa County Public Schools", "city": "Mineral", "ncessch": "510228001930"}, {"name": "Lunenburg Middle", "lat": 36.9887, "lon": -78.2067, "proficiency": 0.45, "district": "Lunenburg County Public Schools", "city": "Victoria", "ncessch": "510231000947"}, {"name": "S. Gordon Stewart Middle", "lat": 38.244, "lon": -78.9763, "proficiency": 0.45, "district": "Augusta County Public Schools", "city": "Fort Defiance", "ncessch": "510030001830"}, {"name": "Stuarts Draft Middle", "lat": 38.04489, "lon": -79.00994, "proficiency": 0.53, "district": "Augusta County Public Schools", "city": "Stuarts Draft", "ncessch": "510030000130"}, {"name": "Wilson Middle", "lat": 38.120708, "lon": -78.98767, "proficiency": 0.63, "district": "Augusta County Public Schools", "city": "Fishersville", "ncessch": "510030002435"}, {"name": "Linkhorne Middle", "lat": 37.4171, "lon": -79.193, "proficiency": 0.43, "district": "Lynchburg City Public Schools", "city": "Lynchburg", "ncessch": "510234000962"}, {"name": "Paul Laurence Dunbar Middle for Innovation", "lat": 37.407523, "lon": -79.146705, "proficiency": 0.6, "district": "Lynchburg City Public Schools", "city": "Lynchburg", "ncessch": "510234000955"}, {"name": "Sandusky Middle", "lat": 37.379566, "lon": -79.202406, "proficiency": 0.38, "district": "Lynchburg City Public Schools", "city": "Lynchburg", "ncessch": "510234000967"}, {"name": "William H. Wetsel Middle", "lat": 38.3639, "lon": -78.2672, "proficiency": 0.64, "district": "Madison County Public Schools", "city": "Madison", "ncessch": "510237000975"}, {"name": "Grace E. Metz Middle", "lat": 38.7435, "lon": -77.4627, "proficiency": 0.32, "district": "Manassas City Public Schools", "city": "Manassas", "ncessch": "510236002226"}, {"name": "Manassas Park Middle", "lat": 38.776336, "lon": -77.440565, "proficiency": 0.53, "district": "Manassas Park City Public Schools", "city": "Manassas Park", "ncessch": "510239002227"}, {"name": "Martinsville Middle", "lat": 36.6876, "lon": -79.8683, "proficiency": 0.23, "district": "Martinsville City Public Schools", "city": "Martinsville", "ncessch": "510240000989"}, {"name": "Mathews High", "lat": 37.4508, "lon": -76.3253, "proficiency": 0.61, "district": "Mathews County Public Schools", "city": "Mathews", "ncessch": "510243000993"}, {"name": "Thomas Hunter Middle", "lat": 37.4359, "lon": -76.3281, "proficiency": 1.0, "district": "Mathews County Public Schools", "city": "Mathews", "ncessch": "510243000994"}, {"name": "Mecklenburg County Middle", "lat": 36.67448, "lon": -78.29243, "proficiency": 0.54, "district": "Mecklenburg County Public Schools", "city": "Baskerville", "ncessch": "510246003089"}, {"name": "St. Clare Walker Middle", "lat": 37.5909, "lon": -76.499, "proficiency": 0.86, "district": "Middlesex County Public Schools", "city": "Locust Hill", "ncessch": "510249002195"}, {"name": "Blacksburg Middle", "lat": 37.2145, "lon": -80.4614, "proficiency": 0.78, "district": "Montgomery County Public Schools", "city": "Blacksburg", "ncessch": "510252001017"}, {"name": "Christiansburg Middle", "lat": 37.1227, "lon": -80.4252, "proficiency": 0.56, "district": "Montgomery County Public Schools", "city": "Christiansburg", "ncessch": "510252001020"}, {"name": "Shawsville Middle", "lat": 37.1728, "lon": -80.248, "proficiency": 0.5, "district": "Montgomery County Public Schools", "city": "Shawsville", "ncessch": "510252001029"}, {"name": "Nelson Middle", "lat": 37.733342, "lon": -78.895042, "proficiency": 0.77, "district": "Nelson County Public Schools", "city": "Lovingston", "ncessch": "510258001033"}, {"name": "Bath County High", "lat": 38.0339, "lon": -79.7947, "proficiency": 0.73, "district": "Bath County Public Schools", "city": "Hot Springs", "ncessch": "510033000139"}, {"name": "New Kent Middle", "lat": 37.512341, "lon": -76.983496, "proficiency": 0.81, "district": "New Kent County Public Schools", "city": "New Kent", "ncessch": "510261001037"}, {"name": "Achievable Dream Middle/High", "lat": 37.0035, "lon": -76.4267, "proficiency": 0.08, "district": "Newport News City Public Schools", "city": "Newport News", "ncessch": "510264002344"}, {"name": "B.T. Washington Middle", "lat": 36.9951, "lon": -76.4106, "proficiency": 0.18, "district": "Newport News City Public Schools", "city": "Newport News", "ncessch": "510264001041"}, {"name": "Crittenden Middle", "lat": 37.0262, "lon": -76.446, "proficiency": 0.41, "district": "Newport News City Public Schools", "city": "Newport News", "ncessch": "510264001237"}, {"name": "Ella J. Fitzgerald Middle", "lat": 37.1636, "lon": -76.5521, "proficiency": 0.46, "district": "Newport News City Public Schools", "city": "Newport News", "ncessch": "510264001056"}, {"name": "Ethel M. Gildersleeve Middle", "lat": 37.0721, "lon": -76.5006, "proficiency": 0.35, "district": "Newport News City Public Schools", "city": "Newport News", "ncessch": "510264002208"}, {"name": "Homer L. Hines Middle", "lat": 37.0448, "lon": -76.4633, "proficiency": 0.33, "district": "Newport News City Public Schools", "city": "Newport News", "ncessch": "510264001050"}, {"name": "Huntington Middle", "lat": 37.0063, "lon": -76.4272, "proficiency": 0.18, "district": "Newport News City Public Schools", "city": "Newport News", "ncessch": "510264001055"}, {"name": "Mary Passage Middle", "lat": 37.1486, "lon": -76.5469, "proficiency": 0.35, "district": "Newport News City Public Schools", "city": "Newport News", "ncessch": "510264002298"}, {"name": "Academy for Discovery at Lakewood", "lat": 36.883471, "lon": -76.262785, "proficiency": 0.71, "district": "Norfolk City Public Schools", "city": "Norfolk", "ncessch": "510267003018"}, {"name": "Azalea Gardens Middle", "lat": 36.9114, "lon": -76.211, "proficiency": 0.58, "district": "Norfolk City Public Schools", "city": "Norfolk", "ncessch": "510267001078"}, {"name": "Blair Middle", "lat": 36.8684, "lon": -76.2957, "proficiency": 0.49, "district": "Norfolk City Public Schools", "city": "Norfolk", "ncessch": "510267001082"}, {"name": "Crossroads PreK-8 School", "lat": 36.918186, "lon": -76.251397, "proficiency": 0.92, "district": "Norfolk City Public Schools", "city": "Norfolk", "ncessch": "510267001090"}, {"name": "Ghent K-8", "lat": 36.8645, "lon": -76.2873, "proficiency": 0.59, "district": "Norfolk City Public Schools", "city": "Norfolk", "ncessch": "510267001096"}, {"name": "Lake Taylor", "lat": 36.8692, "lon": -76.2017, "proficiency": 0.43, "district": "Norfolk City Public Schools", "city": "Norfolk", "ncessch": "510267001105"}, {"name": "Norview Middle", "lat": 36.8939, "lon": -76.2421, "proficiency": 0.43, "district": "Norfolk City Public Schools", "city": "Norfolk", "ncessch": "510267001123"}, {"name": "Ruffner School", "lat": 36.8474, "lon": -76.2757, "proficiency": 0.22, "district": "Norfolk City Public Schools", "city": "Norfolk", "ncessch": "510267001134"}, {"name": "Southside STEM Academy at Campostella", "lat": 36.830228, "lon": -76.259595, "proficiency": 0.56, "district": "Norfolk City Public Schools", "city": "Norfolk", "ncessch": "510267001085"}, {"name": "Northampton Middle", "lat": 37.36144, "lon": -75.940995, "proficiency": 0.48, "district": "Northampton County Public Schools", "city": "Eastville", "ncessch": "510271002963"}, {"name": "Northumberland Middle", "lat": 37.91372, "lon": -76.438433, "proficiency": 0.54, "district": "Northumberland County Public Schools", "city": "Heathsville", "ncessch": "510273001941"}, {"name": "J.I. Burton High", "lat": 36.9299, "lon": -82.6334, "proficiency": 0.78, "district": "Norton City Public Schools", "city": "Norton", "ncessch": "510276001162"}, {"name": "Norton Elementary", "lat": 36.9416, "lon": -82.6224, "proficiency": 1.0, "district": "Norton City Public Schools", "city": "Norton", "ncessch": "510276001163"}, {"name": "Nottoway Middle", "lat": 37.1231, "lon": -78.0656, "proficiency": 0.32, "district": "Nottoway County Public Schools", "city": "Crewe", "ncessch": "510279001943"}, {"name": "Locust Grove Middle", "lat": 38.317594, "lon": -77.781635, "proficiency": 0.66, "district": "Orange County Public Schools", "city": "Locust Grove", "ncessch": "510282002340"}, {"name": "Prospect Heights Middle", "lat": 38.239125, "lon": -78.120129, "proficiency": 0.62, "district": "Orange County Public Schools", "city": "Orange", "ncessch": "510282001176"}, {"name": "Luray Middle", "lat": 38.659481, "lon": -78.457007, "proficiency": 0.88, "district": "Page County Public Schools", "city": "Luray", "ncessch": "510285002799"}, {"name": "Page County Middle", "lat": 38.562719, "lon": -78.606593, "proficiency": 0.79, "district": "Page County Public Schools", "city": "Shenandoah", "ncessch": "510285002801"}, {"name": "Patrick County High", "lat": 36.62319, "lon": -80.270749, "proficiency": 0.63, "district": "Patrick County Public Schools", "city": "Stuart", "ncessch": "510288001188"}, {"name": "Forest Middle", "lat": 37.3693, "lon": -79.3099, "proficiency": 0.86, "district": "Bedford County Public Schools", "city": "Forest", "ncessch": "510036002174"}, {"name": "Staunton River Middle", "lat": 37.2411, "lon": -79.6261, "proficiency": 0.73, "district": "Bedford County Public Schools", "city": "Moneta", "ncessch": "510036002029"}, {"name": "Vernon Johns Middle", "lat": 37.187439, "lon": -77.394773, "proficiency": 0.19, "district": "Petersburg City Public Schools", "city": "Petersburg", "ncessch": "510291002794"}, {"name": "Chatham Middle", "lat": 36.7619, "lon": -79.3876, "proficiency": 0.84, "district": "Pittsylvania County Public Schools", "city": "Chatham", "ncessch": "510294001208"}, {"name": "Dan River Middle", "lat": 36.6551, "lon": -79.305, "proficiency": 0.6, "district": "Pittsylvania County Public Schools", "city": "Ringgold", "ncessch": "510294001213"}, {"name": "Gretna Middle", "lat": 36.946, "lon": -79.3732, "proficiency": 0.59, "district": "Pittsylvania County Public Schools", "city": "Gretna", "ncessch": "510294001217"}, {"name": "Tunstall Middle", "lat": 36.6677, "lon": -79.5264, "proficiency": 0.65, "district": "Pittsylvania County Public Schools", "city": "Dry Fork", "ncessch": "510294001206"}, {"name": "Poquoson Middle", "lat": 37.129, "lon": -76.3645, "proficiency": 0.89, "district": "Poquoson City Public Schools", "city": "Poquoson", "ncessch": "510298001232"}, {"name": "Churchland Middle", "lat": 36.8803, "lon": -76.3811, "proficiency": 0.47, "district": "Portsmouth City Public Schools", "city": "Portsmouth", "ncessch": "510300001241"}, {"name": "Cradock Middle", "lat": 36.8047, "lon": -76.3161, "proficiency": 0.45, "district": "Portsmouth City Public Schools", "city": "Portsmouth", "ncessch": "510300001234"}, {"name": "William E. Waters Middle", "lat": 36.7938, "lon": -76.3568, "proficiency": 0.55, "district": "Portsmouth City Public Schools", "city": "Portsmouth", "ncessch": "510300001265"}, {"name": "Powhatan Middle", "lat": 37.551387, "lon": -77.93712, "proficiency": 0.73, "district": "Powhatan County Public Schools", "city": "Powhatan", "ncessch": "510303001269"}, {"name": "Prince Edward Middle", "lat": 37.264691, "lon": -78.402081, "proficiency": 0.38, "district": "Prince Edward County Public Schools", "city": "Farmville", "ncessch": "510306002130"}, {"name": "J.E.J. Moore Middle", "lat": 37.153, "lon": -77.2855, "proficiency": 0.66, "district": "Prince George County Public Schools", "city": "Disputanta", "ncessch": "510309001276"}, {"name": "Bull Run Middle", "lat": 38.8235, "lon": -77.6048, "proficiency": 0.77, "district": "Prince William County Public Schools", "city": "Gainesville", "ncessch": "510313002303"}, {"name": "E.H. Marsteller Middle", "lat": 38.7386, "lon": -77.5806, "proficiency": 0.87, "district": "Prince William County Public Schools", "city": "Bristow", "ncessch": "510313001293"}, {"name": "Fred M. Lynn Middle", "lat": 38.6523, "lon": -77.2631, "proficiency": 0.53, "district": "Prince William County Public Schools", "city": "Woodbridge", "ncessch": "510313001297"}, {"name": "Gainesville Middle", "lat": 38.7826, "lon": -77.5977, "proficiency": 0.88, "district": "Prince William County Public Schools", "city": "Gainesville", "ncessch": "510313002753"}, {"name": "George M. Hampton Middle", "lat": 38.634586, "lon": -77.340491, "proficiency": 0.52, "district": "Prince William County Public Schools", "city": "Woodbridge", "ncessch": "510313001307"}, {"name": "Graham Park Middle", "lat": 38.5552, "lon": -77.3206, "proficiency": 0.63, "district": "Prince William County Public Schools", "city": "Triangle", "ncessch": "510313001301"}, {"name": "Herbert J. Saunders Middle", "lat": 38.657829, "lon": -77.394983, "proficiency": 0.84, "district": "Prince William County Public Schools", "city": "Manassas", "ncessch": "510313001951"}, {"name": "Lake Ridge Middle", "lat": 38.6863, "lon": -77.3051, "proficiency": 0.74, "district": "Prince William County Public Schools", "city": "Woodbridge", "ncessch": "510313002158"}, {"name": "Louise A. Benton Middle", "lat": 38.657, "lon": -77.4304, "proficiency": 0.8, "district": "Prince William County Public Schools", "city": "Manassas", "ncessch": "510313002543"}, {"name": "Mary G. Porter Traditional", "lat": 38.617571, "lon": -77.27709, "proficiency": 1.0, "district": "Prince William County Public Schools", "city": "Woodbridge", "ncessch": "510313002798"}, {"name": "Parkside Middle", "lat": 38.7698, "lon": -77.4571, "proficiency": 0.56, "district": "Prince William County Public Schools", "city": "Manassas", "ncessch": "510313001315"}, {"name": "Pennington Traditional", "lat": 38.753834, "lon": -77.483184, "proficiency": 0.99, "district": "Prince William County Public Schools", "city": "Manassas", "ncessch": "510313002418"}, {"name": "Potomac Middle", "lat": 38.5926, "lon": -77.3069, "proficiency": 0.6, "district": "Prince William County Public Schools", "city": "Dumfries", "ncessch": "510313002584"}, {"name": "Potomac Shores Middle", "lat": 38.562614, "lon": -77.28747, "proficiency": 0.64, "district": "Prince William County Public Schools", "city": "Dumfries", "ncessch": "510313003077"}, {"name": "Rippon Middle", "lat": 38.6226, "lon": -77.2671, "proficiency": 0.54, "district": "Prince William County Public Schools", "city": "Woodbridge", "ncessch": "510313001319"}, {"name": "Ronald Wilson Reagan Middle", "lat": 38.8458, "lon": -77.6625, "proficiency": 0.78, "district": "Prince William County Public Schools", "city": "Haymarket", "ncessch": "510313002858"}, {"name": "Stuart M. Beville Middle", "lat": 38.6587, "lon": -77.3554, "proficiency": 0.6, "district": "Prince William County Public Schools", "city": "Woodbridge", "ncessch": "510313000190"}, {"name": "The Nokesville School", "lat": 38.687491, "lon": -77.569933, "proficiency": 0.72, "district": "Prince William County Public Schools", "city": "Nokesville", "ncessch": "510313001311"}, {"name": "Unity Braxton Middle", "lat": 38.7849, "lon": -77.5013, "proficiency": 0.54, "district": "Prince William County Public Schools", "city": "Manassas", "ncessch": "510313001322"}, {"name": "Woodbridge Middle", "lat": 38.6509, "lon": -77.2808, "proficiency": 0.55, "district": "Prince William County Public Schools", "city": "Woodbridge", "ncessch": "510313001326"}, {"name": "Pulaski County Middle", "lat": 37.095358, "lon": -80.735253, "proficiency": 0.65, "district": "Pulaski County Public Schools", "city": "Pulaski", "ncessch": "510315003076"}, {"name": "Pulaski County Public Schools Virtual School K-12", "lat": 37.04792, "lon": -80.779601, "proficiency": 0.54, "district": "Pulaski County Public Schools", "city": "Pulaski", "ncessch": "510315003126"}, {"name": "John N. Dalton Intermediate", "lat": 37.135513, "lon": -80.570672, "proficiency": 0.68, "district": "Radford City Public Schools", "city": "Radford", "ncessch": "510318001858"}, {"name": "Francis C. Hammond Middle", "lat": 38.82703, "lon": -77.110456, "proficiency": 0.15, "district": "Alexandria City Public Schools", "city": "Alexandria", "ncessch": "510012003016"}, {"name": "George Washington Middle", "lat": 38.815774, "lon": -77.055387, "proficiency": 0.23, "district": "Alexandria City Public Schools", "city": "Alexandria", "ncessch": "510012002999"}, {"name": "Jefferson-Houston PK-8 School", "lat": 38.808034, "lon": -77.054588, "proficiency": 0.18, "district": "Alexandria City Public Schools", "city": "Alexandria", "ncessch": "510012000044"}, {"name": "Patrick Henry K-8 School", "lat": 38.818087, "lon": -77.111585, "proficiency": 0.26, "district": "Alexandria City Public Schools", "city": "Alexandria", "ncessch": "510012000052"}], "districts": [{"name": "Alleghany Highlands Public Schools", "lat": 37.784048, "lon": -79.99159, "proficiency": 0.35, "schoolCount": 1}, {"name": "Bland County Public Schools", "lat": 37.241302, "lon": -81.109487, "proficiency": 0.62, "schoolCount": 1}, {"name": "Rappahannock County Public Schools", "lat": 38.687112, "lon": -78.182391, "proficiency": 0.73, "schoolCount": 2}, {"name": "Richmond City Public Schools", "lat": 37.52259971428571, "lon": -77.46582114285715, "proficiency": 0.2429, "schoolCount": 7}, {"name": "Richmond County Public Schools", "lat": 37.947255, "lon": -76.7440105, "proficiency": 0.71, "schoolCount": 2}, {"name": "Roanoke City Public Schools", "lat": 37.27418, "lon": -79.95626, "proficiency": 0.242, "schoolCount": 5}, {"name": "Roanoke County Public Schools", "lat": 37.2733834, "lon": -80.0095816, "proficiency": 0.696, "schoolCount": 5}, {"name": "Rockbridge County Public Schools", "lat": 37.7738, "lon": -79.4436, "proficiency": 0.81, "schoolCount": 1}, {"name": "Rockingham County Public Schools", "lat": 38.4514715, "lon": -78.78237250000001, "proficiency": 0.51, "schoolCount": 4}, {"name": "Russell County Public Schools", "lat": 36.952799999999996, "lon": -82.0442, "proficiency": 1.0, "schoolCount": 2}, {"name": "Salem City Public Schools", "lat": 37.287074, "lon": -80.052414, "proficiency": 0.615, "schoolCount": 2}, {"name": "Scott County Public Schools", "lat": 36.69880725, "lon": -82.575076, "proficiency": 0.6025, "schoolCount": 4}, {"name": "Botetourt County Public Schools", "lat": 37.432500000000005, "lon": -79.8829, "proficiency": 0.8, "schoolCount": 2}, {"name": "Shenandoah County Public Schools", "lat": 38.84896666666666, "lon": -78.51826666666666, "proficiency": 0.7067, "schoolCount": 3}, {"name": "Smyth County Public Schools", "lat": 36.857395333333336, "lon": -81.604594, "proficiency": 0.5533, "schoolCount": 3}, {"name": "Southampton County Public Schools", "lat": 36.7005, "lon": -77.1037, "proficiency": 0.46, "schoolCount": 1}, {"name": "Spotsylvania County Public Schools", "lat": 38.224228428571436, "lon": -77.58040042857144, "proficiency": 0.5057, "schoolCount": 7}, {"name": "Stafford County Public Schools", "lat": 38.4145375, "lon": -77.44095, "proficiency": 0.5413, "schoolCount": 8}, {"name": "Staunton City Public Schools", "lat": 38.159596, "lon": -79.099029, "proficiency": 0.56, "schoolCount": 1}, {"name": "Suffolk City Public Schools", "lat": 36.7923898, "lon": -76.5452462, "proficiency": 0.764, "schoolCount": 5}, {"name": "Surry County Public Schools", "lat": 37.0833, "lon": -76.9034, "proficiency": 0.74, "schoolCount": 1}, {"name": "Sussex County Public Schools", "lat": 36.9204, "lon": -77.2561, "proficiency": 0.58, "schoolCount": 1}, {"name": "Tazewell County Public Schools", "lat": 37.15329, "lon": -81.50868433333333, "proficiency": 0.83, "schoolCount": 3}, {"name": "Bristol City Public Schools", "lat": 36.605165, "lon": -82.183495, "proficiency": 0.45, "schoolCount": 1}, {"name": "Virginia Beach City Public Schools", "lat": 36.82818478571429, "lon": -76.09891521428573, "proficiency": 0.7571, "schoolCount": 14}, {"name": "Warren County Public Schools", "lat": 38.920423, "lon": -78.17558600000001, "proficiency": 0.45, "schoolCount": 2}, {"name": "Washington County Public Schools", "lat": 36.697975, "lon": -81.9169, "proficiency": 0.835, "schoolCount": 4}, {"name": "Waynesboro City Public Schools", "lat": 38.081193, "lon": -78.894235, "proficiency": 0.59, "schoolCount": 1}, {"name": "West Point Public Schools", "lat": 37.5577, "lon": -76.7968, "proficiency": 0.51, "schoolCount": 1}, {"name": "Westmoreland County Public Schools", "lat": 38.069169, "lon": -76.772429, "proficiency": 0.88, "schoolCount": 1}, {"name": "Williamsburg-James City County Public Schools", "lat": 37.3103694, "lon": -76.7777432, "proficiency": 0.678, "schoolCount": 5}, {"name": "Winchester City Public Schools", "lat": 39.1792, "lon": -78.1509, "proficiency": 0.73, "schoolCount": 1}, {"name": "Wise County Public Schools", "lat": 36.964275, "lon": -82.54749533333333, "proficiency": 0.8417, "schoolCount": 6}, {"name": "Brunswick County Public Schools", "lat": 36.7783, "lon": -77.8736, "proficiency": 0.54, "schoolCount": 1}, {"name": "Wythe County Public Schools", "lat": 36.92343333333333, "lon": -81.09296666666667, "proficiency": 0.7333, "schoolCount": 3}, {"name": "York County Public Schools", "lat": 37.1992, "lon": -76.52745, "proficiency": 0.8425, "schoolCount": 4}, {"name": "Buchanan County Public Schools", "lat": 37.25288325, "lon": -82.0348545, "proficiency": 0.38, "schoolCount": 4}, {"name": "Buckingham County Public Schools", "lat": 37.536, "lon": -78.5024, "proficiency": 0.59, "schoolCount": 1}, {"name": "Buena Vista City Public Schools", "lat": 37.7183, "lon": -79.3599, "proficiency": 0.67, "schoolCount": 1}, {"name": "Campbell County Public Schools", "lat": 37.21061325, "lon": -79.161348, "proficiency": 0.46, "schoolCount": 4}, {"name": "Caroline County Public Schools", "lat": 38.0033, "lon": -77.4106, "proficiency": 0.5, "schoolCount": 1}, {"name": "Carroll County Public Schools", "lat": 36.768739, "lon": -80.739134, "proficiency": 0.49, "schoolCount": 1}, {"name": "Albemarle County Public Schools", "lat": 38.040652, "lon": -78.52847666666666, "proficiency": 0.5317, "schoolCount": 6}, {"name": "Charles City County Public Schools", "lat": 37.351, "lon": -77.0763, "proficiency": 0.42, "schoolCount": 1}, {"name": "Charlotte County Public Schools", "lat": 37.0527, "lon": -78.6461, "proficiency": 0.81, "schoolCount": 1}, {"name": "Chesapeake City Public Schools", "lat": 36.7616, "lon": -76.29714, "proficiency": 0.737, "schoolCount": 10}, {"name": "Chesterfield County Public Schools", "lat": 37.42468376923077, "lon": -77.53978384615385, "proficiency": 0.7354, "schoolCount": 13}, {"name": "Clarke County Public Schools", "lat": 39.151265, "lon": -77.987577, "proficiency": 0.69, "schoolCount": 1}, {"name": "Colonial Beach Public Schools", "lat": 38.257575, "lon": -76.969085, "proficiency": 0.6, "schoolCount": 1}, {"name": "Colonial Heights City Public Schools", "lat": 37.247, "lon": -77.4, "proficiency": 0.48, "schoolCount": 1}, {"name": "Craig County Public Schools", "lat": 37.5158, "lon": -80.0849, "proficiency": 0.09, "schoolCount": 1}, {"name": "Culpeper County Public Schools", "lat": 38.49041, "lon": -77.9884845, "proficiency": 0.665, "schoolCount": 2}, {"name": "Amelia County Public Schools", "lat": 37.3347, "lon": -77.99, "proficiency": 0.71, "schoolCount": 1}, {"name": "Cumberland County Public Schools", "lat": 37.491812, "lon": -78.248365, "proficiency": 0.54, "schoolCount": 1}, {"name": "Danville City Public Schools", "lat": 36.597449999999995, "lon": -79.41, "proficiency": 0.565, "schoolCount": 2}, {"name": "Dickenson County Public Schools", "lat": 37.134369, "lon": -82.389672, "proficiency": 0.59, "schoolCount": 1}, {"name": "Dinwiddie County Public Schools", "lat": 37.111916, "lon": -77.587842, "proficiency": 0.64, "schoolCount": 1}, {"name": "Essex County Public Schools", "lat": 37.925375, "lon": -76.867506, "proficiency": 0.72, "schoolCount": 1}, {"name": "Fairfax County Public Schools", "lat": 38.84063746153846, "lon": -77.2440193076923, "proficiency": 0.7027, "schoolCount": 26}, {"name": "Hanover County Public Schools", "lat": 37.687575, "lon": -77.417425, "proficiency": 0.8175, "schoolCount": 4}, {"name": "Montgomery County Public Schools", "lat": 37.1428625, "lon": -80.39430525, "proficiency": 0.6675, "schoolCount": 4}, {"name": "Fauquier County Public Schools", "lat": 38.72173, "lon": -77.79596733333334, "proficiency": 0.6467, "schoolCount": 3}, {"name": "Floyd County Public Schools", "lat": 36.9088, "lon": -80.3078, "proficiency": 0.66, "schoolCount": 1}, {"name": "Amherst County Public Schools", "lat": 37.512, "lon": -79.07265, "proficiency": 0.635, "schoolCount": 2}, {"name": "Fluvanna County Public Schools", "lat": 37.8488365, "lon": -78.28673850000001, "proficiency": 0.82, "schoolCount": 2}, {"name": "Franklin City Public Schools", "lat": 36.6914, "lon": -76.9479, "proficiency": 0.12, "schoolCount": 1}, {"name": "Franklin County Public Schools", "lat": 37.0177, "lon": -79.8848, "proficiency": 0.72, "schoolCount": 1}, {"name": "Frederick County Public Schools", "lat": 39.1667115, "lon": -78.18826725, "proficiency": 0.5525, "schoolCount": 4}, {"name": "Fredericksburg City Public Schools", "lat": 38.274464, "lon": -77.486736, "proficiency": 0.46, "schoolCount": 1}, {"name": "Galax City Public Schools", "lat": 36.6543, "lon": -80.9251, "proficiency": 0.64, "schoolCount": 1}, {"name": "Giles County Public Schools", "lat": 37.332289, "lon": -80.750963, "proficiency": 0.5567, "schoolCount": 3}, {"name": "Gloucester County Public Schools", "lat": 37.387923, "lon": -76.56455399999999, "proficiency": 0.8, "schoolCount": 2}, {"name": "Goochland County Public Schools", "lat": 37.6993, "lon": -77.8967, "proficiency": 0.6, "schoolCount": 1}, {"name": "Appomattox County Public Schools", "lat": 37.3557, "lon": -78.8251, "proficiency": 0.61, "schoolCount": 1}, {"name": "Greene County Public Schools", "lat": 38.2952, "lon": -78.4431, "proficiency": 0.45, "schoolCount": 1}, {"name": "Greensville County Public Schools", "lat": 36.7154, "lon": -77.5334, "proficiency": 0.47, "schoolCount": 1}, {"name": "Halifax County Public Schools", "lat": 36.7251, "lon": -78.917, "proficiency": 0.77, "schoolCount": 1}, {"name": "Hampton City Public Schools", "lat": 37.04553611111111, "lon": -76.36819122222222, "proficiency": 0.9072, "schoolCount": 18}, {"name": "Harrisonburg City Public Schools", "lat": 38.452, "lon": -78.8911, "proficiency": 0.35, "schoolCount": 1}, {"name": "Henrico County Public Schools", "lat": 37.62230459090909, "lon": -77.51609854545455, "proficiency": 0.6795, "schoolCount": 22}, {"name": "Henry County Public Schools", "lat": 36.6970615, "lon": -79.8507625, "proficiency": 0.57, "schoolCount": 2}, {"name": "Highland County Public Schools", "lat": 38.4073, "lon": -79.5792, "proficiency": 0.73, "schoolCount": 1}, {"name": "Hopewell City Public Schools", "lat": 37.293088, "lon": -77.29763600000001, "proficiency": 0.725, "schoolCount": 2}, {"name": "Arlington County Public Schools", "lat": 38.879347, "lon": -77.1157525, "proficiency": 0.8067, "schoolCount": 6}, {"name": "Isle of Wight County Public Schools", "lat": 36.8815265, "lon": -76.67219, "proficiency": 0.745, "schoolCount": 2}, {"name": "King George County Public Schools", "lat": 38.2851, "lon": -77.1997, "proficiency": 0.65, "schoolCount": 1}, {"name": "King William County Public Schools", "lat": 37.694962, "lon": -77.035328, "proficiency": 0.54, "schoolCount": 1}, {"name": "Lancaster County Public Schools", "lat": 37.768218, "lon": -76.456065, "proficiency": 0.27, "schoolCount": 1}, {"name": "Lee County Public Schools", "lat": 36.6891795, "lon": -83.2484465, "proficiency": 0.535, "schoolCount": 2}, {"name": "Lexington City Public Schools", "lat": 37.7862, "lon": -79.4345, "proficiency": 0.47, "schoolCount": 1}, {"name": "Loudoun County Public Schools", "lat": 39.04015972222223, "lon": -77.52560538888889, "proficiency": 0.7533, "schoolCount": 18}, {"name": "Louisa County Public Schools", "lat": 38.0203, "lon": -77.9253, "proficiency": 0.75, "schoolCount": 1}, {"name": "Lunenburg County Public Schools", "lat": 36.9887, "lon": -78.2067, "proficiency": 0.45, "schoolCount": 1}, {"name": "Augusta County Public Schools", "lat": 38.13653266666667, "lon": -78.99130333333333, "proficiency": 0.5367, "schoolCount": 3}, {"name": "Lynchburg City Public Schools", "lat": 37.40139633333333, "lon": -79.18070366666666, "proficiency": 0.47, "schoolCount": 3}, {"name": "Madison County Public Schools", "lat": 38.3639, "lon": -78.2672, "proficiency": 0.64, "schoolCount": 1}, {"name": "Manassas City Public Schools", "lat": 38.7435, "lon": -77.4627, "proficiency": 0.32, "schoolCount": 1}, {"name": "Manassas Park City Public Schools", "lat": 38.776336, "lon": -77.440565, "proficiency": 0.53, "schoolCount": 1}, {"name": "Martinsville City Public Schools", "lat": 36.6876, "lon": -79.8683, "proficiency": 0.23, "schoolCount": 1}, {"name": "Mathews County Public Schools", "lat": 37.443349999999995, "lon": -76.3267, "proficiency": 0.805, "schoolCount": 2}, {"name": "Mecklenburg County Public Schools", "lat": 36.67448, "lon": -78.29243, "proficiency": 0.54, "schoolCount": 1}, {"name": "Middlesex County Public Schools", "lat": 37.5909, "lon": -76.499, "proficiency": 0.86, "schoolCount": 1}, {"name": "Nelson County Public Schools", "lat": 37.733342, "lon": -78.895042, "proficiency": 0.77, "schoolCount": 1}, {"name": "Bath County Public Schools", "lat": 38.0339, "lon": -79.7947, "proficiency": 0.73, "schoolCount": 1}, {"name": "New Kent County Public Schools", "lat": 37.512341, "lon": -76.983496, "proficiency": 0.81, "schoolCount": 1}, {"name": "Newport News City Public Schools", "lat": 37.057525, "lon": -76.471675, "proficiency": 0.2925, "schoolCount": 8}, {"name": "Norfolk City Public Schools", "lat": 36.87629833333333, "lon": -76.2541418888889, "proficiency": 0.5478, "schoolCount": 9}, {"name": "Northampton County Public Schools", "lat": 37.36144, "lon": -75.940995, "proficiency": 0.48, "schoolCount": 1}, {"name": "Northumberland County Public Schools", "lat": 37.91372, "lon": -76.438433, "proficiency": 0.54, "schoolCount": 1}, {"name": "Norton City Public Schools", "lat": 36.93575, "lon": -82.6279, "proficiency": 0.89, "schoolCount": 2}, {"name": "Nottoway County Public Schools", "lat": 37.1231, "lon": -78.0656, "proficiency": 0.32, "schoolCount": 1}, {"name": "Orange County Public Schools", "lat": 38.2783595, "lon": -77.95088200000001, "proficiency": 0.64, "schoolCount": 2}, {"name": "Page County Public Schools", "lat": 38.6111, "lon": -78.5318, "proficiency": 0.835, "schoolCount": 2}, {"name": "Patrick County Public Schools", "lat": 36.62319, "lon": -80.270749, "proficiency": 0.63, "schoolCount": 1}, {"name": "Bedford County Public Schools", "lat": 37.3052, "lon": -79.46799999999999, "proficiency": 0.795, "schoolCount": 2}, {"name": "Petersburg City Public Schools", "lat": 37.187439, "lon": -77.394773, "proficiency": 0.19, "schoolCount": 1}, {"name": "Pittsylvania County Public Schools", "lat": 36.757675, "lon": -79.39805, "proficiency": 0.67, "schoolCount": 4}, {"name": "Poquoson City Public Schools", "lat": 37.129, "lon": -76.3645, "proficiency": 0.89, "schoolCount": 1}, {"name": "Portsmouth City Public Schools", "lat": 36.82626666666666, "lon": -76.35133333333334, "proficiency": 0.49, "schoolCount": 3}, {"name": "Powhatan County Public Schools", "lat": 37.551387, "lon": -77.93712, "proficiency": 0.73, "schoolCount": 1}, {"name": "Prince Edward County Public Schools", "lat": 37.264691, "lon": -78.402081, "proficiency": 0.38, "schoolCount": 1}, {"name": "Prince George County Public Schools", "lat": 37.153, "lon": -77.2855, "proficiency": 0.66, "schoolCount": 1}, {"name": "Prince William County Public Schools", "lat": 38.68673625, "lon": -77.41432755, "proficiency": 0.705, "schoolCount": 20}, {"name": "Pulaski County Public Schools", "lat": 37.071639, "lon": -80.757427, "proficiency": 0.595, "schoolCount": 2}, {"name": "Radford City Public Schools", "lat": 37.135513, "lon": -80.570672, "proficiency": 0.68, "schoolCount": 1}, {"name": "Alexandria City Public Schools", "lat": 38.81723125, "lon": -77.083004, "proficiency": 0.205, "schoolCount": 4}], "cities": [{"name": "Covington", "lat": 37.784048, "lon": -79.99159, "proficiency": 0.35, "schoolCount": 1}, {"name": "Rocky Gap", "lat": 37.241302, "lon": -81.109487, "proficiency": 0.62, "schoolCount": 1}, {"name": "Washington", "lat": 38.687112, "lon": -78.182391, "proficiency": 0.73, "schoolCount": 2}, {"name": "Richmond", "lat": 37.5773449, "lon": -77.4991924, "proficiency": 0.4985, "schoolCount": 20}, {"name": "Warsaw", "lat": 37.947255, "lon": -76.7440105, "proficiency": 0.71, "schoolCount": 2}, {"name": "Roanoke", "lat": 37.271514625, "lon": -79.9786885, "proficiency": 0.425, "schoolCount": 8}, {"name": "Salem", "lat": 37.284982666666664, "lon": -80.08134266666667, "proficiency": 0.6467, "schoolCount": 3}, {"name": "Vinton", "lat": 37.2849, "lon": -79.8605, "proficiency": 0.58, "schoolCount": 1}, {"name": "Lexington", "lat": 37.78, "lon": -79.43905000000001, "proficiency": 0.64, "schoolCount": 2}, {"name": "Elkton", "lat": 38.404131, "lon": -78.609191, "proficiency": 0.33, "schoolCount": 1}, {"name": "Broadway", "lat": 38.617255, "lon": -78.802299, "proficiency": 0.5, "schoolCount": 1}, {"name": "Penn Laird", "lat": 38.3658, "lon": -78.7748, "proficiency": 0.66, "schoolCount": 1}, {"name": "Dayton", "lat": 38.4187, "lon": -78.9432, "proficiency": 0.55, "schoolCount": 1}, {"name": "Honaker", "lat": 37.0494895, "lon": -82.02874249999999, "proficiency": 0.765, "schoolCount": 2}, {"name": "Lebanon", "lat": 36.8885, "lon": -82.1101, "proficiency": 1.0, "schoolCount": 1}, {"name": "Gate City", "lat": 36.6400645, "lon": -82.57305199999999, "proficiency": 0.56, "schoolCount": 2}, {"name": "Duffield", "lat": 36.7354, "lon": -82.6909, "proficiency": 0.7, "schoolCount": 1}, {"name": "Nickelsville", "lat": 36.7797, "lon": -82.4633, "proficiency": 0.59, "schoolCount": 1}, {"name": "Fincastle", "lat": 37.5073, "lon": -79.8633, "proficiency": 0.88, "schoolCount": 1}, {"name": "Cloverdale", "lat": 37.3577, "lon": -79.9025, "proficiency": 0.72, "schoolCount": 1}, {"name": "Quicksburg", "lat": 38.7068, "lon": -78.6624, "proficiency": 0.68, "schoolCount": 1}, {"name": "Woodstock", "lat": 38.8632, "lon": -78.5262, "proficiency": 0.78, "schoolCount": 1}, {"name": "Strasburg", "lat": 38.9769, "lon": -78.3662, "proficiency": 0.66, "schoolCount": 1}, {"name": "Chilhowie", "lat": 36.804786, "lon": -81.673682, "proficiency": 0.83, "schoolCount": 1}, {"name": "Marion", "lat": 36.8373, "lon": -81.5135, "proficiency": 0.3, "schoolCount": 1}, {"name": "Saltville", "lat": 36.9301, "lon": -81.6266, "proficiency": 0.53, "schoolCount": 1}, {"name": "Courtland", "lat": 36.7005, "lon": -77.1037, "proficiency": 0.46, "schoolCount": 1}, {"name": "Fredericksburg", "lat": 38.2944605, "lon": -77.5126065, "proficiency": 0.5433, "schoolCount": 6}, {"name": "Spotsylvania", "lat": 38.194725000000005, "lon": -77.597075, "proficiency": 0.4775, "schoolCount": 4}, {"name": "Stafford", "lat": 38.45372, "lon": -77.43072, "proficiency": 0.534, "schoolCount": 5}, {"name": "Falmouth", "lat": 38.3461, "lon": -77.4596, "proficiency": 0.49, "schoolCount": 1}, {"name": "Staunton", "lat": 38.159596, "lon": -79.099029, "proficiency": 0.56, "schoolCount": 1}, {"name": "SUFFOLK", "lat": 36.884956, "lon": -76.418289, "proficiency": 0.77, "schoolCount": 1}, {"name": "Suffolk", "lat": 36.769248250000004, "lon": -76.5769855, "proficiency": 0.7625, "schoolCount": 4}, {"name": "Dendron", "lat": 37.0833, "lon": -76.9034, "proficiency": 0.74, "schoolCount": 1}, {"name": "Stony Creek", "lat": 36.9204, "lon": -77.2561, "proficiency": 0.58, "schoolCount": 1}, {"name": "Bluefield", "lat": 37.2357, "lon": -81.2615, "proficiency": 0.9, "schoolCount": 1}, {"name": "Richlands", "lat": 37.0958, "lon": -81.7787, "proficiency": 0.77, "schoolCount": 1}, {"name": "Tazewell", "lat": 37.12837, "lon": -81.485853, "proficiency": 0.82, "schoolCount": 1}, {"name": "Bristol", "lat": 36.6277325, "lon": -82.1572975, "proficiency": 0.655, "schoolCount": 2}, {"name": "Virginia Beach", "lat": 36.82818478571429, "lon": -76.09891521428573, "proficiency": 0.7571, "schoolCount": 14}, {"name": "Front Royal", "lat": 38.920423, "lon": -78.17558600000001, "proficiency": 0.45, "schoolCount": 2}, {"name": "Damascus", "lat": 36.6396, "lon": -81.8039, "proficiency": 0.76, "schoolCount": 1}, {"name": "Abingdon", "lat": 36.7243, "lon": -81.9538, "proficiency": 0.84, "schoolCount": 1}, {"name": "Glade Spring", "lat": 36.7777, "lon": -81.7788, "proficiency": 0.88, "schoolCount": 1}, {"name": "Waynesboro", "lat": 38.081193, "lon": -78.894235, "proficiency": 0.59, "schoolCount": 1}, {"name": "West Point", "lat": 37.5577, "lon": -76.7968, "proficiency": 0.51, "schoolCount": 1}, {"name": "Montross", "lat": 38.069169, "lon": -76.772429, "proficiency": 0.88, "schoolCount": 1}, {"name": "Williamsburg", "lat": 37.2917694, "lon": -76.7520052, "proficiency": 0.722, "schoolCount": 5}, {"name": "Toano", "lat": 37.3765, "lon": -76.80059, "proficiency": 0.6, "schoolCount": 1}, {"name": "Winchester", "lat": 39.19059325, "lon": -78.18403975, "proficiency": 0.5925, "schoolCount": 4}, {"name": "Coeburn", "lat": 36.951, "lon": -82.4677, "proficiency": 0.86, "schoolCount": 1}, {"name": "Pound", "lat": 37.111, "lon": -82.599, "proficiency": 0.95, "schoolCount": 1}, {"name": "Wise", "lat": 36.9746, "lon": -82.5758, "proficiency": 0.98, "schoolCount": 1}, {"name": "St Paul", "lat": 36.9087, "lon": -82.3097, "proficiency": 1.0, "schoolCount": 1}, {"name": "Big Stone Gap", "lat": 36.8847, "lon": -82.7349, "proficiency": 0.83, "schoolCount": 1}, {"name": "Lawrenceville", "lat": 36.7783, "lon": -77.8736, "proficiency": 0.54, "schoolCount": 1}, {"name": "Max Meadows", "lat": 36.9297, "lon": -80.9391, "proficiency": 0.8, "schoolCount": 1}, {"name": "Rural Retreat", "lat": 36.8952, "lon": -81.2692, "proficiency": 0.64, "schoolCount": 1}, {"name": "Wytheville", "lat": 36.9454, "lon": -81.0706, "proficiency": 0.76, "schoolCount": 1}, {"name": "Yorktown", "lat": 37.171099999999996, "lon": -76.47930000000001, "proficiency": 0.85, "schoolCount": 3}, {"name": "Hurley", "lat": 37.379987, "lon": -82.000645, "proficiency": 0.57, "schoolCount": 1}, {"name": "Grundy", "lat": 37.3089, "lon": -82.1459, "proficiency": 0.33, "schoolCount": 1}, {"name": "Pilgrim Knob", "lat": 37.240767, "lon": -81.913688, "proficiency": 0.09, "schoolCount": 1}, {"name": "Buckingham", "lat": 37.536, "lon": -78.5024, "proficiency": 0.59, "schoolCount": 1}, {"name": "Buena Vista", "lat": 37.7183, "lon": -79.3599, "proficiency": 0.67, "schoolCount": 1}, {"name": "Altavista", "lat": 37.110053, "lon": -79.295692, "proficiency": 0.53, "schoolCount": 1}, {"name": "Lynchburg", "lat": 37.38742225, "lon": -79.19537775, "proficiency": 0.4675, "schoolCount": 4}, {"name": "Rustburg", "lat": 37.2739, "lon": -79.1033, "proficiency": 0.42, "schoolCount": 1}, {"name": "Naruna", "lat": 37.113, "lon": -79.007, "proficiency": 0.43, "schoolCount": 1}, {"name": "Milford", "lat": 38.0033, "lon": -77.4106, "proficiency": 0.5, "schoolCount": 1}, {"name": "Hillsville", "lat": 36.768739, "lon": -80.739134, "proficiency": 0.49, "schoolCount": 1}, {"name": "Charlottesville", "lat": 38.0383624, "lon": -78.493012, "proficiency": 0.528, "schoolCount": 5}, {"name": "Crozet", "lat": 38.0521, "lon": -78.7058, "proficiency": 0.55, "schoolCount": 1}, {"name": "Charles City", "lat": 37.351, "lon": -77.0763, "proficiency": 0.42, "schoolCount": 1}, {"name": "Charlotte Court House", "lat": 37.0527, "lon": -78.6461, "proficiency": 0.81, "schoolCount": 1}, {"name": "Chesapeake", "lat": 36.7616, "lon": -76.29714, "proficiency": 0.737, "schoolCount": 10}, {"name": "Midlothian", "lat": 37.469211, "lon": -77.6389128, "proficiency": 0.886, "schoolCount": 5}, {"name": "Chester", "lat": 37.31885, "lon": -77.38675, "proficiency": 0.61, "schoolCount": 2}, {"name": "Chesterfield", "lat": 37.491504, "lon": -77.544386, "proficiency": 0.58, "schoolCount": 1}, {"name": "North Chesterfield", "lat": 37.45005, "lon": -77.50727499999999, "proficiency": 0.605, "schoolCount": 4}, {"name": "Matoaca", "lat": 37.24543, "lon": -77.47564, "proficiency": 0.91, "schoolCount": 1}, {"name": "Berryville", "lat": 39.151265, "lon": -77.987577, "proficiency": 0.69, "schoolCount": 1}, {"name": "Colonial Beach", "lat": 38.257575, "lon": -76.969085, "proficiency": 0.6, "schoolCount": 1}, {"name": "Colonial Heights", "lat": 37.247, "lon": -77.4, "proficiency": 0.48, "schoolCount": 1}, {"name": "New Castle", "lat": 37.5158, "lon": -80.0849, "proficiency": 0.09, "schoolCount": 1}, {"name": "Culpeper", "lat": 38.49041, "lon": -77.9884845, "proficiency": 0.665, "schoolCount": 2}, {"name": "Amelia", "lat": 37.3347, "lon": -77.99, "proficiency": 0.71, "schoolCount": 1}, {"name": "Cumberland", "lat": 37.491812, "lon": -78.248365, "proficiency": 0.54, "schoolCount": 1}, {"name": "Danville", "lat": 36.597449999999995, "lon": -79.41, "proficiency": 0.565, "schoolCount": 2}, {"name": "Clintwood", "lat": 37.134369, "lon": -82.389672, "proficiency": 0.59, "schoolCount": 1}, {"name": "Dinwiddie", "lat": 37.111916, "lon": -77.587842, "proficiency": 0.64, "schoolCount": 1}, {"name": "Tappahannock", "lat": 37.925375, "lon": -76.867506, "proficiency": 0.72, "schoolCount": 1}, {"name": "Herndon", "lat": 38.947639, "lon": -77.4054525, "proficiency": 0.65, "schoolCount": 2}, {"name": "McLean", "lat": 38.952228, "lon": -77.192261, "proficiency": 0.94, "schoolCount": 1}, {"name": "Chantilly", "lat": 38.89266666666666, "lon": -77.45123333333333, "proficiency": 0.8067, "schoolCount": 3}, {"name": "Fairfax", "lat": 38.83745433333333, "lon": -77.30107366666667, "proficiency": 0.7333, "schoolCount": 3}, {"name": "Alexandria", "lat": 38.793413, "lon": -77.1029831, "proficiency": 0.428, "schoolCount": 10}, {"name": "Reston", "lat": 38.9352, "lon": -77.3386, "proficiency": 0.66, "schoolCount": 1}, {"name": "Springfield", "lat": 38.7804, "lon": -77.18286666666667, "proficiency": 0.7267, "schoolCount": 3}, {"name": "Falls Church", "lat": 38.88885, "lon": -77.20185000000001, "proficiency": 0.71, "schoolCount": 2}, {"name": "Vienna", "lat": 38.8964, "lon": -77.233, "proficiency": 0.755, "schoolCount": 2}, {"name": "Burke", "lat": 38.8033, "lon": -77.2661, "proficiency": 0.83, "schoolCount": 1}, {"name": "Ashland", "lat": 37.7808, "lon": -77.5331, "proficiency": 0.82, "schoolCount": 1}, {"name": "Annandale", "lat": 38.8207, "lon": -77.1868, "proficiency": 0.37, "schoolCount": 1}, {"name": "Lorton", "lat": 38.7216, "lon": -77.2451, "proficiency": 0.8, "schoolCount": 1}, {"name": "Centreville", "lat": 38.8576, "lon": -77.4549, "proficiency": 0.93, "schoolCount": 1}, {"name": "Riner", "lat": 37.06145, "lon": -80.442621, "proficiency": 0.83, "schoolCount": 1}, {"name": "Bealeton", "lat": 38.5755, "lon": -77.7672, "proficiency": 0.5, "schoolCount": 1}, {"name": "Marshall", "lat": 38.8735, "lon": -77.8174, "proficiency": 0.72, "schoolCount": 1}, {"name": "Warrenton", "lat": 38.71619, "lon": -77.803302, "proficiency": 0.72, "schoolCount": 1}, {"name": "Floyd", "lat": 36.9088, "lon": -80.3078, "proficiency": 0.66, "schoolCount": 1}, {"name": "Amherst", "lat": 37.5694, "lon": -79.032, "proficiency": 0.73, "schoolCount": 1}, {"name": "Madison Heights", "lat": 37.4546, "lon": -79.1133, "proficiency": 0.54, "schoolCount": 1}, {"name": "Palmyra", "lat": 37.8488365, "lon": -78.28673850000001, "proficiency": 0.82, "schoolCount": 2}, {"name": "Franklin", "lat": 36.6914, "lon": -76.9479, "proficiency": 0.12, "schoolCount": 1}, {"name": "Rocky Mount", "lat": 37.0177, "lon": -79.8848, "proficiency": 0.72, "schoolCount": 1}, {"name": "White Post", "lat": 39.083673, "lon": -78.16781, "proficiency": 0.57, "schoolCount": 1}, {"name": "Galax", "lat": 36.6543, "lon": -80.9251, "proficiency": 0.64, "schoolCount": 1}, {"name": "Pearisburg", "lat": 37.3295835, "lon": -80.7242445, "proficiency": 0.53, "schoolCount": 2}, {"name": "Narrows", "lat": 37.3377, "lon": -80.8044, "proficiency": 0.61, "schoolCount": 1}, {"name": "Gloucester", "lat": 37.387923, "lon": -76.56455399999999, "proficiency": 0.8, "schoolCount": 2}, {"name": "Goochland", "lat": 37.6993, "lon": -77.8967, "proficiency": 0.6, "schoolCount": 1}, {"name": "Appomattox", "lat": 37.3557, "lon": -78.8251, "proficiency": 0.61, "schoolCount": 1}, {"name": "Stanardsville", "lat": 38.2952, "lon": -78.4431, "proficiency": 0.45, "schoolCount": 1}, {"name": "Emporia", "lat": 36.7154, "lon": -77.5334, "proficiency": 0.47, "schoolCount": 1}, {"name": "South Boston", "lat": 36.7251, "lon": -78.917, "proficiency": 0.77, "schoolCount": 1}, {"name": "Hampton", "lat": 37.04553611111111, "lon": -76.36819122222222, "proficiency": 0.9072, "schoolCount": 18}, {"name": "Mechanicsville", "lat": 37.6565, "lon": -77.37886666666667, "proficiency": 0.8167, "schoolCount": 3}, {"name": "Harrisonburg", "lat": 38.452, "lon": -78.8911, "proficiency": 0.35, "schoolCount": 1}, {"name": "Sandston", "lat": 37.5036, "lon": -77.233, "proficiency": 0.37, "schoolCount": 1}, {"name": "Glen Allen", "lat": 37.678282714285714, "lon": -77.57913171428571, "proficiency": 0.8429, "schoolCount": 7}, {"name": "Henrico", "lat": 37.550422, "lon": -77.344146, "proficiency": 0.41, "schoolCount": 1}, {"name": "Collinsville", "lat": 36.7088, "lon": -79.9217, "proficiency": 0.53, "schoolCount": 1}, {"name": "Martinsville", "lat": 36.6864615, "lon": -79.8240625, "proficiency": 0.42, "schoolCount": 2}, {"name": "Monterey", "lat": 38.4073, "lon": -79.5792, "proficiency": 0.73, "schoolCount": 1}, {"name": "Hopewell", "lat": 37.293088, "lon": -77.29763600000001, "proficiency": 0.725, "schoolCount": 2}, {"name": "Arlington", "lat": 38.879347, "lon": -77.1157525, "proficiency": 0.8067, "schoolCount": 6}, {"name": "Windsor", "lat": 36.818753, "lon": -76.74618, "proficiency": 0.77, "schoolCount": 1}, {"name": "Smithfield", "lat": 36.9443, "lon": -76.5982, "proficiency": 0.72, "schoolCount": 1}, {"name": "King George", "lat": 38.2851, "lon": -77.1997, "proficiency": 0.65, "schoolCount": 1}, {"name": "King William", "lat": 37.694962, "lon": -77.035328, "proficiency": 0.54, "schoolCount": 1}, {"name": "Norton", "lat": 36.94238333333333, "lon": -82.61789066666667, "proficiency": 0.7367, "schoolCount": 3}, {"name": "Lancaster", "lat": 37.768218, "lon": -76.456065, "proficiency": 0.27, "schoolCount": 1}, {"name": "Jonesville", "lat": 36.7308, "lon": -83.0889, "proficiency": 0.52, "schoolCount": 1}, {"name": "Ewing", "lat": 36.647559, "lon": -83.407993, "proficiency": 0.55, "schoolCount": 1}, {"name": "Leesburg", "lat": 39.08236266666666, "lon": -77.53726166666667, "proficiency": 0.7883, "schoolCount": 6}, {"name": "Purcellville", "lat": 39.1283, "lon": -77.7075, "proficiency": 0.82, "schoolCount": 1}, {"name": "Ashburn", "lat": 39.011350400000005, "lon": -77.5111292, "proficiency": 0.792, "schoolCount": 5}, {"name": "Hamilton", "lat": 39.13757, "lon": -77.683941, "proficiency": 0.84, "schoolCount": 1}, {"name": "Sterling", "lat": 39.0273, "lon": -77.39246666666666, "proficiency": 0.54, "schoolCount": 3}, {"name": "Aldie", "lat": 38.927577, "lon": -77.58964, "proficiency": 0.84, "schoolCount": 1}, {"name": "Mineral", "lat": 38.0203, "lon": -77.9253, "proficiency": 0.75, "schoolCount": 1}, {"name": "Victoria", "lat": 36.9887, "lon": -78.2067, "proficiency": 0.45, "schoolCount": 1}, {"name": "Fort Defiance", "lat": 38.244, "lon": -78.9763, "proficiency": 0.45, "schoolCount": 1}, {"name": "Stuarts Draft", "lat": 38.04489, "lon": -79.00994, "proficiency": 0.53, "schoolCount": 1}, {"name": "Fishersville", "lat": 38.120708, "lon": -78.98767, "proficiency": 0.63, "schoolCount": 1}, {"name": "Madison", "lat": 38.3639, "lon": -78.2672, "proficiency": 0.64, "schoolCount": 1}, {"name": "Manassas", "lat": 38.7278105, "lon": -77.4549445, "proficiency": 0.675, "schoolCount": 6}, {"name": "Manassas Park", "lat": 38.776336, "lon": -77.440565, "proficiency": 0.53, "schoolCount": 1}, {"name": "Mathews", "lat": 37.443349999999995, "lon": -76.3267, "proficiency": 0.805, "schoolCount": 2}, {"name": "Baskerville", "lat": 36.67448, "lon": -78.29243, "proficiency": 0.54, "schoolCount": 1}, {"name": "Locust Hill", "lat": 37.5909, "lon": -76.499, "proficiency": 0.86, "schoolCount": 1}, {"name": "Blacksburg", "lat": 37.2145, "lon": -80.4614, "proficiency": 0.78, "schoolCount": 1}, {"name": "Christiansburg", "lat": 37.1227, "lon": -80.4252, "proficiency": 0.56, "schoolCount": 1}, {"name": "Shawsville", "lat": 37.1728, "lon": -80.248, "proficiency": 0.5, "schoolCount": 1}, {"name": "Lovingston", "lat": 37.733342, "lon": -78.895042, "proficiency": 0.77, "schoolCount": 1}, {"name": "Hot Springs", "lat": 38.0339, "lon": -79.7947, "proficiency": 0.73, "schoolCount": 1}, {"name": "New Kent", "lat": 37.512341, "lon": -76.983496, "proficiency": 0.81, "schoolCount": 1}, {"name": "Newport News", "lat": 37.057525, "lon": -76.471675, "proficiency": 0.2925, "schoolCount": 8}, {"name": "Norfolk", "lat": 36.87629833333333, "lon": -76.2541418888889, "proficiency": 0.5478, "schoolCount": 9}, {"name": "Eastville", "lat": 37.36144, "lon": -75.940995, "proficiency": 0.48, "schoolCount": 1}, {"name": "Heathsville", "lat": 37.91372, "lon": -76.438433, "proficiency": 0.54, "schoolCount": 1}, {"name": "Crewe", "lat": 37.1231, "lon": -78.0656, "proficiency": 0.32, "schoolCount": 1}, {"name": "Locust Grove", "lat": 38.317594, "lon": -77.781635, "proficiency": 0.66, "schoolCount": 1}, {"name": "Orange", "lat": 38.239125, "lon": -78.120129, "proficiency": 0.62, "schoolCount": 1}, {"name": "Luray", "lat": 38.659481, "lon": -78.457007, "proficiency": 0.88, "schoolCount": 1}, {"name": "Shenandoah", "lat": 38.562719, "lon": -78.606593, "proficiency": 0.79, "schoolCount": 1}, {"name": "Stuart", "lat": 36.62319, "lon": -80.270749, "proficiency": 0.63, "schoolCount": 1}, {"name": "Forest", "lat": 37.3693, "lon": -79.3099, "proficiency": 0.86, "schoolCount": 1}, {"name": "Moneta", "lat": 37.2411, "lon": -79.6261, "proficiency": 0.73, "schoolCount": 1}, {"name": "Petersburg", "lat": 37.187439, "lon": -77.394773, "proficiency": 0.19, "schoolCount": 1}, {"name": "Chatham", "lat": 36.7619, "lon": -79.3876, "proficiency": 0.84, "schoolCount": 1}, {"name": "Ringgold", "lat": 36.6551, "lon": -79.305, "proficiency": 0.6, "schoolCount": 1}, {"name": "Gretna", "lat": 36.946, "lon": -79.3732, "proficiency": 0.59, "schoolCount": 1}, {"name": "Dry Fork", "lat": 36.6677, "lon": -79.5264, "proficiency": 0.65, "schoolCount": 1}, {"name": "Poquoson", "lat": 37.129, "lon": -76.3645, "proficiency": 0.89, "schoolCount": 1}, {"name": "Portsmouth", "lat": 36.82626666666666, "lon": -76.35133333333334, "proficiency": 0.49, "schoolCount": 3}, {"name": "Powhatan", "lat": 37.551387, "lon": -77.93712, "proficiency": 0.73, "schoolCount": 1}, {"name": "Farmville", "lat": 37.264691, "lon": -78.402081, "proficiency": 0.38, "schoolCount": 1}, {"name": "Disputanta", "lat": 37.153, "lon": -77.2855, "proficiency": 0.66, "schoolCount": 1}, {"name": "Gainesville", "lat": 38.80305, "lon": -77.60125, "proficiency": 0.825, "schoolCount": 2}, {"name": "Bristow", "lat": 38.7386, "lon": -77.5806, "proficiency": 0.87, "schoolCount": 1}, {"name": "Woodbridge", "lat": 38.64613671428572, "lon": -77.29844014285713, "proficiency": 0.64, "schoolCount": 7}, {"name": "Triangle", "lat": 38.5552, "lon": -77.3206, "proficiency": 0.63, "schoolCount": 1}, {"name": "Dumfries", "lat": 38.577607, "lon": -77.297185, "proficiency": 0.62, "schoolCount": 2}, {"name": "Haymarket", "lat": 38.8458, "lon": -77.6625, "proficiency": 0.78, "schoolCount": 1}, {"name": "Nokesville", "lat": 38.687491, "lon": -77.569933, "proficiency": 0.72, "schoolCount": 1}, {"name": "Pulaski", "lat": 37.071639, "lon": -80.757427, "proficiency": 0.595, "schoolCount": 2}, {"name": "Radford", "lat": 37.135513, "lon": -80.570672, "proficiency": 0.68, "schoolCount": 1}]}