{"state": "VT", "stateName": "Vermont", "year": 2024, "naep": {"text": "7 out of 10", "numerator": 7, "denominator": 10}, "schools": [{"name": "Sheldon Elementary School", "lat": 44.900623, "lon": -72.969393, "proficiency": 0.0021, "district": "Northern Mountain Valley Unified Union School District #85", "city": "Sheldon", "ncessch": "500044100286"}, {"name": "Enosburg Falls Middle/High School", "lat": 44.905214, "lon": -72.803951, "proficiency": 0.0047, "district": "Enosburgh-Richford Unified Union School District #88", "city": "Enosburg Falls", "ncessch": "500044400022"}, {"name": "Richford Junior/Senior High School", "lat": 44.994956, "lon": -72.669901, "proficiency": 0.0018, "district": "Enosburgh-Richford Unified Union School District #88", "city": "Richford", "ncessch": "500044400256"}, {"name": "Waits River Valley Union School", "lat": 44.079622, "lon": -72.261325, "proficiency": 0.0016, "district": "Waits River Union High District #36", "city": "East Corinth", "ncessch": "500824200340"}, {"name": "Burke Town School", "lat": 44.624605, "lon": -71.959915, "proficiency": 0.0038, "district": "Kingdom East Unified Union School District #64", "city": "West Burke", "ncessch": "500042100424"}, {"name": "Lyndon Town School", "lat": 44.5464, "lon": -71.985215, "proficiency": 0.002, "district": "Kingdom East Unified Union School District #64", "city": "Lyndonville", "ncessch": "500042100436"}, {"name": "Concord Graded/Middle School", "lat": 44.4267, "lon": -71.8905, "proficiency": 0.0009, "district": "Kingdom East Unified Union School District #64", "city": "Concord", "ncessch": "500042100427"}, {"name": "Danville School", "lat": 44.41086, "lon": -72.143871, "proficiency": 0.002, "district": "Danville School District", "city": "Danville", "ncessch": "500345000451"}, {"name": "Barnet Elementary School", "lat": 44.307382, "lon": -72.080727, "proficiency": 0.0038, "district": "Caledonia Cooperative Unified School District #78", "city": "Barnet", "ncessch": "500041200421"}, {"name": "Waterford Elementary School", "lat": 44.402843, "lon": -71.927776, "proficiency": 0.0031, "district": "Caledonia Cooperative Unified School District #78", "city": "Waterford", "ncessch": "500041200363"}, {"name": "Twinfield Union School", "lat": 44.297973, "lon": -72.395034, "proficiency": 0.0023, "district": "Twinfield Union School District #33", "city": "Plainfield", "ncessch": "500822500335"}, {"name": "Brownington Central School", "lat": 44.819962, "lon": -72.137867, "proficiency": 0.0031, "district": "Lake Region Union Elementary Middle School District", "city": "Brownington", "ncessch": "500043600059"}, {"name": "Glover Community School", "lat": 44.705906, "lon": -72.189648, "proficiency": 0.0075, "district": "Lake Region Union Elementary Middle School District", "city": "Glover", "ncessch": "500043600137"}, {"name": "Irasburg Village School", "lat": 44.803603, "lon": -72.272929, "proficiency": 0.0, "district": "Lake Region Union Elementary Middle School District", "city": "Irasburg", "ncessch": "500043600163"}, {"name": "Orleans Elementary School", "lat": 44.810071, "lon": -72.197071, "proficiency": 0.0026, "district": "Lake Region Union Elementary Middle School District", "city": "Orleans", "ncessch": "500043600232"}, {"name": "White River Valley Middle School", "lat": 43.83343, "lon": -72.643707, "proficiency": 0.0033, "district": "White River Unified School District #79", "city": "Bethel", "ncessch": "500042600545"}, {"name": "Newport Town School", "lat": 44.95163, "lon": -72.306445, "proficiency": 0.0, "district": "Newport Town School District", "city": "Newport Center", "ncessch": "500603000218"}, {"name": "Brighton Elementary School", "lat": 44.821503, "lon": -71.893971, "proficiency": 0.0007, "district": "Brighton School District", "city": "Island Pond", "ncessch": "500261000054"}, {"name": "Troy School", "lat": 44.995788, "lon": -72.405405, "proficiency": 0.0009, "district": "Troy School District", "city": "North Troy", "ncessch": "500813000328"}, {"name": "Coventry Village School", "lat": 44.862564, "lon": -72.264947, "proficiency": 0.003, "district": "Coventry School District", "city": "Coventry", "ncessch": "500336000096"}, {"name": "North Country Union Junior High School", "lat": 44.949248, "lon": -72.131382, "proficiency": 0.0031, "district": "North Country Union Junior High School District", "city": "Derby", "ncessch": "500957000470"}, {"name": "Windsor School", "lat": 43.480583, "lon": -72.394275, "proficiency": 0.0011, "district": "Mount Ascutney School District #86", "city": "Windsor", "ncessch": "500044200539"}, {"name": "Weathersfield School", "lat": 43.411345, "lon": -72.409916, "proficiency": 0.0038, "district": "Weathersfield School District", "city": "Ascutney", "ncessch": "500870000536"}, {"name": "Hartland Elementary School", "lat": 43.538024, "lon": -72.394123, "proficiency": 0.0032, "district": "Hartland School District", "city": "Hartland", "ncessch": "500462000155"}, {"name": "St. Johnsbury School", "lat": 44.416493, "lon": -72.024436, "proficiency": 0.0024, "district": "Saint Johnsbury School District", "city": "Saint Johnsbury", "ncessch": "500765000181"}, {"name": "Shelburne Community School", "lat": 44.380593, "lon": -73.235159, "proficiency": 0.0037, "district": "Champlain Valley Unified Union School District #56", "city": "Shelburne", "ncessch": "500039600284"}, {"name": "Charlotte Central School", "lat": 44.315141, "lon": -73.226777, "proficiency": 0.0056, "district": "Champlain Valley Unified Union School District #56", "city": "Charlotte", "ncessch": "500039600084"}, {"name": "Hinesburg Community School", "lat": 44.326291, "lon": -73.107773, "proficiency": 0.0044, "district": "Champlain Valley Unified Union School District #56", "city": "Hinesburg", "ncessch": "500039600158"}, {"name": "Williston Schools", "lat": 44.440664, "lon": -73.073592, "proficiency": 0.0049, "district": "Champlain Valley Unified Union School District #56", "city": "Williston", "ncessch": "500039600243"}, {"name": "Twin Valley Middle High School", "lat": 42.78797, "lon": -72.840176, "proficiency": 0.0042, "district": "Twin Valley Unified School District #75", "city": "Whitingham", "ncessch": "500041800540"}, {"name": "Rutland Town Elementary School", "lat": 43.638551, "lon": -72.96349, "proficiency": 0.0032, "district": "Rutland Town School District", "city": "Rutland Town", "ncessch": "500708000279"}, {"name": "West Rutland School", "lat": 43.595506, "lon": -73.05142, "proficiency": 0.0004, "district": "Quarry Valley Unified Union School District #70", "city": "West Rutland", "ncessch": "500041100370"}, {"name": "Poultney High School", "lat": 43.516567, "lon": -73.229974, "proficiency": 0.0017, "district": "Quarry Valley Unified Union School District #70", "city": "Poultney", "ncessch": "500041100245"}, {"name": "Proctor Junior/Senior High School", "lat": 43.655029, "lon": -73.029322, "proficiency": 0.0028, "district": "Quarry Valley Unified Union School District #70", "city": "Proctor", "ncessch": "500041100248"}, {"name": "Dorset Elementary School", "lat": 43.221943, "lon": -73.065892, "proficiency": 0.0043, "district": "Taconic and Green Regional School District #63", "city": "Dorset", "ncessch": "500041700104"}, {"name": "Flood Brook School", "lat": 43.23677, "lon": -72.847971, "proficiency": 0.0032, "district": "Taconic and Green Regional School District #63", "city": "Londonderry", "ncessch": "500041700337"}, {"name": "Manchester Elementary/Middle School", "lat": 43.179056, "lon": -73.05371, "proficiency": 0.0023, "district": "Taconic and Green Regional School District #63", "city": "Manchester Center", "ncessch": "500041700185"}, {"name": "Alburgh Community Education Center", "lat": 44.979, "lon": -73.298023, "proficiency": 0.0017, "district": "Alburgh School District", "city": "Alburgh", "ncessch": "500177000004"}, {"name": "North Hero School", "lat": 44.850891, "lon": -73.263501, "proficiency": 0.0, "district": "Champlain Islands Unified Union School District #66", "city": "North Hero", "ncessch": "500043500221"}, {"name": "Folsom Education & Community Center", "lat": 44.636221, "lon": -73.302114, "proficiency": 0.0075, "district": "South Hero School District", "city": "South Hero", "ncessch": "500750000296"}, {"name": "Hazen Union High School", "lat": 44.508753, "lon": -72.365156, "proficiency": 0.0007, "district": "Hazen Union High School District #26", "city": "Hardwick", "ncessch": "500824300343"}, {"name": "Brattleboro Area Middle School", "lat": 42.835607, "lon": -72.561339, "proficiency": 0.004, "district": "Windham Southeast Unified Union School District #96", "city": "Brattleboro", "ncessch": "500043100485"}, {"name": "Westford Elementary School", "lat": 44.602809, "lon": -73.018852, "proficiency": 0.0046, "district": "Essex Westford Educational Community Unified Union SD #51", "city": "Westford", "ncessch": "500039500373"}, {"name": "Albert D. Lawton School", "lat": 44.486996, "lon": -73.098456, "proficiency": 0.0051, "district": "Essex Westford Educational Community Unified Union SD #51", "city": "Essex Junction", "ncessch": "500039500115"}, {"name": "Essex Middle School", "lat": 44.499157, "lon": -73.05874, "proficiency": 0.0059, "district": "Essex Westford Educational Community Unified Union SD #51", "city": "Essex Junction", "ncessch": "500039500121"}, {"name": "Barre City Elementary/Middle School", "lat": 44.184474, "lon": -72.504763, "proficiency": 0.0025, "district": "Barre Unified Union School District #97", "city": "Barre", "ncessch": "500044500055"}, {"name": "Barre Town Elementary & Middle School", "lat": 44.168053, "lon": -72.485399, "proficiency": 0.0051, "district": "Barre Unified Union School District #97", "city": "Barre", "ncessch": "500044500024"}, {"name": "Georgia Elementary & Middle School", "lat": 44.735401, "lon": -73.114517, "proficiency": 0.0045, "district": "Georgia School District", "city": "Saint Albans", "ncessch": "500414000136"}, {"name": "Barstow Memorial School", "lat": 43.701049, "lon": -72.952462, "proficiency": 0.0068, "district": "Barstow Unified Union School District #49", "city": "Chittenden", "ncessch": "500039009274"}, {"name": "Otter Valley Union High School", "lat": 43.767193, "lon": -73.051539, "proficiency": 0.0002, "district": "Otter Valley Unified Union School District #53", "city": "Brandon", "ncessch": "500039200234"}, {"name": "Milton Middle School", "lat": 44.632436, "lon": -73.110081, "proficiency": 0.0029, "district": "Milton School District", "city": "Milton", "ncessch": "500561000193"}, {"name": "Camels Hump Middle School", "lat": 44.413577, "lon": -72.994475, "proficiency": 0.0059, "district": "Mount Mansfield Unified Union School District #401", "city": "Richmond", "ncessch": "500044300399"}, {"name": "Browns River Middle School", "lat": 44.51918, "lon": -72.944481, "proficiency": 0.0046, "district": "Mount Mansfield Unified Union School District #401", "city": "Jericho", "ncessch": "500044300398"}, {"name": "Crossett Brook Middle School", "lat": 44.321112, "lon": -72.752843, "proficiency": 0.0054, "district": "Harwood Unified Union School District #60", "city": "Waterbury", "ncessch": "500040300146"}, {"name": "Harwood Union Middle/High School", "lat": 44.254059, "lon": -72.786484, "proficiency": 0.0041, "district": "Harwood Unified Union School District #60", "city": "Moretown", "ncessch": "500040300148"}, {"name": "Peoples Academy Middle School", "lat": 44.562781, "lon": -72.590199, "proficiency": 0.004, "district": "Elmore-Morristown Unified Union School District #90", "city": "Morrisville", "ncessch": "500044800157"}, {"name": "Stowe Middle School", "lat": 44.465295, "lon": -72.726442, "proficiency": 0.0049, "district": "Stowe Town School District", "city": "Stowe", "ncessch": "500780000552"}, {"name": "Orange Center School", "lat": 44.1491, "lon": -72.4037, "proficiency": 0.0016, "district": "Echo Valley Community Union School District #67", "city": "East Barre", "ncessch": "500043000551"}, {"name": "Northfield Middle/High School", "lat": 44.153538, "lon": -72.660477, "proficiency": 0.0023, "district": "Paine Mountain Union School District #68", "city": "Northfield", "ncessch": "500040800227"}, {"name": "Williamstown Middle/High School", "lat": 44.12624, "lon": -72.546727, "proficiency": 0.0021, "district": "Paine Mountain Union School District #68", "city": "Williamstown", "ncessch": "500040800380"}, {"name": "Main Street Middle School", "lat": 44.262961, "lon": -72.5697, "proficiency": 0.0062, "district": "Montpelier Roxbury Unified Union School District #71", "city": "Montpelier", "ncessch": "500041000200"}, {"name": "Frederick H. Tuttle Middle School", "lat": 44.456733, "lon": -73.177403, "proficiency": 0.0047, "district": "South Burlington School District", "city": "South Burlington", "ncessch": "500747000295"}, {"name": "Winooski Middle School", "lat": 44.500708, "lon": -73.180325, "proficiency": 0.0013, "district": "Winooski Incorporated School District", "city": "Winooski", "ncessch": "500936000183"}, {"name": "Edmunds Middle School", "lat": 44.475489, "lon": -73.208135, "proficiency": 0.0048, "district": "Burlington School District", "city": "Burlington", "ncessch": "500282000066"}, {"name": "Lyman C. Hunt Middle School", "lat": 44.513304, "lon": -73.249172, "proficiency": 0.0031, "district": "Burlington School District", "city": "Burlington", "ncessch": "500282000070"}, {"name": "Middlebury Union Middle School", "lat": 43.998307, "lon": -73.152574, "proficiency": 0.0036, "district": "Addison Central Unified Union School District #55", "city": "Middlebury", "ncessch": "500040200469"}, {"name": "Hartford Memorial Middle School", "lat": 43.656386, "lon": -72.320182, "proficiency": 0.0034, "district": "Hartford School District", "city": "White River Junction", "ncessch": "500459000150"}, {"name": "Riverside Middle School", "lat": 43.304107, "lon": -72.496726, "proficiency": 0.0011, "district": "Springfield School District", "city": "Springfield", "ncessch": "500753000298"}, {"name": "Colchester Middle School", "lat": 44.540435, "lon": -73.209485, "proficiency": 0.0056, "district": "Colchester School District", "city": "Colchester", "ncessch": "500324000088"}, {"name": "Missisquoi Valley Union High School", "lat": 44.927807, "lon": -73.101846, "proficiency": 0.0044, "district": "Missisquoi Valley School District #89", "city": "Swanton", "ncessch": "500043300195"}, {"name": "Mill River Union High School", "lat": 43.54703, "lon": -72.971401, "proficiency": 0.0016, "district": "Mill River Unified Union School District #52", "city": "North Clarendon", "ncessch": "500039300344"}, {"name": "Lamoille Union Middle School", "lat": 44.601384, "lon": -72.630704, "proficiency": 0.0011, "district": "Lamoille North Modified Union School District #058B", "city": "Hyde Park", "ncessch": "500039700198"}, {"name": "Mt. Abraham Union High School", "lat": 44.135449, "lon": -73.093979, "proficiency": 0.0035, "district": "Mt. Abraham Unified School District #61", "city": "Bristol", "ncessch": "500042500338"}, {"name": "Green Mountain Union High School", "lat": 43.25355, "lon": -72.581533, "proficiency": 0.0034, "district": "Green Mountain Unified School District #77", "city": "Chester", "ncessch": "500042700348"}, {"name": "Vergennes Union Middle School", "lat": 44.170009, "lon": -73.243357, "proficiency": 0.0045, "district": "Addison Northwest Unified Union School District #54", "city": "Vergennes", "ncessch": "500039809276"}, {"name": "Fair Haven Union Middle and High School", "lat": 43.603511, "lon": -73.270145, "proficiency": 0.0008, "district": "Slate Valley Unified Union School District #62", "city": "Fair Haven", "ncessch": "500044000127"}, {"name": "Rutland Middle School", "lat": 43.612947, "lon": -72.980991, "proficiency": 0.0016, "district": "Rutland City School District", "city": "Rutland", "ncessch": "500705000468"}, {"name": "Woodstock Union Middle/High School", "lat": 43.612359, "lon": -72.54571, "proficiency": 0.0061, "district": "Mountain Views Unified Union School District #76", "city": "Woodstock", "ncessch": "500045000395"}, {"name": "Randolph Union High School", "lat": 43.930947, "lon": -72.6597, "proficiency": 0.0038, "district": "Orange Southwest Unified Union School District #59", "city": "Randolph", "ncessch": "500040000042"}, {"name": "U-32 Middle & High School", "lat": 44.244516, "lon": -72.526714, "proficiency": 0.0048, "district": "Washington Central Unified Union School District #92", "city": "Montpelier", "ncessch": "500043900339"}], "districts": [{"name": "Northern Mountain Valley Unified Union School District #85", "lat": 44.900623, "lon": -72.969393, "proficiency": 0.0021, "schoolCount": 1}, {"name": "Enosburgh-Richford Unified Union School District #88", "lat": 44.950085, "lon": -72.736926, "proficiency": 0.0033, "schoolCount": 2}, {"name": "Waits River Union High District #36", "lat": 44.079622, "lon": -72.261325, "proficiency": 0.0016, "schoolCount": 1}, {"name": "Kingdom East Unified Union School District #64", "lat": 44.53256833333333, "lon": -71.94520999999999, "proficiency": 0.0022, "schoolCount": 3}, {"name": "Danville School District", "lat": 44.41086, "lon": -72.143871, "proficiency": 0.002, "schoolCount": 1}, {"name": "Caledonia Cooperative Unified School District #78", "lat": 44.3551125, "lon": -72.0042515, "proficiency": 0.0034, "schoolCount": 2}, {"name": "Twinfield Union School District #33", "lat": 44.297973, "lon": -72.395034, "proficiency": 0.0023, "schoolCount": 1}, {"name": "Lake Region Union Elementary Middle School District", "lat": 44.7848855, "lon": -72.19937875, "proficiency": 0.0033, "schoolCount": 4}, {"name": "White River Unified School District #79", "lat": 43.83343, "lon": -72.643707, "proficiency": 0.0033, "schoolCount": 1}, {"name": "Newport Town School District", "lat": 44.95163, "lon": -72.306445, "proficiency": 0.0, "schoolCount": 1}, {"name": "Brighton School District", "lat": 44.821503, "lon": -71.893971, "proficiency": 0.0007, "schoolCount": 1}, {"name": "Troy School District", "lat": 44.995788, "lon": -72.405405, "proficiency": 0.0009, "schoolCount": 1}, {"name": "Coventry School District", "lat": 44.862564, "lon": -72.264947, "proficiency": 0.003, "schoolCount": 1}, {"name": "North Country Union Junior High School District", "lat": 44.949248, "lon": -72.131382, "proficiency": 0.0031, "schoolCount": 1}, {"name": "Mount Ascutney School District #86", "lat": 43.480583, "lon": -72.394275, "proficiency": 0.0011, "schoolCount": 1}, {"name": "Weathersfield School District", "lat": 43.411345, "lon": -72.409916, "proficiency": 0.0038, "schoolCount": 1}, {"name": "Hartland School District", "lat": 43.538024, "lon": -72.394123, "proficiency": 0.0032, "schoolCount": 1}, {"name": "Saint Johnsbury School District", "lat": 44.416493, "lon": -72.024436, "proficiency": 0.0024, "schoolCount": 1}, {"name": "Champlain Valley Unified Union School District #56", "lat": 44.365672249999996, "lon": -73.16082525, "proficiency": 0.0046, "schoolCount": 4}, {"name": "Twin Valley Unified School District #75", "lat": 42.78797, "lon": -72.840176, "proficiency": 0.0042, "schoolCount": 1}, {"name": "Rutland Town School District", "lat": 43.638551, "lon": -72.96349, "proficiency": 0.0032, "schoolCount": 1}, {"name": "Quarry Valley Unified Union School District #70", "lat": 43.589034, "lon": -73.103572, "proficiency": 0.0016, "schoolCount": 3}, {"name": "Taconic and Green Regional School District #63", "lat": 43.212589666666666, "lon": -72.989191, "proficiency": 0.0033, "schoolCount": 3}, {"name": "Alburgh School District", "lat": 44.979, "lon": -73.298023, "proficiency": 0.0017, "schoolCount": 1}, {"name": "Champlain Islands Unified Union School District #66", "lat": 44.850891, "lon": -73.263501, "proficiency": 0.0, "schoolCount": 1}, {"name": "South Hero School District", "lat": 44.636221, "lon": -73.302114, "proficiency": 0.0075, "schoolCount": 1}, {"name": "Hazen Union High School District #26", "lat": 44.508753, "lon": -72.365156, "proficiency": 0.0007, "schoolCount": 1}, {"name": "Windham Southeast Unified Union School District #96", "lat": 42.835607, "lon": -72.561339, "proficiency": 0.004, "schoolCount": 1}, {"name": "Essex Westford Educational Community Unified Union SD #51", "lat": 44.529653999999994, "lon": -73.05868266666666, "proficiency": 0.0052, "schoolCount": 3}, {"name": "Barre Unified Union School District #97", "lat": 44.176263500000005, "lon": -72.495081, "proficiency": 0.0038, "schoolCount": 2}, {"name": "Georgia School District", "lat": 44.735401, "lon": -73.114517, "proficiency": 0.0045, "schoolCount": 1}, {"name": "Barstow Unified Union School District #49", "lat": 43.701049, "lon": -72.952462, "proficiency": 0.0068, "schoolCount": 1}, {"name": "Otter Valley Unified Union School District #53", "lat": 43.767193, "lon": -73.051539, "proficiency": 0.0002, "schoolCount": 1}, {"name": "Milton School District", "lat": 44.632436, "lon": -73.110081, "proficiency": 0.0029, "schoolCount": 1}, {"name": "Mount Mansfield Unified Union School District #401", "lat": 44.4663785, "lon": -72.969478, "proficiency": 0.0052, "schoolCount": 2}, {"name": "Harwood Unified Union School District #60", "lat": 44.2875855, "lon": -72.76966350000001, "proficiency": 0.0048, "schoolCount": 2}, {"name": "Elmore-Morristown Unified Union School District #90", "lat": 44.562781, "lon": -72.590199, "proficiency": 0.004, "schoolCount": 1}, {"name": "Stowe Town School District", "lat": 44.465295, "lon": -72.726442, "proficiency": 0.0049, "schoolCount": 1}, {"name": "Echo Valley Community Union School District #67", "lat": 44.1491, "lon": -72.4037, "proficiency": 0.0016, "schoolCount": 1}, {"name": "Paine Mountain Union School District #68", "lat": 44.139889, "lon": -72.603602, "proficiency": 0.0022, "schoolCount": 2}, {"name": "Montpelier Roxbury Unified Union School District #71", "lat": 44.262961, "lon": -72.5697, "proficiency": 0.0062, "schoolCount": 1}, {"name": "South Burlington School District", "lat": 44.456733, "lon": -73.177403, "proficiency": 0.0047, "schoolCount": 1}, {"name": "Winooski Incorporated School District", "lat": 44.500708, "lon": -73.180325, "proficiency": 0.0013, "schoolCount": 1}, {"name": "Burlington School District", "lat": 44.4943965, "lon": -73.22865350000001, "proficiency": 0.0039, "schoolCount": 2}, {"name": "Addison Central Unified Union School District #55", "lat": 43.998307, "lon": -73.152574, "proficiency": 0.0036, "schoolCount": 1}, {"name": "Hartford School District", "lat": 43.656386, "lon": -72.320182, "proficiency": 0.0034, "schoolCount": 1}, {"name": "Springfield School District", "lat": 43.304107, "lon": -72.496726, "proficiency": 0.0011, "schoolCount": 1}, {"name": "Colchester School District", "lat": 44.540435, "lon": -73.209485, "proficiency": 0.0056, "schoolCount": 1}, {"name": "Missisquoi Valley School District #89", "lat": 44.927807, "lon": -73.101846, "proficiency": 0.0044, "schoolCount": 1}, {"name": "Mill River Unified Union School District #52", "lat": 43.54703, "lon": -72.971401, "proficiency": 0.0016, "schoolCount": 1}, {"name": "Lamoille North Modified Union School District #058B", "lat": 44.601384, "lon": -72.630704, "proficiency": 0.0011, "schoolCount": 1}, {"name": "Mt. Abraham Unified School District #61", "lat": 44.135449, "lon": -73.093979, "proficiency": 0.0035, "schoolCount": 1}, {"name": "Green Mountain Unified School District #77", "lat": 43.25355, "lon": -72.581533, "proficiency": 0.0034, "schoolCount": 1}, {"name": "Addison Northwest Unified Union School District #54", "lat": 44.170009, "lon": -73.243357, "proficiency": 0.0045, "schoolCount": 1}, {"name": "Slate Valley Unified Union School District #62", "lat": 43.603511, "lon": -73.270145, "proficiency": 0.0008, "schoolCount": 1}, {"name": "Rutland City School District", "lat": 43.612947, "lon": -72.980991, "proficiency": 0.0016, "schoolCount": 1}, {"name": "Mountain Views Unified Union School District #76", "lat": 43.612359, "lon": -72.54571, "proficiency": 0.0061, "schoolCount": 1}, {"name": "Orange Southwest Unified Union School District #59", "lat": 43.930947, "lon": -72.6597, "proficiency": 0.0038, "schoolCount": 1}, {"name": "Washington Central Unified Union School District #92", "lat": 44.244516, "lon": -72.526714, "proficiency": 0.0048, "schoolCount": 1}], "cities": [{"name": "Sheldon", "lat": 44.900623, "lon": -72.969393, "proficiency": 0.0021, "schoolCount": 1}, {"name": "Enosburg Falls", "lat": 44.905214, "lon": -72.803951, "proficiency": 0.0047, "schoolCount": 1}, {"name": "Richford", "lat": 44.994956, "lon": -72.669901, "proficiency": 0.0018, "schoolCount": 1}, {"name": "East Corinth", "lat": 44.079622, "lon": -72.261325, "proficiency": 0.0016, "schoolCount": 1}, {"name": "West Burke", "lat": 44.624605, "lon": -71.959915, "proficiency": 0.0038, "schoolCount": 1}, {"name": "Lyndonville", "lat": 44.5464, "lon": -71.985215, "proficiency": 0.002, "schoolCount": 1}, {"name": "Concord", "lat": 44.4267, "lon": -71.8905, "proficiency": 0.0009, "schoolCount": 1}, {"name": "Danville", "lat": 44.41086, "lon": -72.143871, "proficiency": 0.002, "schoolCount": 1}, {"name": "Barnet", "lat": 44.307382, "lon": -72.080727, "proficiency": 0.0038, "schoolCount": 1}, {"name": "Waterford", "lat": 44.402843, "lon": -71.927776, "proficiency": 0.0031, "schoolCount": 1}, {"name": "Plainfield", "lat": 44.297973, "lon": -72.395034, "proficiency": 0.0023, "schoolCount": 1}, {"name": "Brownington", "lat": 44.819962, "lon": -72.137867, "proficiency": 0.0031, "schoolCount": 1}, {"name": "Glover", "lat": 44.705906, "lon": -72.189648, "proficiency": 0.0075, "schoolCount": 1}, {"name": "Irasburg", "lat": 44.803603, "lon": -72.272929, "proficiency": 0.0, "schoolCount": 1}, {"name": "Orleans", "lat": 44.810071, "lon": -72.197071, "proficiency": 0.0026, "schoolCount": 1}, {"name": "Bethel", "lat": 43.83343, "lon": -72.643707, "proficiency": 0.0033, "schoolCount": 1}, {"name": "Newport Center", "lat": 44.95163, "lon": -72.306445, "proficiency": 0.0, "schoolCount": 1}, {"name": "Island Pond", "lat": 44.821503, "lon": -71.893971, "proficiency": 0.0007, "schoolCount": 1}, {"name": "North Troy", "lat": 44.995788, "lon": -72.405405, "proficiency": 0.0009, "schoolCount": 1}, {"name": "Coventry", "lat": 44.862564, "lon": -72.264947, "proficiency": 0.003, "schoolCount": 1}, {"name": "Derby", "lat": 44.949248, "lon": -72.131382, "proficiency": 0.0031, "schoolCount": 1}, {"name": "Windsor", "lat": 43.480583, "lon": -72.394275, "proficiency": 0.0011, "schoolCount": 1}, {"name": "Ascutney", "lat": 43.411345, "lon": -72.409916, "proficiency": 0.0038, "schoolCount": 1}, {"name": "Hartland", "lat": 43.538024, "lon": -72.394123, "proficiency": 0.0032, "schoolCount": 1}, {"name": "Saint Johnsbury", "lat": 44.416493, "lon": -72.024436, "proficiency": 0.0024, "schoolCount": 1}, {"name": "Shelburne", "lat": 44.380593, "lon": -73.235159, "proficiency": 0.0037, "schoolCount": 1}, {"name": "Charlotte", "lat": 44.315141, "lon": -73.226777, "proficiency": 0.0056, "schoolCount": 1}, {"name": "Hinesburg", "lat": 44.326291, "lon": -73.107773, "proficiency": 0.0044, "schoolCount": 1}, {"name": "Williston", "lat": 44.440664, "lon": -73.073592, "proficiency": 0.0049, "schoolCount": 1}, {"name": "Whitingham", "lat": 42.78797, "lon": -72.840176, "proficiency": 0.0042, "schoolCount": 1}, {"name": "Rutland Town", "lat": 43.638551, "lon": -72.96349, "proficiency": 0.0032, "schoolCount": 1}, {"name": "West Rutland", "lat": 43.595506, "lon": -73.05142, "proficiency": 0.0004, "schoolCount": 1}, {"name": "Poultney", "lat": 43.516567, "lon": -73.229974, "proficiency": 0.0017, "schoolCount": 1}, {"name": "Proctor", "lat": 43.655029, "lon": -73.029322, "proficiency": 0.0028, "schoolCount": 1}, {"name": "Dorset", "lat": 43.221943, "lon": -73.065892, "proficiency": 0.0043, "schoolCount": 1}, {"name": "Londonderry", "lat": 43.23677, "lon": -72.847971, "proficiency": 0.0032, "schoolCount": 1}, {"name": "Manchester Center", "lat": 43.179056, "lon": -73.05371, "proficiency": 0.0023, "schoolCount": 1}, {"name": "Alburgh", "lat": 44.979, "lon": -73.298023, "proficiency": 0.0017, "schoolCount": 1}, {"name": "North Hero", "lat": 44.850891, "lon": -73.263501, "proficiency": 0.0, "schoolCount": 1}, {"name": "South Hero", "lat": 44.636221, "lon": -73.302114, "proficiency": 0.0075, "schoolCount": 1}, {"name": "Hardwick", "lat": 44.508753, "lon": -72.365156, "proficiency": 0.0007, "schoolCount": 1}, {"name": "Brattleboro", "lat": 42.835607, "lon": -72.561339, "proficiency": 0.004, "schoolCount": 1}, {"name": "Westford", "lat": 44.602809, "lon": -73.018852, "proficiency": 0.0046, "schoolCount": 1}, {"name": "Essex Junction", "lat": 44.4930765, "lon": -73.078598, "proficiency": 0.0055, "schoolCount": 2}, {"name": "Barre", "lat": 44.176263500000005, "lon": -72.495081, "proficiency": 0.0038, "schoolCount": 2}, {"name": "Saint Albans", "lat": 44.735401, "lon": -73.114517, "proficiency": 0.0045, "schoolCount": 1}, {"name": "Chittenden", "lat": 43.701049, "lon": -72.952462, "proficiency": 0.0068, "schoolCount": 1}, {"name": "Brandon", "lat": 43.767193, "lon": -73.051539, "proficiency": 0.0002, "schoolCount": 1}, {"name": "Milton", "lat": 44.632436, "lon": -73.110081, "proficiency": 0.0029, "schoolCount": 1}, {"name": "Richmond", "lat": 44.413577, "lon": -72.994475, "proficiency": 0.0059, "schoolCount": 1}, {"name": "Jericho", "lat": 44.51918, "lon": -72.944481, "proficiency": 0.0046, "schoolCount": 1}, {"name": "Waterbury", "lat": 44.321112, "lon": -72.752843, "proficiency": 0.0054, "schoolCount": 1}, {"name": "Moretown", "lat": 44.254059, "lon": -72.786484, "proficiency": 0.0041, "schoolCount": 1}, {"name": "Morrisville", "lat": 44.562781, "lon": -72.590199, "proficiency": 0.004, "schoolCount": 1}, {"name": "Stowe", "lat": 44.465295, "lon": -72.726442, "proficiency": 0.0049, "schoolCount": 1}, {"name": "East Barre", "lat": 44.1491, "lon": -72.4037, "proficiency": 0.0016, "schoolCount": 1}, {"name": "Northfield", "lat": 44.153538, "lon": -72.660477, "proficiency": 0.0023, "schoolCount": 1}, {"name": "Williamstown", "lat": 44.12624, "lon": -72.546727, "proficiency": 0.0021, "schoolCount": 1}, {"name": "Montpelier", "lat": 44.2537385, "lon": -72.54820699999999, "proficiency": 0.0055, "schoolCount": 2}, {"name": "South Burlington", "lat": 44.456733, "lon": -73.177403, "proficiency": 0.0047, "schoolCount": 1}, {"name": "Winooski", "lat": 44.500708, "lon": -73.180325, "proficiency": 0.0013, "schoolCount": 1}, {"name": "Burlington", "lat": 44.4943965, "lon": -73.22865350000001, "proficiency": 0.0039, "schoolCount": 2}, {"name": "Middlebury", "lat": 43.998307, "lon": -73.152574, "proficiency": 0.0036, "schoolCount": 1}, {"name": "White River Junction", "lat": 43.656386, "lon": -72.320182, "proficiency": 0.0034, "schoolCount": 1}, {"name": "Springfield", "lat": 43.304107, "lon": -72.496726, "proficiency": 0.0011, "schoolCount": 1}, {"name": "Colchester", "lat": 44.540435, "lon": -73.209485, "proficiency": 0.0056, "schoolCount": 1}, {"name": "Swanton", "lat": 44.927807, "lon": -73.101846, "proficiency": 0.0044, "schoolCount": 1}, {"name": "North Clarendon", "lat": 43.54703, "lon": -72.971401, "proficiency": 0.0016, "schoolCount": 1}, {"name": "Hyde Park", "lat": 44.601384, "lon": -72.630704, "proficiency": 0.0011, "schoolCount": 1}, {"name": "Bristol", "lat": 44.135449, "lon": -73.093979, "proficiency": 0.0035, "schoolCount": 1}, {"name": "Chester", "lat": 43.25355, "lon": -72.581533, "proficiency": 0.0034, "schoolCount": 1}, {"name": "Vergennes", "lat": 44.170009, "lon": -73.243357, "proficiency": 0.0045, "schoolCount": 1}, {"name": "Fair Haven", "lat": 43.603511, "lon": -73.270145, "proficiency": 0.0008, "schoolCount": 1}, {"name": "Rutland", "lat": 43.612947, "lon": -72.980991, "proficiency": 0.0016, "schoolCount": 1}, {"name": "Woodstock", "lat": 43.612359, "lon": -72.54571, "proficiency": 0.0061, "schoolCount": 1}, {"name": "Randolph", "lat": 43.930947, "lon": -72.6597, "proficiency": 0.0038, "schoolCount": 1}]}