{"state": "WA", "stateName": "Washington", "year": 2024, "naep": {"text": "7 out of 10", "numerator": 7, "denominator": 10}, "schools": [{"name": "Miller Junior High", "lat": 46.9636, "lon": -123.7922, "proficiency": 0.189, "district": "Aberdeen School District", "city": "Aberdeen", "ncessch": "530003000009"}, {"name": "Adna Middle/High School", "lat": 46.6303, "lon": -123.0568, "proficiency": 0.154, "district": "Adna School District", "city": "Adna", "ncessch": "530006000013"}, {"name": "Almira Elementary School", "lat": 47.7073, "lon": -118.9412, "proficiency": 0.522, "district": "Almira School District", "city": "ALMIRA", "ncessch": "530009000179"}, {"name": "Anacortes Middle School", "lat": 48.5036, "lon": -122.6182, "proficiency": 0.602, "district": "Anacortes School District", "city": "Anacortes", "ncessch": "530015000015"}, {"name": "Haller Middle School", "lat": 48.1916, "lon": -122.121, "proficiency": 0.242, "district": "Arlington School District", "city": "Arlington", "ncessch": "530024003008"}, {"name": "Post Middle School", "lat": 48.1965, "lon": -122.1114, "proficiency": 0.284, "district": "Arlington School District", "city": "Arlington", "ncessch": "530024000024"}, {"name": "Stillaguamish Valley Learning Center", "lat": 48.19432, "lon": -122.114263, "proficiency": 0.172, "district": "Arlington School District", "city": "Arlington", "ncessch": "530024002589"}, {"name": "Asotin Jr Sr High", "lat": 46.3402, "lon": -117.0518, "proficiency": 0.364, "district": "Asotin-Anatone School District", "city": "ASOTIN", "ncessch": "530028000028"}, {"name": "Cascade Middle School", "lat": 48.51215, "lon": -122.224211, "proficiency": 0.295, "district": "Sedro-Woolley School District", "city": "Sedro-Woolley", "ncessch": "530774001273"}, {"name": "Mt Baker Middle School", "lat": 47.2746, "lon": -122.2202, "proficiency": 0.25, "district": "Auburn School District", "city": "AUBURN", "ncessch": "530030001443"}, {"name": "Olympic Middle School", "lat": 47.229, "lon": -123.1166, "proficiency": 0.141, "district": "Shelton School District", "city": "Shelton", "ncessch": "530790002990"}, {"name": "Rainier Middle School", "lat": 46.8863, "lon": -122.6885, "proficiency": 0.364, "district": "Rainier School District", "city": "Rainier", "ncessch": "530711001057"}, {"name": "Odyssey Multiage Program", "lat": 47.6364, "lon": -122.522, "proficiency": 0.542, "district": "Bainbridge Island School District", "city": "Bainbridge Island", "ncessch": "530033002523"}, {"name": "Woodward Middle School", "lat": 47.6452, "lon": -122.5292, "proficiency": 0.703, "district": "Bainbridge Island School District", "city": "Bainbridge Island", "ncessch": "530033002452"}, {"name": "Amboy Middle School", "lat": 45.9133, "lon": -122.443, "proficiency": 0.296, "district": "Battle Ground School District", "city": "Battle Ground", "ncessch": "530038000048"}, {"name": "Battle Ground Virtual Academy", "lat": 45.767063, "lon": -122.544664, "proficiency": 0.308, "district": "Battle Ground School District", "city": "Battle Ground", "ncessch": "530038003918"}, {"name": "CAM Academy", "lat": 45.79096, "lon": -122.545821, "proficiency": 0.696, "district": "Battle Ground School District", "city": "BATTLE GROUND", "ncessch": "530038002782"}, {"name": "Chief Umtuch Middle", "lat": 45.787309, "lon": -122.546095, "proficiency": 0.397, "district": "Battle Ground School District", "city": "Battle Ground", "ncessch": "530038003262"}, {"name": "Daybreak Middle", "lat": 45.79404, "lon": -122.560011, "proficiency": 0.333, "district": "Battle Ground School District", "city": "Battle Ground", "ncessch": "530038003176"}, {"name": "Homelink River", "lat": 45.767063, "lon": -122.544664, "proficiency": 0.323, "district": "Battle Ground School District", "city": "Battle Ground", "ncessch": "530038002857"}, {"name": "Laurin Middle School", "lat": 45.7212, "lon": -122.5718, "proficiency": 0.245, "district": "Battle Ground School District", "city": "Battle Ground", "ncessch": "530038000052"}, {"name": "Pleasant Valley Middle", "lat": 45.7269, "lon": -122.6217, "proficiency": 0.394, "district": "Battle Ground School District", "city": "Battle Ground", "ncessch": "530038000054"}, {"name": "Tukes Valley Middle School", "lat": 45.77304, "lon": -122.497679, "proficiency": 0.516, "district": "Battle Ground School District", "city": "Battle Ground", "ncessch": "530038003214"}, {"name": "Bellevue Big Picture School", "lat": 47.5921, "lon": -122.1418, "proficiency": 0.548, "district": "Bellevue School District", "city": "Bellevue", "ncessch": "530039003354"}, {"name": "Bellevue Digital Discovery", "lat": 47.610654, "lon": -122.179547, "proficiency": 0.167, "district": "Bellevue School District", "city": "Bellevue", "ncessch": "530039003883"}, {"name": "Chinook Middle School", "lat": 47.0532, "lon": -122.8269, "proficiency": 0.257, "district": "North Thurston Public Schools", "city": "Lacey", "ncessch": "530585000862"}, {"name": "Highland Middle School", "lat": 47.750791, "lon": -117.46185, "proficiency": 0.514, "district": "Mead School District", "city": "Spokane", "ncessch": "530492003767"}, {"name": "International School", "lat": 47.6041, "lon": -122.1703, "proficiency": 0.817, "district": "Bellevue School District", "city": "Bellevue", "ncessch": "530039003149"}, {"name": "Odle Middle School", "lat": 47.614756, "lon": -122.149267, "proficiency": 0.69, "district": "Bellevue School District", "city": "Bellevue", "ncessch": "530039000079"}, {"name": "Tillicum Middle School", "lat": 47.598939, "lon": -122.12534, "proficiency": 0.599, "district": "Bellevue School District", "city": "Bellevue", "ncessch": "530039000093"}, {"name": "Tyee Middle School", "lat": 47.5739, "lon": -122.1586, "proficiency": 0.805, "district": "Bellevue School District", "city": "Bellevue", "ncessch": "530039000094"}, {"name": "Fairhaven Middle School", "lat": 48.7146, "lon": -122.5033, "proficiency": 0.531, "district": "Bellingham School District", "city": "Bellingham", "ncessch": "530042000104"}, {"name": "Kulshan Middle School", "lat": 48.7454, "lon": -122.4326, "proficiency": 0.542, "district": "Bellingham School District", "city": "Bellingham", "ncessch": "530042001739"}, {"name": "Shuksan Middle School", "lat": 48.778443, "lon": -122.501976, "proficiency": 0.281, "district": "Bellingham School District", "city": "Bellingham", "ncessch": "530042000114"}, {"name": "Whatcom Middle School", "lat": 48.759, "lon": -122.4803, "proficiency": 0.404, "district": "Bellingham School District", "city": "Bellingham", "ncessch": "530042000117"}, {"name": "Bethel Middle School", "lat": 47.0582, "lon": -122.3786, "proficiency": 0.249, "district": "Bethel School District", "city": "Spanaway", "ncessch": "530048000120"}, {"name": "Bethel Virtual Academy", "lat": 47.069286, "lon": -122.329564, "proficiency": 0.076, "district": "Bethel School District", "city": "SPANAWAY", "ncessch": "530048003762"}, {"name": "Cedarcrest Middle School", "lat": 47.0841, "lon": -122.4143, "proficiency": 0.185, "district": "Bethel School District", "city": "Spanaway", "ncessch": "530048001819"}, {"name": "Cougar Mountain Middle School", "lat": 47.532171, "lon": -122.064325, "proficiency": 0.636, "district": "Issaquah School District", "city": "Issaquah", "ncessch": "530375003795"}, {"name": "Elk Plain School of Choice", "lat": 47.056502, "lon": -122.399113, "proficiency": 0.465, "district": "Bethel School District", "city": "Spanaway", "ncessch": "530048000123"}, {"name": "Frontier Middle School", "lat": 47.127, "lon": -119.2834, "proficiency": 0.205, "district": "Moses Lake School District", "city": "MOSES LAKE", "ncessch": "530522002625"}, {"name": "Liberty Middle School", "lat": 45.589338, "lon": -122.459775, "proficiency": 0.531, "district": "Camas School District", "city": "Camas", "ncessch": "530081003066"}, {"name": "Spanaway Middle School", "lat": 47.115516, "lon": -122.427985, "proficiency": 0.295, "district": "Bethel School District", "city": "Tacoma", "ncessch": "530048000128"}, {"name": "Blaine Middle School", "lat": 48.9927, "lon": -122.7383, "proficiency": 0.39, "district": "Blaine School District", "city": "BLAINE", "ncessch": "530057000131"}, {"name": "Mountain View Middle School", "lat": 47.58178, "lon": -122.61204, "proficiency": 0.169, "district": "Bremerton School District", "city": "Bremerton", "ncessch": "530066001144"}, {"name": "Brewster Middle School", "lat": 48.093992, "lon": -119.785739, "proficiency": 0.298, "district": "Brewster School District", "city": "BREWSTER", "ncessch": "530069002284"}, {"name": "Bridgeport Middle School", "lat": 48.0075, "lon": -119.6752, "proficiency": 0.098, "district": "Bridgeport School District", "city": "Bridgeport", "ncessch": "530072001271"}, {"name": "Allen Elementary", "lat": 48.5093, "lon": -122.3741, "proficiency": 0.389, "district": "Burlington-Edison School District", "city": "BOW", "ncessch": "530078000154"}, {"name": "Bay View Elementary", "lat": 48.487943, "lon": -122.417395, "proficiency": 0.109, "district": "Burlington-Edison School District", "city": "BURLINGTON", "ncessch": "530078000689"}, {"name": "Edison Elementary", "lat": 48.5614, "lon": -122.4382, "proficiency": 0.35, "district": "Burlington-Edison School District", "city": "EDISON", "ncessch": "530078000156"}, {"name": "Lucille Umbarger Elementary", "lat": 48.4692, "lon": -122.3175, "proficiency": 0.137, "district": "Burlington-Edison School District", "city": "BURLINGTON", "ncessch": "530078000157"}, {"name": "CASHMERE MIDDLE SCHOOL", "lat": 47.515707, "lon": -120.477123, "proficiency": 0.523, "district": "CASHMERE SCHOOL DISTRICT", "city": "Cashmere", "ncessch": "530096000169"}, {"name": "Camas Connect Academy", "lat": 45.595602, "lon": -122.401987, "proficiency": 0.333, "district": "Camas School District", "city": "Camas", "ncessch": "530081003823"}, {"name": "Odyssey Middle School", "lat": 45.593277, "lon": -122.460783, "proficiency": 0.67, "district": "Camas School District", "city": "Camas", "ncessch": "530081003652"}, {"name": "Skyridge Middle School", "lat": 45.615655, "lon": -122.448344, "proficiency": 0.656, "district": "Camas School District", "city": "Camas", "ncessch": "530081002512"}, {"name": "Carbonado Historical School 19", "lat": 47.081347, "lon": -122.054216, "proficiency": 0.667, "district": "Carbonado School District", "city": "Carbonado", "ncessch": "530087000166"}, {"name": "Icicle River Middle School", "lat": 47.602, "lon": -120.6561, "proficiency": 0.451, "district": "Cascade School District", "city": "Leavenworth", "ncessch": "530095000553"}, {"name": "Castle Rock Middle School", "lat": 46.2717, "lon": -122.9078, "proficiency": 0.056, "district": "Castle Rock School District", "city": "CASTLE ROCK", "ncessch": "530099000173"}, {"name": "Catalyst Public Schools", "lat": 47.572299, "lon": -122.612001, "proficiency": 0.546, "district": "Catalyst Public Schools", "city": "Bremerton", "ncessch": "530034703723"}, {"name": "Central Kitsap Middle School", "lat": 47.653864, "lon": -122.700125, "proficiency": 0.307, "district": "Central Kitsap School District", "city": "SILVERDALE", "ncessch": "530108000178"}, {"name": "Fairview Middle School", "lat": 47.6369, "lon": -122.6515, "proficiency": 0.242, "district": "Central Kitsap School District", "city": "BREMERTON", "ncessch": "530108000183"}, {"name": "Klahowya Secondary", "lat": 47.6287, "lon": -122.7542, "proficiency": 0.318, "district": "Central Kitsap School District", "city": "SILVERDALE", "ncessch": "530108002524"}, {"name": "Ridgetop Middle School", "lat": 47.6584, "lon": -122.6683, "proficiency": 0.335, "district": "Central Kitsap School District", "city": "SILVERDALE", "ncessch": "530108002056"}, {"name": "Bowdish Middle School", "lat": 47.6374, "lon": -117.2519, "proficiency": 0.208, "district": "Central Valley School District", "city": "Spokane Valley", "ncessch": "530111000189"}, {"name": "Central Valley Virtual Learning", "lat": 47.670651, "lon": -117.153183, "proficiency": 0.292, "district": "Central Valley School District", "city": "Spokane Valley", "ncessch": "530111003788"}, {"name": "Evergreen Middle School", "lat": 47.643029, "lon": -117.212879, "proficiency": 0.477, "district": "Central Valley School District", "city": "Spokane Valley", "ncessch": "530111000193"}, {"name": "Greenacres Middle School", "lat": 47.6584, "lon": -117.17, "proficiency": 0.442, "district": "Central Valley School District", "city": "Spokane Valley", "ncessch": "530111000195"}, {"name": "Horizon Middle School", "lat": 47.6214, "lon": -117.2375, "proficiency": 0.441, "district": "Central Valley School District", "city": "Spokane Valley", "ncessch": "530111001826"}, {"name": "North Pines Middle School", "lat": 47.663568, "lon": -117.24474, "proficiency": 0.204, "district": "Central Valley School District", "city": "Spokane Valley", "ncessch": "530111000198"}, {"name": "Selkirk Middle School", "lat": 47.67053, "lon": -117.132695, "proficiency": 0.46, "district": "Central Valley School District", "city": "Liberty Lake", "ncessch": "530111003706"}, {"name": "Spokane Valley Learning Academy", "lat": 47.670651, "lon": -117.153183, "proficiency": 0.273, "district": "Central Valley School District", "city": "Spokane Valley", "ncessch": "530111003137"}, {"name": "Summit School", "lat": 47.66529, "lon": -117.224941, "proficiency": 0.2, "district": "Central Valley School District", "city": "Spokane Valley", "ncessch": "530111000188"}, {"name": "Centralia Middle School", "lat": 46.7264, "lon": -122.9826, "proficiency": 0.166, "district": "Centralia School District", "city": "Centralia", "ncessch": "530114000205"}, {"name": "Chehalis Middle School", "lat": 46.642865, "lon": -122.941675, "proficiency": 0.289, "district": "Chehalis School District", "city": "Chehalis", "ncessch": "530117002252"}, {"name": "Cheney Middle School", "lat": 47.506631, "lon": -117.579545, "proficiency": 0.244, "district": "Cheney School District", "city": "CHENEY", "ncessch": "530123000224"}, {"name": "Westwood Middle School", "lat": 47.597143, "lon": -117.487468, "proficiency": 0.33, "district": "Cheney School District", "city": "Spokane", "ncessch": "530123003428"}, {"name": "Jenkins Junior/Senior High", "lat": 48.2801, "lon": -117.708, "proficiency": 0.089, "district": "Chewelah School District", "city": "Chewelah", "ncessch": "530126000230"}, {"name": "Quartzite Learning", "lat": 48.281369, "lon": -117.716749, "proficiency": 0.177, "district": "Chewelah School District", "city": "Chewelah", "ncessch": "530126002687"}, {"name": "Chimacum Junior/Senior High School", "lat": 48.012077, "lon": -122.778031, "proficiency": 0.231, "district": "Chimacum School District", "city": "Chimacum", "ncessch": "530129000233"}, {"name": "Lincoln Middle School", "lat": 46.392, "lon": -117.0801, "proficiency": 0.312, "district": "Clarkston School District", "city": "Clarkston", "ncessch": "530132000237"}, {"name": "Walter Strom Middle School", "lat": 47.204357, "lon": -120.973876, "proficiency": 0.374, "district": "Cle Elum-Roslyn School District", "city": "Cle Elum", "ncessch": "530135000242"}, {"name": "General William H. Harrison Preparatory School", "lat": 47.174892, "lon": -122.505932, "proficiency": 0.273, "district": "Clover Park School District", "city": "Lakewood", "ncessch": "530141003000"}, {"name": "Hudtloff Middle School", "lat": 47.183995, "lon": -122.540112, "proficiency": 0.076, "district": "Clover Park School District", "city": "Lakewood", "ncessch": "530141000257"}, {"name": "Lochburn Middle School", "lat": 47.178796, "lon": -122.511794, "proficiency": 0.019, "district": "Clover Park School District", "city": "Lakewood", "ncessch": "530141000263"}, {"name": "Thomas Middle School", "lat": 47.153779, "lon": -122.565676, "proficiency": 0.217, "district": "Clover Park School District", "city": "Lakewood", "ncessch": "530141000272"}, {"name": "Colfax High School", "lat": 46.8923, "lon": -117.3607, "proficiency": 0.643, "district": "Colfax School District", "city": "Colfax", "ncessch": "530144000273"}, {"name": "John Sager Middle School", "lat": 46.030326, "lon": -118.386084, "proficiency": 0.293, "district": "College Place School District", "city": "COLLEGE PLACE", "ncessch": "530147000276"}, {"name": "Columbia Middle School", "lat": 46.200376, "lon": -119.00988, "proficiency": 0.138, "district": "Columbia (Walla Walla) School District", "city": "BURBANK", "ncessch": "530159000280"}, {"name": "Colville Junior High School", "lat": 48.5346, "lon": -117.8991, "proficiency": 0.55, "district": "Colville School District", "city": "Colville", "ncessch": "530163000283"}, {"name": "Conway School District 317", "lat": 48.340472, "lon": -122.318834, "proficiency": 0.442, "district": "Conway School District", "city": "Mount Vernon", "ncessch": "530168000287"}, {"name": "Coupeville Middle School", "lat": 48.206754, "lon": -122.684785, "proficiency": 0.375, "district": "Coupeville School District", "city": "Coupeville", "ncessch": "530180002049"}, {"name": "Curlew Elem & High School", "lat": 48.87442, "lon": -118.604473, "proficiency": 0.158, "district": "Curlew School District", "city": "Curlew", "ncessch": "530189000295"}, {"name": "Darrington Elementary School", "lat": 48.246694, "lon": -121.602646, "proficiency": 0.5, "district": "Darrington School District", "city": "DARRINGTON", "ncessch": "530198000300"}, {"name": "Davenport Senior High School", "lat": 47.651475, "lon": -118.150178, "proficiency": 0.551, "district": "Davenport School District", "city": "DAVENPORT", "ncessch": "530201000303"}, {"name": "Dayton Middle School", "lat": 46.316329, "lon": -117.974256, "proficiency": 0.267, "district": "Dayton School District", "city": "Dayton", "ncessch": "530204002513"}, {"name": "Deer Park Home Link Program", "lat": 47.958689, "lon": -117.476102, "proficiency": 0.196, "district": "Deer Park School District", "city": "Deer Park", "ncessch": "530207002827"}, {"name": "Deer Park Middle School", "lat": 47.9503, "lon": -117.4681, "proficiency": 0.376, "district": "Deer Park School District", "city": "Deer Park", "ncessch": "530207000308"}, {"name": "North Tapps Middle School", "lat": 47.2487, "lon": -122.161, "proficiency": 0.619, "district": "Dieringer School District", "city": "Lake Tapps", "ncessch": "530213000694"}, {"name": "Continuous Curriculum School", "lat": 47.6998, "lon": -117.1771, "proficiency": 0.444, "district": "East Valley School District (Spokane)", "city": "Spokane", "ncessch": "530228002600"}, {"name": "EV Parent Partnership", "lat": 47.692176, "lon": -117.195469, "proficiency": 0.222, "district": "East Valley School District (Spokane)", "city": "Spokane Valley", "ncessch": "530228003582"}, {"name": "East Valley Middle School", "lat": 47.702254, "lon": -117.201536, "proficiency": 0.212, "district": "East Valley School District (Spokane)", "city": "Spokane Valley", "ncessch": "530228003494"}, {"name": "East Valley Central Middle School", "lat": 46.57258, "lon": -120.405005, "proficiency": 0.342, "district": "East Valley School District (Yakima)", "city": "YAKIMA", "ncessch": "530537000806"}, {"name": "Eastmont Junior High", "lat": 47.4179, "lon": -120.2734, "proficiency": 0.077, "district": "Eastmont School District", "city": "East Wenatchee", "ncessch": "530231000323"}, {"name": "Sterling Junior High School", "lat": 47.414472, "lon": -120.27049, "proficiency": 0.274, "district": "Eastmont School District", "city": "East Wenatchee", "ncessch": "530231003822"}, {"name": "Columbia Crest A-STEM Academy", "lat": 46.7542, "lon": -122.1097, "proficiency": 0.333, "district": "Eatonville School District", "city": "Ashford", "ncessch": "530237000325"}, {"name": "Eatonville Middle School", "lat": 46.8685, "lon": -122.263, "proficiency": 0.162, "district": "Eatonville School District", "city": "Eatonville", "ncessch": "530237001899"}, {"name": "Alderwood Middle School", "lat": 47.840684, "lon": -122.249288, "proficiency": 0.309, "district": "Edmonds School District", "city": "LYNNWOOD", "ncessch": "530240000329"}, {"name": "Brier Terrace Middle School", "lat": 47.7982, "lon": -122.277, "proficiency": 0.489, "district": "Edmonds School District", "city": "BRIER", "ncessch": "530240000332"}, {"name": "College Place Middle School", "lat": 47.8115, "lon": -122.3347, "proficiency": 0.232, "district": "Edmonds School District", "city": "LYNNWOOD", "ncessch": "530240000337"}, {"name": "Edmonds Heights K-12", "lat": 47.7865, "lon": -122.3687, "proficiency": 0.203, "district": "Edmonds School District", "city": "Edmonds", "ncessch": "530240003139"}, {"name": "Madrona K-8 School", "lat": 47.783141, "lon": -122.357244, "proficiency": 0.353, "district": "Edmonds School District", "city": "Edmonds", "ncessch": "530240000348"}, {"name": "Maplewood Parent Coop", "lat": 47.8171, "lon": -122.3488, "proficiency": 0.293, "district": "Edmonds School District", "city": "EDMONDS", "ncessch": "530240002474"}, {"name": "Meadowdale Middle School", "lat": 47.845958, "lon": -122.321818, "proficiency": 0.421, "district": "Edmonds School District", "city": "LYNNWOOD", "ncessch": "530240000351"}, {"name": "Morgan Middle School", "lat": 46.992043, "lon": -120.542798, "proficiency": 0.251, "district": "Ellensburg School District", "city": "Ellensburg", "ncessch": "530246000367"}, {"name": "Elma Middle School", "lat": 47.003349, "lon": -123.409739, "proficiency": 0.193, "district": "Elma School District", "city": "Elma", "ncessch": "530249002060"}, {"name": "Endicott/St John Elem and Middle", "lat": 46.933, "lon": -117.6904, "proficiency": 0.647, "district": "Endicott School District", "city": "Endicott", "ncessch": "530252000373"}, {"name": "Entiat Middle and High School", "lat": 47.664444, "lon": -120.225939, "proficiency": 0.48, "district": "Entiat School District", "city": "ENTIAT", "ncessch": "530255000374"}, {"name": "Enumclaw Middle School", "lat": 47.187, "lon": -122.0081, "proficiency": 0.436, "district": "Enumclaw School District", "city": "Enumclaw", "ncessch": "530000102054"}, {"name": "Thunder Mountain Middle School", "lat": 47.2231, "lon": -121.9876, "proficiency": 0.24, "district": "Enumclaw School District", "city": "Enumclaw", "ncessch": "530000102795"}, {"name": "Ephrata Middle School", "lat": 47.3142, "lon": -119.5499, "proficiency": 0.346, "district": "Ephrata School District", "city": "EPHRATA", "ncessch": "530261000387"}, {"name": "Eisenhower Middle School", "lat": 47.9046, "lon": -122.1999, "proficiency": 0.47, "district": "Everett School District", "city": "Everett", "ncessch": "530267000393"}, {"name": "Evergreen Middle School", "lat": 47.9268, "lon": -122.2266, "proficiency": 0.323, "district": "Everett School District", "city": "Everett", "ncessch": "530267000397"}, {"name": "Gateway Middle School", "lat": 47.8539, "lon": -122.1555, "proficiency": 0.669, "district": "Everett School District", "city": "Everett", "ncessch": "530267001725"}, {"name": "Heatherwood Middle School", "lat": 47.8721, "lon": -122.2093, "proficiency": 0.556, "district": "Everett School District", "city": "Mill Creek", "ncessch": "530267002253"}, {"name": "North Middle School", "lat": 47.9839, "lon": -122.1993, "proficiency": 0.227, "district": "Everett School District", "city": "Everett", "ncessch": "530267000399"}, {"name": "Cascade Middle School", "lat": 45.637472, "lon": -122.528715, "proficiency": 0.101, "district": "Evergreen School District (Clark)", "city": "Vancouver", "ncessch": "530270000414"}, {"name": "Covington Middle School", "lat": 45.6688, "lon": -122.56, "proficiency": 0.148, "district": "Evergreen School District (Clark)", "city": "Vancouver", "ncessch": "530270000415"}, {"name": "Frontier Middle School", "lat": 45.6779, "lon": -122.5005, "proficiency": 0.363, "district": "Evergreen School District (Clark)", "city": "Vancouver", "ncessch": "530270002510"}, {"name": "Home Choice Academy", "lat": 45.642065, "lon": -122.534261, "proficiency": 0.173, "district": "Evergreen School District (Clark)", "city": "Vancouver", "ncessch": "530270003101"}, {"name": "Pacific Middle School", "lat": 45.638213, "lon": -122.49405, "proficiency": 0.285, "district": "Evergreen School District (Clark)", "city": "Vancouver", "ncessch": "530270001901"}, {"name": "Shahala Middle School", "lat": 45.6177, "lon": -122.4733, "proficiency": 0.413, "district": "Evergreen School District (Clark)", "city": "Vancouver", "ncessch": "530270002878"}, {"name": "Wyeast Middle School", "lat": 45.6128, "lon": -122.5343, "proficiency": 0.173, "district": "Evergreen School District (Clark)", "city": "Vancouver", "ncessch": "530270000428"}, {"name": "Evergreen Middle School", "lat": 47.361341, "lon": -122.282954, "proficiency": 0.102, "district": "Federal Way School District", "city": "KENT", "ncessch": "530282000452"}, {"name": "Federal Way Public Academy", "lat": 47.291261, "lon": -122.322111, "proficiency": 0.656, "district": "Federal Way School District", "city": "FEDERAL WAY", "ncessch": "530282002719"}, {"name": "Illahee Middle School", "lat": 47.2774, "lon": -122.3358, "proficiency": 0.182, "district": "Federal Way School District", "city": "FEDERAL WAY", "ncessch": "530282000437"}, {"name": "Internet Academy", "lat": 47.319365, "lon": -122.298743, "proficiency": 0.109, "district": "Federal Way School District", "city": "Federal Way", "ncessch": "530282002638"}, {"name": "Kilo Middle School", "lat": 47.3268, "lon": -122.2782, "proficiency": 0.168, "district": "Federal Way School District", "city": "AUBURN", "ncessch": "530282000438"}, {"name": "Lakota Middle School", "lat": 47.31961, "lon": -122.354424, "proficiency": 0.211, "district": "Federal Way School District", "city": "FEDERAL WAY", "ncessch": "530282000442"}, {"name": "Sacajawea Middle School", "lat": 47.3343, "lon": -122.3179, "proficiency": 0.215, "district": "Federal Way School District", "city": "FEDERAL WAY", "ncessch": "530282000448"}, {"name": "Sequoyah Middle School", "lat": 47.2778, "lon": -122.2881, "proficiency": 0.166, "district": "Federal Way School District", "city": "Auburn", "ncessch": "530282002964"}, {"name": "Technology Access Foundation Academy at Saghalie", "lat": 47.29758, "lon": -122.354991, "proficiency": 0.141, "district": "Federal Way School District", "city": "Federal Way", "ncessch": "530282003610"}, {"name": "Woodmont K-8 School", "lat": 47.3633, "lon": -122.3123, "proficiency": 0.16, "district": "Federal Way School District", "city": "DES MOINES", "ncessch": "530282000456"}, {"name": "Horizon Middle School", "lat": 48.8619, "lon": -122.6267, "proficiency": 0.27, "district": "Ferndale School District", "city": "Ferndale", "ncessch": "530285002832"}, {"name": "Vista Middle School", "lat": 48.86, "lon": -122.602, "proficiency": 0.407, "district": "Ferndale School District", "city": "Ferndale", "ncessch": "530285000463"}, {"name": "Columbia Junior High School", "lat": 47.231, "lon": -122.3553, "proficiency": 0.21, "district": "Fife School District", "city": "Tacoma", "ncessch": "530288003161"}, {"name": "Finley Middle School", "lat": 46.1549, "lon": -119.0346, "proficiency": 0.09, "district": "Finley School District", "city": "KENNEWICK", "ncessch": "530291002100"}, {"name": "Morris Ford Middle School", "lat": 47.1615, "lon": -122.4086, "proficiency": 0.286, "district": "Franklin Pierce School District", "city": "Tacoma", "ncessch": "530294000479"}, {"name": "Perry G Keithley Middle School", "lat": 47.1448, "lon": -122.4521, "proficiency": 0.08, "district": "Franklin Pierce School District", "city": "TACOMA", "ncessch": "530294000481"}, {"name": "Freeman Middle School", "lat": 47.5177, "lon": -117.1944, "proficiency": 0.429, "district": "Freeman School District", "city": "Rockford", "ncessch": "530297003013"}, {"name": "Garfield Middle School", "lat": 47.013565, "lon": -117.140136, "proficiency": 0.417, "district": "Garfield School District", "city": "Garfield", "ncessch": "530300000487"}, {"name": "Goldendale Middle School", "lat": 45.8187, "lon": -120.8147, "proficiency": 0.108, "district": "Goldendale School District", "city": "GOLDENDALE", "ncessch": "530309000491"}, {"name": "Washington Connections Academy Goldendale", "lat": 45.817534, "lon": -120.813652, "proficiency": 0.181, "district": "Goldendale School District", "city": "Goldendale", "ncessch": "530309003751"}, {"name": "Grandview Middle School", "lat": 46.255454, "lon": -119.921225, "proficiency": 0.258, "district": "Grandview School District", "city": "Grandview", "ncessch": "530315000498"}, {"name": "Granger Middle School", "lat": 46.3466, "lon": -120.1898, "proficiency": 0.078, "district": "Granger School District", "city": "Granger", "ncessch": "530318000504"}, {"name": "Granite Falls Middle School", "lat": 48.087278, "lon": -121.962664, "proficiency": 0.188, "district": "Granite Falls School District", "city": "Granite Falls", "ncessch": "530321001770"}, {"name": "Grapeview Elementary & Middle School", "lat": 47.32, "lon": -122.9167, "proficiency": 0.394, "district": "Grapeview School District", "city": "Grapeview", "ncessch": "530324000507"}, {"name": "Green Mountain School", "lat": 45.948256, "lon": -122.538843, "proficiency": 0.533, "district": "Green Mountain School District", "city": "WOODLAND", "ncessch": "530330000509"}, {"name": "Griffin School", "lat": 47.080628, "lon": -123.018855, "proficiency": 0.513, "district": "Griffin School District", "city": "Olympia", "ncessch": "530333000510"}, {"name": "Highland Middle School", "lat": 46.674805, "lon": -120.712021, "proficiency": 0.079, "district": "Highland School District", "city": "Cowiche", "ncessch": "530351003148"}, {"name": "Big Picture School", "lat": 47.437, "lon": -122.328101, "proficiency": 0.278, "district": "Highline School District", "city": "Burien", "ncessch": "530354002976"}, {"name": "CHOICE Academy", "lat": 47.43763, "lon": -122.325081, "proficiency": 0.567, "district": "Highline School District", "city": "Seattle", "ncessch": "530354002640"}, {"name": "Cascade Middle School", "lat": 47.5022, "lon": -122.3464, "proficiency": 0.115, "district": "Highline School District", "city": "Seattle", "ncessch": "530354000522"}, {"name": "Chinook Middle School", "lat": 47.4352, "lon": -122.2805, "proficiency": 0.15, "district": "Highline School District", "city": "SeaTac", "ncessch": "530354000524"}, {"name": "Glacier Middle School", "lat": 47.477672, "lon": -122.299904, "proficiency": 0.128, "district": "Highline School District", "city": "SeaTac", "ncessch": "530354003674"}, {"name": "Highline Public Schools Virtual Academy", "lat": 47.46228, "lon": -122.337961, "proficiency": 0.111, "district": "Highline School District", "city": "BURIEN", "ncessch": "530354003742"}, {"name": "Pacific Middle School", "lat": 47.3984, "lon": -122.3034, "proficiency": 0.151, "district": "Highline School District", "city": "Des Moines", "ncessch": "530354000543"}, {"name": "Sylvester Middle School", "lat": 47.457581, "lon": -122.340219, "proficiency": 0.265, "district": "Highline School District", "city": "Burien", "ncessch": "530354000554"}, {"name": "Hockinson Middle School", "lat": 45.740464, "lon": -122.487368, "proficiency": 0.526, "district": "Hockinson School District", "city": "BRUSH PRAIRIE", "ncessch": "530357000559"}, {"name": "Hood Canal Elementary School", "lat": 47.333201, "lon": -123.15869, "proficiency": 0.207, "district": "Hood Canal School District", "city": "Shelton", "ncessch": "530360000561"}, {"name": "Hoquiam Middle School", "lat": 46.9831, "lon": -123.9052, "proficiency": 0.118, "district": "Hoquiam School District", "city": "Hoquiam", "ncessch": "530366000565"}, {"name": "Inchelium Middle School", "lat": 48.301363, "lon": -118.198168, "proficiency": 0.211, "district": "Inchelium School District", "city": "Inchelium", "ncessch": "530000202870"}, {"name": "Beaver Lake Middle School", "lat": 47.5798, "lon": -122.0056, "proficiency": 0.687, "district": "Issaquah School District", "city": "ISSAQUAH", "ncessch": "530375001495"}, {"name": "Issaquah Middle School", "lat": 47.524327, "lon": -122.028867, "proficiency": 0.55, "district": "Issaquah School District", "city": "ISSAQUAH", "ncessch": "530375000573"}, {"name": "Maywood Middle School", "lat": 47.4713, "lon": -122.1149, "proficiency": 0.681, "district": "Issaquah School District", "city": "RENTON", "ncessch": "530375000579"}, {"name": "Pacific Cascade Middle School", "lat": 47.559368, "lon": -122.010747, "proficiency": 0.668, "district": "Issaquah School District", "city": "Issaquah", "ncessch": "530375003337"}, {"name": "Pine Lake Middle School", "lat": 47.580343, "lon": -122.032243, "proficiency": 0.74, "district": "Issaquah School District", "city": "SAMMAMISH", "ncessch": "530375000580"}, {"name": "Kalama Middle School", "lat": 46.008516, "lon": -122.839368, "proficiency": 0.203, "district": "Kalama School District", "city": "Kalama", "ncessch": "530381000585"}, {"name": "Coweeman Middle School", "lat": 46.1439, "lon": -122.8886, "proficiency": 0.216, "district": "Kelso School District", "city": "Kelso", "ncessch": "530000300591"}, {"name": "Huntington Middle School", "lat": 46.1543, "lon": -122.9046, "proficiency": 0.164, "district": "Kelso School District", "city": "Kelso", "ncessch": "530000300592"}, {"name": "Kelso Virtual Academy", "lat": 46.180315, "lon": -122.925884, "proficiency": 0.105, "district": "Kelso School District", "city": "Longview", "ncessch": "530000303314"}, {"name": "Chinook Middle School", "lat": 46.183885, "lon": -119.185066, "proficiency": 0.253, "district": "Kennewick School District", "city": "Kennewick", "ncessch": "530393003586"}, {"name": "Desert Hills Middle School", "lat": 46.194127, "lon": -119.25203, "proficiency": 0.354, "district": "Kennewick School District", "city": "KENNEWICK", "ncessch": "530393000598"}, {"name": "Highlands Middle School", "lat": 46.205575, "lon": -119.177288, "proficiency": 0.181, "district": "Kennewick School District", "city": "KENNEWICK", "ncessch": "530393000603"}, {"name": "Horse Heaven Hills Middle School", "lat": 46.177795, "lon": -119.149809, "proficiency": 0.204, "district": "Kennewick School District", "city": "KENNEWICK", "ncessch": "530393000750"}, {"name": "Mid-Columbia Parent Partnership", "lat": 46.197264, "lon": -119.204428, "proficiency": 0.132, "district": "Kennewick School District", "city": "KENNEWICK", "ncessch": "530393003115"}, {"name": "Park Middle School", "lat": 46.197589, "lon": -119.13177, "proficiency": 0.195, "district": "Kennewick School District", "city": "KENNEWICK", "ncessch": "530393000607"}, {"name": "Canyon Ridge Middle School", "lat": 47.366716, "lon": -122.192954, "proficiency": 0.174, "district": "Kent School District", "city": "Kent", "ncessch": "530396003907"}, {"name": "Cedar Heights Middle School", "lat": 47.359129, "lon": -122.079427, "proficiency": 0.262, "district": "Kent School District", "city": "Covington", "ncessch": "530396001142"}, {"name": "Kent Laboratory Academy", "lat": 47.415382, "lon": -122.198652, "proficiency": 0.521, "district": "Kent School District", "city": "Kent", "ncessch": "530396003797"}, {"name": "Mattson Middle School", "lat": 47.3778, "lon": -122.1217, "proficiency": 0.328, "district": "Kent School District", "city": "Covington", "ncessch": "530396001780"}, {"name": "Meeker Middle School", "lat": 47.4311, "lon": -122.1722, "proficiency": 0.281, "district": "Kent School District", "city": "Renton", "ncessch": "530396000624"}, {"name": "Meridian Middle School", "lat": 47.3917, "lon": -122.1804, "proficiency": 0.278, "district": "Kent School District", "city": "Kent", "ncessch": "530396000626"}, {"name": "Mill Creek Middle School", "lat": 47.385486, "lon": -122.229792, "proficiency": 0.059, "district": "Kent School District", "city": "Kent", "ncessch": "530396002986"}, {"name": "Northwood Middle School", "lat": 47.4364, "lon": -122.1142, "proficiency": 0.491, "district": "Kent School District", "city": "Renton", "ncessch": "530396002521"}, {"name": "Kettle Falls Middle School", "lat": 48.6025, "lon": -118.0557, "proficiency": 0.327, "district": "Kettle Falls School District", "city": "KETTLE FALLS", "ncessch": "530399001904"}, {"name": "Kiona-Benton City Middle School", "lat": 46.27004, "lon": -119.489613, "proficiency": 0.094, "district": "Kiona-Benton City School District", "city": "Benton City", "ncessch": "530402000640"}, {"name": "La Center Middle School", "lat": 45.859147, "lon": -122.64999, "proficiency": 0.336, "district": "La Center School District", "city": "La Center", "ncessch": "530417000649"}, {"name": "La Conner Middle", "lat": 48.394765, "lon": -122.489504, "proficiency": 0.174, "district": "La Conner School District", "city": "La Conner", "ncessch": "530411001905"}, {"name": "Chelan Middle School", "lat": 47.835099, "lon": -120.020326, "proficiency": 0.193, "district": "Lake Chelan School District", "city": "Chelan", "ncessch": "530120000218"}, {"name": "Cavelero Mid High School", "lat": 47.972962, "lon": -122.121981, "proficiency": 0.356, "district": "Lake Stevens School District", "city": "Lake Stevens", "ncessch": "530420003190"}, {"name": "Emerson K-12", "lat": 47.65529, "lon": -122.195548, "proficiency": 0.455, "district": "Lake Washington School District", "city": "Kirkland", "ncessch": "530423002725"}, {"name": "Environmental & Adventure School", "lat": 47.719861, "lon": -122.23012, "proficiency": 0.833, "district": "Lake Washington School District", "city": "Kirkland", "ncessch": "530423002726"}, {"name": "Evergreen Middle School", "lat": 47.6675, "lon": -122.0608, "proficiency": 0.788, "district": "Lake Washington School District", "city": "Redmond", "ncessch": "530423001841"}, {"name": "Finn Hill Middle School", "lat": 47.719861, "lon": -122.23012, "proficiency": 0.422, "district": "Lake Washington School District", "city": "Kirkland", "ncessch": "530423000663"}, {"name": "Inglewood Middle School", "lat": 47.6185, "lon": -122.0174, "proficiency": 0.696, "district": "Lake Washington School District", "city": "Sammamish", "ncessch": "530423002435"}, {"name": "International Community School", "lat": 47.663929, "lon": -122.191793, "proficiency": 0.9, "district": "Lake Washington School District", "city": "Kirkland", "ncessch": "530423002568"}, {"name": "Kamiakin Middle School", "lat": 47.7274, "lon": -122.1655, "proficiency": 0.547, "district": "Lake Washington School District", "city": "Kirkland", "ncessch": "530423000671"}, {"name": "Kirkland Middle School", "lat": 47.6907, "lon": -122.2007, "proficiency": 0.665, "district": "Lake Washington School District", "city": "Kirkland", "ncessch": "530423000672"}, {"name": "Northstar Middle School", "lat": 47.65529, "lon": -122.195548, "proficiency": 0.833, "district": "Lake Washington School District", "city": "Kirkland", "ncessch": "530423001843"}, {"name": "Redmond Middle School", "lat": 47.6919, "lon": -122.1198, "proficiency": 0.678, "district": "Lake Washington School District", "city": "Redmond", "ncessch": "530423000680"}, {"name": "Renaissance School of Art and Reasoning", "lat": 47.613559, "lon": -122.031221, "proficiency": 0.5, "district": "Lake Washington School District", "city": "Sammamish", "ncessch": "530423003070"}, {"name": "Rose Hill Middle School", "lat": 47.669431, "lon": -122.159837, "proficiency": 0.629, "district": "Lake Washington School District", "city": "Redmond", "ncessch": "530423000683"}, {"name": "Stella Schola", "lat": 47.669431, "lon": -122.159837, "proficiency": 0.793, "district": "Lake Washington School District", "city": "Redmond", "ncessch": "530423002983"}, {"name": "Timberline Middle School", "lat": 47.687909, "lon": -122.03143, "proficiency": 0.781, "district": "Lake Washington School District", "city": "Redmond", "ncessch": "530423003708"}, {"name": "Lakewood Middle School", "lat": 48.148889, "lon": -122.208951, "proficiency": 0.194, "district": "Lakewood School District", "city": "N. Lakewood", "ncessch": "530426000686"}, {"name": "Liberty Jr High & Elementary", "lat": 47.3821, "lon": -117.3216, "proficiency": 0.3, "district": "Liberty School District", "city": "SPANGLE", "ncessch": "530438001908"}, {"name": "Lind-Ritzville Middle School", "lat": 46.975238, "lon": -118.61753, "proficiency": 0.313, "district": "Lind School District", "city": "Lind", "ncessch": "530441003416"}, {"name": "Cascade Middle School", "lat": 46.155611, "lon": -122.942578, "proficiency": 0.254, "district": "Longview School District", "city": "Longview", "ncessch": "530447000699"}, {"name": "Monticello Middle School", "lat": 46.1391, "lon": -122.9581, "proficiency": 0.285, "district": "Longview School District", "city": "Longview", "ncessch": "530447000705"}, {"name": "Mt. Solo Middle School", "lat": 46.1645, "lon": -123.0196, "proficiency": 0.331, "district": "Longview School District", "city": "Longview", "ncessch": "530447002947"}, {"name": "Lopez Middle High School", "lat": 48.492136, "lon": -122.897935, "proficiency": 0.474, "district": "Lopez School District", "city": "Lopez Island", "ncessch": "530453000713"}, {"name": "Lynden Academy", "lat": 48.9468, "lon": -122.482591, "proficiency": 0.313, "district": "Lynden School District", "city": "Lynden", "ncessch": "530462003022"}, {"name": "Lynden Middle School", "lat": 48.959498, "lon": -122.417389, "proficiency": 0.303, "district": "Lynden School District", "city": "LYNDEN", "ncessch": "530462000721"}, {"name": "Manson Middle School", "lat": 47.891461, "lon": -120.153354, "proficiency": 0.1, "district": "Manson School District", "city": "Manson", "ncessch": "530474003427"}, {"name": "Mary M. Knight School", "lat": 47.19933, "lon": -123.432421, "proficiency": 0.188, "district": "Mary M Knight School District", "city": "Elma", "ncessch": "530480003571"}, {"name": "Washington Connections Academy - Mary M. Knight", "lat": 46.983519, "lon": -122.90416, "proficiency": 0.257, "district": "Mary M Knight School District", "city": "Tumwater", "ncessch": "530480003569"}, {"name": "Springdale Middle School", "lat": 48.059856, "lon": -117.745927, "proficiency": 0.133, "district": "Mary Walker School District", "city": "Springdale", "ncessch": "530483000732"}, {"name": "10th Street School", "lat": 48.061145, "lon": -122.199808, "proficiency": 0.318, "district": "Marysville School District", "city": "Marysville", "ncessch": "530486002475"}, {"name": "Cedarcrest School", "lat": 48.073544, "lon": -122.143118, "proficiency": 0.261, "district": "Marysville School District", "city": "Marysville", "ncessch": "530486002425"}, {"name": "Marysville Middle School", "lat": 48.058817, "lon": -122.164163, "proficiency": 0.127, "district": "Marysville School District", "city": "Marysville", "ncessch": "530486000736"}, {"name": "Totem Middle School", "lat": 48.054822, "lon": -122.174559, "proficiency": 0.108, "district": "Marysville School District", "city": "Marysville", "ncessch": "530486000735"}, {"name": "Mccleary Elem", "lat": 47.04924, "lon": -123.265739, "proficiency": 0.205, "district": "McCleary School District", "city": "McCleary", "ncessch": "530489000742"}, {"name": "Mead Learning Options", "lat": 47.736678, "lon": -117.454147, "proficiency": 0.339, "district": "Mead School District", "city": "SPOKANE", "ncessch": "530492002844"}, {"name": "Mountainside Middle School", "lat": 47.803369, "lon": -117.340174, "proficiency": 0.402, "district": "Mead School District", "city": "COLBERT", "ncessch": "530492000747"}, {"name": "Northwood Middle School", "lat": 47.77422, "lon": -117.383063, "proficiency": 0.345, "district": "Mead School District", "city": "SPOKANE", "ncessch": "530492000748"}, {"name": "Medical Lake Middle School", "lat": 47.5721, "lon": -117.6696, "proficiency": 0.38, "district": "Medical Lake School District", "city": "Medical Lake", "ncessch": "530495000756"}, {"name": "Islander Middle School", "lat": 47.5374, "lon": -122.2285, "proficiency": 0.669, "district": "Mercer Island School District", "city": "Mercer Island", "ncessch": "530498000764"}, {"name": "Meridian Middle School", "lat": 48.8691, "lon": -122.445, "proficiency": 0.299, "district": "Meridian School District", "city": "LYNDEN", "ncessch": "530501000767"}, {"name": "Meridian Parent Partnership Program", "lat": 48.856016, "lon": -122.493802, "proficiency": 0.381, "district": "Meridian School District", "city": "Bellingham", "ncessch": "530501003036"}, {"name": "Liberty Bell Jr Sr High", "lat": 48.4421, "lon": -120.17, "proficiency": 0.552, "district": "Methow Valley School District", "city": "Winthrop", "ncessch": "530502000770"}, {"name": "Hidden River Middle School", "lat": 47.800426, "lon": -122.108776, "proficiency": 0.347, "district": "Monroe School District", "city": "Snohomish", "ncessch": "530513002761"}, {"name": "Park Place Middle School", "lat": 47.850157, "lon": -121.989369, "proficiency": 0.308, "district": "Monroe School District", "city": "Monroe", "ncessch": "530513003040"}, {"name": "Sky Valley Education Center", "lat": 47.856083, "lon": -121.975531, "proficiency": 0.308, "district": "Monroe School District", "city": "Monroe", "ncessch": "530513002675"}, {"name": "Montesano Jr-Sr High", "lat": 46.9842, "lon": -123.5977, "proficiency": 0.341, "district": "Montesano School District", "city": "Montesano", "ncessch": "530516000780"}, {"name": "Morton Junior-Senior High", "lat": 46.5528, "lon": -122.2722, "proficiency": 0.294, "district": "Morton School District", "city": "MORTON", "ncessch": "530519000784"}, {"name": "Columbia Middle School", "lat": 47.1153, "lon": -119.259, "proficiency": 0.236, "district": "Moses Lake School District", "city": "MOSES LAKE", "ncessch": "530522000785"}, {"name": "Endeavor Middle School", "lat": 47.182902, "lon": -119.321555, "proficiency": 0.134, "district": "Moses Lake School District", "city": "Moses Lake", "ncessch": "530522003482"}, {"name": "Mossyrock Jr./Sr. High School", "lat": 46.530402, "lon": -122.485903, "proficiency": 0.073, "district": "Mossyrock School District", "city": "Mossyrock", "ncessch": "530525000796"}, {"name": "Mount Baker Junior High", "lat": 48.825958, "lon": -122.222346, "proficiency": 0.25, "district": "Mount Baker School District", "city": "DEMING", "ncessch": "530531002608"}, {"name": "La Venture Middle School", "lat": 48.4308, "lon": -122.312, "proficiency": 0.222, "district": "Mount Vernon School District", "city": "Mount Vernon", "ncessch": "530540000810"}, {"name": "Mount Baker Middle School", "lat": 48.4131, "lon": -122.3119, "proficiency": 0.105, "district": "Mount Vernon School District", "city": "Mount Vernon", "ncessch": "530540002585"}, {"name": "Skagit Academy", "lat": 48.405633, "lon": -122.34027, "proficiency": 0.292, "district": "Mount Vernon School District", "city": "Mount Vernon", "ncessch": "530540003006"}, {"name": "Explorer Middle School", "lat": 47.9118, "lon": -122.2478, "proficiency": 0.297, "district": "Mukilteo School District", "city": "Everett", "ncessch": "530543001910"}, {"name": "Harbour Pointe Middle School", "lat": 47.9029, "lon": -122.2995, "proficiency": 0.551, "district": "Mukilteo School District", "city": "Mukilteo", "ncessch": "530543001185"}, {"name": "Olympic View Middle School", "lat": 47.9305, "lon": -122.3018, "proficiency": 0.411, "district": "Mukilteo School District", "city": "Mukilteo", "ncessch": "530543000820"}, {"name": "Voyager Middle School", "lat": 47.892, "lon": -122.2375, "proficiency": 0.247, "district": "Mukilteo School District", "city": "Everett", "ncessch": "530543000719"}, {"name": "Naches Valley Middle School", "lat": 46.7291, "lon": -120.6968, "proficiency": 0.137, "district": "Naches Valley School District", "city": "Naches", "ncessch": "530546000824"}, {"name": "Napavine Jr Sr High School", "lat": 46.5771, "lon": -122.9039, "proficiency": 0.188, "district": "Napavine School District", "city": "Napavine", "ncessch": "530549000827"}, {"name": "Naselle-Grays River Valley Jr Sr High Schools", "lat": 46.376734, "lon": -123.801799, "proficiency": 0.414, "district": "Naselle-Grays River Valley School District", "city": "NASELLE", "ncessch": "530552000831"}, {"name": "Sadie Halstead Middle School", "lat": 48.1788, "lon": -117.0533, "proficiency": 0.216, "district": "Newport School District", "city": "Newport", "ncessch": "530561001911"}, {"name": "Lakeside Middle School", "lat": 47.829063, "lon": -117.599485, "proficiency": 0.514, "district": "Nine Mile Falls School District", "city": "Nine Mile Falls", "ncessch": "530564002680"}, {"name": "Nooksack Valley Middle School", "lat": 48.9206, "lon": -122.3274, "proficiency": 0.443, "district": "Nooksack Valley School District", "city": "Everson", "ncessch": "530567000838"}, {"name": "North Beach Junior High School", "lat": 47.019175, "lon": -124.15839, "proficiency": 0.207, "district": "North Beach School District No. 64", "city": "Ocean Shores", "ncessch": "530570002039"}, {"name": "Robert L Olds Junior High School", "lat": 46.662577, "lon": -118.870481, "proficiency": 0.163, "district": "North Franklin School District", "city": "Connell", "ncessch": "530573000850"}, {"name": "Kingston Middle School", "lat": 47.7959, "lon": -122.526, "proficiency": 0.367, "district": "North Kitsap School District", "city": "Kingston", "ncessch": "530576002324"}, {"name": "Poulsbo Middle School", "lat": 47.7326, "lon": -122.6233, "proficiency": 0.414, "district": "North Kitsap School District", "city": "Poulsbo", "ncessch": "530576000851"}, {"name": "Hawkins Middle School", "lat": 47.413467, "lon": -122.841348, "proficiency": 0.289, "district": "North Mason School District", "city": "Belfair", "ncessch": "530579000860"}, {"name": "Aspire Middle School", "lat": 47.001, "lon": -122.8054, "proficiency": 0.558, "district": "North Thurston Public Schools", "city": "Lacey", "ncessch": "530585003280"}, {"name": "Komachin Middle School", "lat": 47.0154, "lon": -122.8219, "proficiency": 0.359, "district": "North Thurston Public Schools", "city": "Lacey", "ncessch": "530585000606"}, {"name": "Nisqually Middle School", "lat": 47.0478, "lon": -122.7671, "proficiency": 0.159, "district": "North Thurston Public Schools", "city": "Lacey", "ncessch": "530585000868"}, {"name": "Salish Middle School", "lat": 47.081094, "lon": -122.757502, "proficiency": 0.218, "district": "North Thurston Public Schools", "city": "Lacey", "ncessch": "530585003587"}, {"name": "Summit VIrtual Academy", "lat": 47.050976, "lon": -122.824182, "proficiency": 0.103, "district": "North Thurston Public Schools", "city": "Lacey", "ncessch": "530585003804"}, {"name": "Northport Elementary School", "lat": 48.911853, "lon": -117.789274, "proficiency": 0.353, "district": "Northport School District", "city": "Northport", "ncessch": "530588000873"}, {"name": "Canyon Park Middle School", "lat": 47.7829, "lon": -122.2009, "proficiency": 0.535, "district": "Northshore School District", "city": "Bothell", "ncessch": "530591000879"}, {"name": "Kenmore Middle School", "lat": 47.7763, "lon": -122.2543, "proficiency": 0.421, "district": "Northshore School District", "city": "Kenmore", "ncessch": "530591000886"}, {"name": "Leota Middle School", "lat": 47.7677, "lon": -122.1168, "proficiency": 0.568, "district": "Northshore School District", "city": "Woodinville", "ncessch": "530591000887"}, {"name": "Northshore Learning Options", "lat": 47.759768, "lon": -122.080807, "proficiency": 0.26, "district": "Northshore School District", "city": "Woodinville", "ncessch": "530591003922"}, {"name": "Northshore Middle School", "lat": 47.7429, "lon": -122.1798, "proficiency": 0.587, "district": "Northshore School District", "city": "Bothell", "ncessch": "530591000891"}, {"name": "Skyview Middle School", "lat": 47.8032, "lon": -122.1903, "proficiency": 0.566, "district": "Northshore School District", "city": "Bothell", "ncessch": "530591000480"}, {"name": "Timbercrest Middle School", "lat": 47.766376, "lon": -122.052197, "proficiency": 0.613, "district": "Northshore School District", "city": "Woodinville", "ncessch": "530591002571"}, {"name": "North Whidbey Middle School", "lat": 48.2993, "lon": -122.6479, "proficiency": 0.365, "district": "Oak Harbor School District", "city": "Oak Harbor", "ncessch": "530594000901"}, {"name": "Oakesdale High School", "lat": 47.1267, "lon": -117.2438, "proficiency": 0.467, "district": "Oakesdale School District", "city": "Oakesdale", "ncessch": "530597000908"}, {"name": "Hilltop Elementary School", "lat": 46.311123, "lon": -124.03834, "proficiency": 0.167, "district": "Ocean Beach School District", "city": "Ilwaco", "ncessch": "530606000911"}, {"name": "Ocosta Junior - Senior High", "lat": 46.863504, "lon": -124.10024, "proficiency": 0.135, "district": "Ocosta School District", "city": "Westport", "ncessch": "530609000914"}, {"name": "Odessa High School", "lat": 47.330708, "lon": -118.688616, "proficiency": 0.143, "district": "Odessa School District", "city": "ODESSA", "ncessch": "530612000916"}, {"name": "Okanogan Middle School", "lat": 48.365, "lon": -119.5853, "proficiency": 0.356, "district": "Okanogan School District", "city": "Okanogan", "ncessch": "530615003144"}, {"name": "Jefferson Middle School", "lat": 47.0523, "lon": -122.9283, "proficiency": 0.531, "district": "Olympia School District", "city": "OLYMPIA", "ncessch": "530618000925"}, {"name": "Olympia Regional Learning Academy", "lat": 47.037169, "lon": -122.867826, "proficiency": 0.143, "district": "Olympia School District", "city": "Olympia", "ncessch": "530618003205"}, {"name": "Reeves Middle School", "lat": 47.0643, "lon": -122.8912, "proficiency": 0.487, "district": "Olympia School District", "city": "OLYMPIA", "ncessch": "530618000936"}, {"name": "Thurgood Marshall Middle School", "lat": 47.0624, "lon": -122.9508, "proficiency": 0.289, "district": "Olympia School District", "city": "OLYMPIA", "ncessch": "530618001737"}, {"name": "Washington Middle School", "lat": 47.0207, "lon": -122.8685, "proficiency": 0.55, "district": "Olympia School District", "city": "OLYMPIA", "ncessch": "530618000935"}, {"name": "Omak Middle School", "lat": 48.410421, "lon": -119.533754, "proficiency": 0.033, "district": "Omak School District", "city": "Omak", "ncessch": "530622001912"}, {"name": "Washington Virtual Academy Omak Middle School", "lat": 48.411047, "lon": -119.537815, "proficiency": 0.161, "district": "Omak School District", "city": "Omak", "ncessch": "530622003307"}, {"name": "Onalaska Middle School", "lat": 46.5817, "lon": -122.7186, "proficiency": 0.282, "district": "Onalaska School District", "city": "Onalaska", "ncessch": "530624003062"}, {"name": "Orcas Island Middle School", "lat": 48.699133, "lon": -122.902922, "proficiency": 0.176, "district": "Orcas Island School District", "city": "EASTSOUND", "ncessch": "530630002815"}, {"name": "Oroville Middle-High School", "lat": 48.9345, "lon": -119.439, "proficiency": 0.163, "district": "Oroville School District", "city": "Oroville", "ncessch": "530642000951"}, {"name": "Orting Middle School", "lat": 47.102858, "lon": -122.217639, "proficiency": 0.23, "district": "Orting School District", "city": "Orting", "ncessch": "530645002066"}, {"name": "McFarland Middle School", "lat": 46.817879, "lon": -119.159727, "proficiency": 0.104, "district": "Othello School District", "city": "Othello", "ncessch": "530648000956"}, {"name": "PRIDE Prep School", "lat": 47.657663, "lon": -117.398305, "proficiency": 0.224, "district": "PRIDE Prep Charter School District", "city": "Spokane", "ncessch": "530033903495"}, {"name": "Palouse at Garfield Middle School", "lat": 46.912588, "lon": -117.070953, "proficiency": 0.294, "district": "Palouse School District", "city": "Palouse", "ncessch": "530654003134"}, {"name": "Ellen Ochoa Middle School", "lat": 46.2455, "lon": -119.0729, "proficiency": 0.059, "district": "Pasco School District", "city": "PASCO", "ncessch": "530657002936"}, {"name": "Internet Pasco Academy of Learning", "lat": 46.253735, "lon": -119.204995, "proficiency": 0.182, "district": "Pasco School District", "city": "Pasco", "ncessch": "530657003547"}, {"name": "Mcloughlin Middle School", "lat": 46.253735, "lon": -119.204995, "proficiency": 0.23, "district": "Pasco School District", "city": "PASCO", "ncessch": "530657000967"}, {"name": "Ray Reynolds Middle School", "lat": 46.286392, "lon": -119.213793, "proficiency": 0.325, "district": "Pasco School District", "city": "Pasco", "ncessch": "530657003735"}, {"name": "Stevens Middle School", "lat": 46.239, "lon": -119.1208, "proficiency": 0.097, "district": "Pasco School District", "city": "PASCO", "ncessch": "530657000973"}, {"name": "Pateros High School", "lat": 48.051967, "lon": -119.906507, "proficiency": 0.158, "district": "Pateros School District", "city": "PATEROS", "ncessch": "530660000975"}, {"name": "Paterson Elementary School", "lat": 45.9386, "lon": -119.6091, "proficiency": 0.688, "district": "Paterson School District", "city": "Paterson", "ncessch": "530663000976"}, {"name": "Pe Ell School", "lat": 46.5749, "lon": -123.2991, "proficiency": 0.188, "district": "Pe Ell School District", "city": "Pe Ell", "ncessch": "530666000977"}, {"name": "Goodman Middle School", "lat": 47.2916, "lon": -122.5917, "proficiency": 0.439, "district": "Peninsula School District", "city": "Gig Harbor", "ncessch": "530669000983"}, {"name": "Harbor Ridge Middle School", "lat": 47.3409, "lon": -122.5929, "proficiency": 0.403, "district": "Peninsula School District", "city": "Gig Harbor", "ncessch": "530669002436"}, {"name": "Key Peninsula Middle School", "lat": 47.3075, "lon": -122.7585, "proficiency": 0.321, "district": "Peninsula School District", "city": "Lakebay", "ncessch": "530669001863"}, {"name": "Kopachuck Middle School", "lat": 47.3055, "lon": -122.6782, "proficiency": 0.627, "district": "Peninsula School District", "city": "Gig Harbor", "ncessch": "530669001862"}, {"name": "Pinnacles Prep Charter School", "lat": 47.417103, "lon": -120.308942, "proficiency": 0.396, "district": "Pinnacles Prep Charter School", "city": "Wenatchee", "ncessch": "530035203807"}, {"name": "Pioneer Middle School", "lat": 47.257961, "lon": -123.003383, "proficiency": 0.281, "district": "Pioneer School District", "city": "SHELTON", "ncessch": "530675000992"}, {"name": "Pomeroy Jr Sr High School", "lat": 46.4718, "lon": -117.5959, "proficiency": 0.455, "district": "Pomeroy School District", "city": "Pomeroy", "ncessch": "530678000994"}, {"name": "Stevens Middle School", "lat": 48.1169, "lon": -123.4655, "proficiency": 0.438, "district": "Port Angeles School District", "city": "PORT ANGELES", "ncessch": "530682001004"}, {"name": "Blue Heron Middle School", "lat": 48.129, "lon": -122.7791, "proficiency": 0.342, "district": "Port Townsend School District", "city": "Port Townsend", "ncessch": "530684001305"}, {"name": "Housel Middle School", "lat": 46.2088, "lon": -119.7529, "proficiency": 0.251, "district": "Prosser School District", "city": "Prosser", "ncessch": "530690001013"}, {"name": "Lincoln Middle School", "lat": 46.718203, "lon": -117.17841, "proficiency": 0.605, "district": "Pullman School District", "city": "Pullman", "ncessch": "530693001019"}, {"name": "Aylen Jr High", "lat": 47.193138, "lon": -122.313043, "proficiency": 0.324, "district": "Puyallup School District", "city": "Puyallup", "ncessch": "530696001022"}, {"name": "Ballou Jr High", "lat": 47.1319, "lon": -122.2967, "proficiency": 0.294, "district": "Puyallup School District", "city": "Puyallup", "ncessch": "530696001026"}, {"name": "Doris Stahl Junior High", "lat": 47.1022, "lon": -122.2999, "proficiency": 0.38, "district": "Puyallup School District", "city": "Puyallup", "ncessch": "530696001178"}, {"name": "Edgemont Jr High", "lat": 47.236815, "lon": -122.283246, "proficiency": 0.295, "district": "Puyallup School District", "city": "Edgewood", "ncessch": "530696001024"}, {"name": "Ferrucci Jr High", "lat": 47.1605, "lon": -122.2706, "proficiency": 0.269, "district": "Puyallup School District", "city": "Puyallup", "ncessch": "530696001865"}, {"name": "Glacier View Junior High", "lat": 47.088505, "lon": -122.258683, "proficiency": 0.307, "district": "Puyallup School District", "city": "Puyallup", "ncessch": "530696003260"}, {"name": "Kalles Junior High", "lat": 47.186978, "lon": -122.287625, "proficiency": 0.361, "district": "Puyallup School District", "city": "Puyallup", "ncessch": "530696001032"}, {"name": "Puyallup Online Academy/POA", "lat": 47.155488, "lon": -122.3122, "proficiency": 0.122, "district": "Puyallup School District", "city": "Puyallup", "ncessch": "530696003315"}, {"name": "Partnership for Excellence in Alternative Remote Learning", "lat": 47.8236, "lon": -122.8745, "proficiency": 0.233, "district": "Quilcene School District", "city": "Quilcene", "ncessch": "530699003353"}, {"name": "Quincy Middle School", "lat": 47.236653, "lon": -119.840745, "proficiency": 0.236, "district": "Quincy School District", "city": "QUINCY", "ncessch": "530708001056"}, {"name": "Forks Middle School", "lat": 47.949564, "lon": -124.383462, "proficiency": 0.219, "district": "Quillayute Valley School District", "city": "Forks", "ncessch": "530702001046"}, {"name": "Insight School of Washington", "lat": 47.946599, "lon": -124.383947, "proficiency": 0.04, "district": "Quillayute Valley School District", "city": "Forks", "ncessch": "530702003078"}, {"name": "Rainier Prep", "lat": 47.51151, "lon": -122.318361, "proficiency": 0.564, "district": "Rainier Prep Charter School District", "city": "Seattle", "ncessch": "530033503533"}, {"name": "Raymond Jr Sr High School", "lat": 46.684986, "lon": -123.725165, "proficiency": 0.156, "district": "Raymond School District", "city": "RAYMOND", "ncessch": "530714001060"}, {"name": "Reardan Middle-Senior High School", "lat": 47.667947, "lon": -117.875768, "proficiency": 0.511, "district": "Reardan-Edwall School District", "city": "REARDAN", "ncessch": "530721001063"}, {"name": "Dimmitt Middle School", "lat": 47.4925, "lon": -122.2323, "proficiency": 0.158, "district": "Renton School District", "city": "Seattle", "ncessch": "530723002564"}, {"name": "H.O.M.E. Program", "lat": 47.456404, "lon": -122.197432, "proficiency": 0.5, "district": "Renton School District", "city": "Renton", "ncessch": "530723002721"}, {"name": "McKnight Middle School", "lat": 47.5056, "lon": -122.184, "proficiency": 0.336, "district": "Renton School District", "city": "Renton", "ncessch": "530723001079"}, {"name": "Nelsen Middle School", "lat": 47.4579, "lon": -122.1981, "proficiency": 0.231, "district": "Renton School District", "city": "Renton", "ncessch": "530723001070"}, {"name": "Vera Risdon Middle School", "lat": 47.540951, "lon": -122.184377, "proficiency": 0.359, "district": "Renton School District", "city": "Newcastle", "ncessch": "530723003603"}, {"name": "Carmichael Middle School", "lat": 46.274, "lon": -119.2894, "proficiency": 0.214, "district": "Richland School District", "city": "Richland", "ncessch": "530732001091"}, {"name": "Chief Joseph Middle School", "lat": 46.296, "lon": -119.2829, "proficiency": 0.2, "district": "Richland School District", "city": "Richland", "ncessch": "530732001250"}, {"name": "Enterprise Middle School", "lat": 46.28689, "lon": -119.355156, "proficiency": 0.357, "district": "Richland School District", "city": "West Richland", "ncessch": "530732002504"}, {"name": "Leona Libby Middle School", "lat": 46.273135, "lon": -119.374857, "proficiency": 0.477, "district": "Richland School District", "city": "West Richland", "ncessch": "530732003606"}, {"name": "Pacific Crest Online Academy", "lat": 46.2743, "lon": -119.29414, "proficiency": 0.054, "district": "Richland School District", "city": "West Richland", "ncessch": "530732003810"}, {"name": "Three Rivers Home Link", "lat": 46.293724, "lon": -119.294452, "proficiency": 0.205, "district": "Richland School District", "city": "Richland", "ncessch": "530732003273"}, {"name": "View Ridge Middle School", "lat": 45.790998, "lon": -122.708427, "proficiency": 0.444, "district": "Ridgefield School District", "city": "RIDGEFIELD", "ncessch": "530735001108"}, {"name": "Wisdom Ridge Academy", "lat": 45.80699, "lon": -122.690696, "proficiency": 0.217, "district": "Ridgefield School District", "city": "Ridgefield", "ncessch": "530735003811"}, {"name": "Lind Ritzville Middle School", "lat": 46.975238, "lon": -118.61753, "proficiency": 0.212, "district": "Ritzville School District", "city": "LInd", "ncessch": "530738003418"}, {"name": "Riverside Middle School", "lat": 47.9661, "lon": -117.3539, "proficiency": 0.398, "district": "Riverside School District", "city": "Chattaroy", "ncessch": "530744001114"}, {"name": "Tolt Middle School", "lat": 47.642428, "lon": -121.913785, "proficiency": 0.493, "district": "Riverview School District", "city": "Carnation", "ncessch": "530456002119"}, {"name": "Rochester Middle School", "lat": 46.8208, "lon": -123.0914, "proficiency": 0.407, "district": "Rochester School District", "city": "Rochester", "ncessch": "530747001118"}, {"name": "Royal Middle School", "lat": 46.912, "lon": -119.6277, "proficiency": 0.179, "district": "Royal School District", "city": "Royal City", "ncessch": "530762001124"}, {"name": "Friday Harbor Middle School", "lat": 48.534854, "lon": -123.020829, "proficiency": 0.368, "district": "San Juan Island School District", "city": "FRIDAY HARBOR", "ncessch": "530765002666"}, {"name": "Aki Kurose Middle School", "lat": 47.5465, "lon": -122.2825, "proficiency": 0.32, "district": "Seattle School District No. 1", "city": "Seattle", "ncessch": "530771001249"}, {"name": "Broadview-Thomson K-8 School", "lat": 47.7246, "lon": -122.3544, "proficiency": 0.367, "district": "Seattle School District No. 1", "city": "SEATTLE", "ncessch": "530771001145"}, {"name": "Cascade Parent Partnership Program", "lat": 47.64628, "lon": -122.358631, "proficiency": 0.152, "district": "Seattle School District No. 1", "city": "SEATTLE", "ncessch": "530771002635"}, {"name": "Catharine Blaine K-8 School", "lat": 47.6428, "lon": -122.4003, "proficiency": 0.793, "district": "Seattle School District No. 1", "city": "SEATTLE", "ncessch": "530771002017"}, {"name": "David T. Denny International Middle School", "lat": 47.530177, "lon": -122.365672, "proficiency": 0.299, "district": "Seattle School District No. 1", "city": "SEATTLE", "ncessch": "530771001913"}, {"name": "Eckstein Middle School", "lat": 47.6824, "lon": -122.295, "proficiency": 0.605, "district": "Seattle School District No. 1", "city": "SEATTLE", "ncessch": "530771001162"}, {"name": "Edmonds S. Meany Middle School", "lat": 47.622134, "lon": -122.305434, "proficiency": 0.384, "district": "Seattle School District No. 1", "city": "Seattle", "ncessch": "530771003612"}, {"name": "Hamilton International Middle School", "lat": 47.6573, "lon": -122.338, "proficiency": 0.657, "district": "Seattle School District No. 1", "city": "SEATTLE", "ncessch": "530771001180"}, {"name": "Hazel Wolf K-8", "lat": 47.71367, "lon": -122.314422, "proficiency": 0.616, "district": "Seattle School District No. 1", "city": "Seattle", "ncessch": "530771003271"}, {"name": "Jane Addams Middle School", "lat": 47.70992, "lon": -122.292809, "proficiency": 0.55, "district": "Seattle School District No. 1", "city": "Seattle", "ncessch": "530771003467"}, {"name": "Licton Springs K-8", "lat": 47.677698, "lon": -122.396331, "proficiency": 0.177, "district": "Seattle School District No. 1", "city": "SEATTLE", "ncessch": "530771001132"}, {"name": "Louisa Boren STEM K-8", "lat": 47.5486, "lon": -122.3621, "proficiency": 0.174, "district": "Seattle School District No. 1", "city": "Seattle", "ncessch": "530771003426"}, {"name": "Madison Middle School", "lat": 47.5729, "lon": -122.3903, "proficiency": 0.633, "district": "Seattle School District No. 1", "city": "SEATTLE", "ncessch": "530771001207"}, {"name": "McClure Middle School", "lat": 47.6368, "lon": -122.3586, "proficiency": 0.475, "district": "Seattle School District No. 1", "city": "SEATTLE", "ncessch": "530771001212"}, {"name": "Mercer International Middle School", "lat": 47.5642, "lon": -122.3121, "proficiency": 0.416, "district": "Seattle School District No. 1", "city": "SEATTLE", "ncessch": "530771001136"}, {"name": "Orca K-8 School", "lat": 47.5546, "lon": -122.2758, "proficiency": 0.179, "district": "Seattle School District No. 1", "city": "SEATTLE", "ncessch": "530771002231"}, {"name": "Pathfinder K-8 School", "lat": 47.562661, "lon": -122.35796, "proficiency": 0.405, "district": "Seattle School District No. 1", "city": "SEATTLE", "ncessch": "530771001102"}, {"name": "Robert Eagle Staff Middle School", "lat": 47.695255, "lon": -122.340888, "proficiency": 0.61, "district": "Seattle School District No. 1", "city": "Seattle", "ncessch": "530771003620"}, {"name": "Salmon Bay K-8 School", "lat": 47.6766, "lon": -122.3806, "proficiency": 0.667, "district": "Seattle School District No. 1", "city": "SEATTLE", "ncessch": "530771002716"}, {"name": "South Shore PK-8 School", "lat": 47.524046, "lon": -122.27199, "proficiency": 0.233, "district": "Seattle School District No. 1", "city": "SEATTLE", "ncessch": "530771002933"}, {"name": "Tops K-8 School", "lat": 47.6425, "lon": -122.3242, "proficiency": 0.672, "district": "Seattle School District No. 1", "city": "SEATTLE", "ncessch": "530771001307"}, {"name": "Washington Middle School", "lat": 47.5984, "lon": -122.3039, "proficiency": 0.302, "district": "Seattle School District No. 1", "city": "SEATTLE", "ncessch": "530771001259"}, {"name": "Whitman Middle School", "lat": 47.6971, "lon": -122.3778, "proficiency": 0.651, "district": "Seattle School District No. 1", "city": "SEATTLE", "ncessch": "530771001264"}, {"name": "Selah Middle School", "lat": 46.659778, "lon": -120.527787, "proficiency": 0.263, "district": "Selah School District", "city": "Selah", "ncessch": "530777003554"}, {"name": "Selkirk Middle School", "lat": 48.81916, "lon": -117.39802, "proficiency": 0.522, "district": "Selkirk School District", "city": "Ione", "ncessch": "530780003341"}, {"name": "Olympic Peninsula Academy", "lat": 48.082971, "lon": -123.104528, "proficiency": 0.643, "district": "Sequim School District", "city": "Sequim", "ncessch": "530783002552"}, {"name": "Sequim Middle School", "lat": 48.0863, "lon": -123.1076, "proficiency": 0.409, "district": "Sequim School District", "city": "Sequim", "ncessch": "530783002617"}, {"name": "Choice Middle and High School", "lat": 47.2156, "lon": -123.1085, "proficiency": 0.333, "district": "Shelton School District", "city": "Shelton", "ncessch": "530790002151"}, {"name": "Oakland Bay Junior High School", "lat": 47.233, "lon": -123.1207, "proficiency": 0.2, "district": "Shelton School District", "city": "Shelton", "ncessch": "530790002353"}, {"name": "Albert Einstein Middle School", "lat": 47.7697, "lon": -122.3629, "proficiency": 0.488, "district": "Shoreline School District", "city": "Shoreline", "ncessch": "530792001297"}, {"name": "Cascade K-8 Community School", "lat": 47.774405, "lon": -122.299753, "proficiency": 0.556, "district": "Shoreline School District", "city": "Shoreline", "ncessch": "530792003116"}, {"name": "Kellogg Middle School", "lat": 47.747014, "lon": -122.303023, "proficiency": 0.558, "district": "Shoreline School District", "city": "Shoreline", "ncessch": "530792001308"}, {"name": "Centennial Middle School", "lat": 47.9688, "lon": -122.0673, "proficiency": 0.281, "district": "Snohomish School District", "city": "Snohomish", "ncessch": "530802000540"}, {"name": "Valley View Middle School", "lat": 47.867812, "lon": -122.102747, "proficiency": 0.546, "district": "Snohomish School District", "city": "Snohomish", "ncessch": "530802001790"}, {"name": "Chief Kanim Middle School", "lat": 47.5695, "lon": -121.905, "proficiency": 0.62, "district": "Snoqualmie Valley School District", "city": "Fall City", "ncessch": "530804002439"}, {"name": "Snoqualmie Middle School", "lat": 47.518306, "lon": -121.8143, "proficiency": 0.556, "district": "Snoqualmie Valley School District", "city": "SNOQUALMIE", "ncessch": "530804003693"}, {"name": "Snoqualmie Parent Partnership Program", "lat": 47.518306, "lon": -121.8143, "proficiency": 0.385, "district": "Snoqualmie Valley School District", "city": "Snoqualmie", "ncessch": "530804003394"}, {"name": "Twin Falls Middle School", "lat": 47.47363, "lon": -121.714761, "proficiency": 0.619, "district": "Snoqualmie Valley School District", "city": "North Bend", "ncessch": "530804003252"}, {"name": "Soap Lake Middle & High School", "lat": 47.3866, "lon": -119.4972, "proficiency": 0.133, "district": "Soap Lake School District", "city": "SOAP LAKE", "ncessch": "530807001335"}, {"name": "South Bend High School", "lat": 46.661769, "lon": -123.791741, "proficiency": 0.229, "district": "South Bend School District", "city": "SOUTH BEND", "ncessch": "530810001337"}, {"name": "Cedar Heights Middle School", "lat": 47.5159, "lon": -122.654, "proficiency": 0.404, "district": "South Kitsap School District", "city": "PORT ORCHARD", "ncessch": "530816001346"}, {"name": "Explorer Academy", "lat": 47.535717, "lon": -122.62, "proficiency": 0.108, "district": "South Kitsap School District", "city": "PORT ORCHARD", "ncessch": "530816002575"}, {"name": "John Sedgwick Middle School", "lat": 47.5062, "lon": -122.5314, "proficiency": 0.482, "district": "South Kitsap School District", "city": "PORT ORCHARD", "ncessch": "530816001877"}, {"name": "Marcus Whitman Middle School", "lat": 47.5284, "lon": -122.6028, "proficiency": 0.242, "district": "South Kitsap School District", "city": "PORT ORCHARD", "ncessch": "530816001351"}, {"name": "South Whidbey Middle", "lat": 48.005466, "lon": -122.409837, "proficiency": 0.481, "district": "South Whidbey School District", "city": "Langley", "ncessch": "530819001358"}, {"name": "Spokane International Academy", "lat": 47.738621, "lon": -117.39772, "proficiency": 0.529, "district": "Spokane International Academy", "city": "Spokane", "ncessch": "530033703539"}, {"name": "Bryant Center", "lat": 47.6654, "lon": -117.4364, "proficiency": 0.577, "district": "Spokane School District", "city": "Spokane", "ncessch": "530825002764"}, {"name": "Chase Middle School", "lat": 47.6228, "lon": -117.3401, "proficiency": 0.382, "district": "Spokane School District", "city": "Spokane", "ncessch": "530825001732"}, {"name": "Denny Yasuhara Middle School", "lat": 47.683105, "lon": -117.390926, "proficiency": 0.06, "district": "Spokane School District", "city": "Spokane", "ncessch": "530825003816"}, {"name": "Garry Middle School", "lat": 47.7108, "lon": -117.3987, "proficiency": 0.207, "district": "Spokane School District", "city": "Spokane", "ncessch": "530825001411"}, {"name": "Glover Middle School", "lat": 47.697881, "lon": -117.444444, "proficiency": 0.169, "district": "Spokane School District", "city": "Spokane", "ncessch": "530825001377"}, {"name": "Libby Center", "lat": 47.6558, "lon": -117.367799, "proficiency": 0.893, "district": "Spokane School District", "city": "Spokane", "ncessch": "530825002484"}, {"name": "North Central High School", "lat": 47.6722, "lon": -117.4198, "proficiency": 0.654, "district": "Spokane School District", "city": "Spokane", "ncessch": "530825001399"}, {"name": "Pauline Flett Middle School", "lat": 47.701687, "lon": -117.483618, "proficiency": 0.213, "district": "Spokane School District", "city": "Spokane", "ncessch": "530825003814"}, {"name": "Sacajawea Middle School", "lat": 47.6251, "lon": -117.4047, "proficiency": 0.555, "district": "Spokane School District", "city": "Spokane", "ncessch": "530825001405"}, {"name": "Salk Middle School", "lat": 47.716178, "lon": -117.450494, "proficiency": 0.104, "district": "Spokane School District", "city": "Spokane", "ncessch": "530825001406"}, {"name": "Shaw Middle School", "lat": 47.694803, "lon": -117.372857, "proficiency": 0.083, "district": "Spokane School District", "city": "Spokane", "ncessch": "530825001408"}, {"name": "Spokane Public Montessori", "lat": 47.676341, "lon": -117.431799, "proficiency": 0.63, "district": "Spokane School District", "city": "Spokane", "ncessch": "530825003502"}, {"name": "Spokane Virtual Academy", "lat": 47.657121, "lon": -117.367789, "proficiency": 0.067, "district": "Spokane School District", "city": "Spokane", "ncessch": "530825003815"}, {"name": "Port Susan Middle School", "lat": 48.2372, "lon": -122.3357, "proficiency": 0.426, "district": "Stanwood-Camano School District", "city": "STANWOOD", "ncessch": "530834002595"}, {"name": "Saratoga School", "lat": 48.241898, "lon": -122.337723, "proficiency": 0.32, "district": "Stanwood-Camano School District", "city": "Stanwood", "ncessch": "530834003011"}, {"name": "Stanwood Middle School", "lat": 48.2427, "lon": -122.3607, "proficiency": 0.226, "district": "Stanwood-Camano School District", "city": "STANWOOD", "ncessch": "530834001424"}, {"name": "Virtual Preparatory Academy of Washington", "lat": 46.517284, "lon": -118.121192, "proficiency": 0.12, "district": "Starbuck School District", "city": "Starbuck", "ncessch": "530840003817"}, {"name": "Pioneer Middle", "lat": 47.10092, "lon": -122.64956, "proficiency": 0.364, "district": "Steilacoom Hist. School District", "city": "DUPONT", "ncessch": "530846001431"}, {"name": "Wind River Middle School", "lat": 45.726722, "lon": -121.811, "proficiency": 0.404, "district": "Stevenson-Carson School District", "city": "Stevenson", "ncessch": "530852001437"}, {"name": "Sultan Middle School", "lat": 47.8694, "lon": -121.8175, "proficiency": 0.364, "district": "Sultan School District", "city": "Sultan", "ncessch": "530855001439"}, {"name": "Summit Public School: Atlas", "lat": 47.51709, "lon": -122.377971, "proficiency": 0.349, "district": "Summit Public School: Atlas", "city": "Seattle", "ncessch": "530034303611"}, {"name": "Lakeridge Middle School", "lat": 47.203047, "lon": -122.189349, "proficiency": 0.494, "district": "Sumner-Bonney Lake School District", "city": "Bonney Lake", "ncessch": "530861001808"}, {"name": "Mountain View Middle School", "lat": 47.1576, "lon": -122.1624, "proficiency": 0.326, "district": "Sumner-Bonney Lake School District", "city": "Bonney Lake", "ncessch": "530861002580"}, {"name": "Sumner Middle School", "lat": 47.1949, "lon": -122.2353, "proficiency": 0.476, "district": "Sumner-Bonney Lake School District", "city": "Sumner", "ncessch": "530861001447"}, {"name": "Harrison Middle School", "lat": 46.3201, "lon": -119.9979, "proficiency": 0.202, "district": "Sunnyside School District", "city": "Sunnyside", "ncessch": "530867001451"}, {"name": "Sierra Vista Middle School", "lat": 46.33577, "lon": -119.997635, "proficiency": 0.06, "district": "Sunnyside School District", "city": "Sunnyside", "ncessch": "530867003037"}, {"name": "Angelo Giaudrone Middle School", "lat": 47.2119, "lon": -122.4594, "proficiency": 0.065, "district": "Tacoma School District", "city": "Tacoma", "ncessch": "530870003155"}, {"name": "Baker Middle School", "lat": 47.183695, "lon": -122.446529, "proficiency": 0.178, "district": "Tacoma School District", "city": "Tacoma", "ncessch": "530870001454"}, {"name": "Bryant Montessori Middle School", "lat": 47.2548, "lon": -122.4608, "proficiency": 0.289, "district": "Tacoma School District", "city": "Tacoma", "ncessch": "530870003757"}, {"name": "First Creek Middle School", "lat": 47.2095, "lon": -122.4057, "proficiency": 0.162, "district": "Tacoma School District", "city": "Tacoma", "ncessch": "530870003299"}, {"name": "Gray Middle School", "lat": 47.199557, "lon": -122.491458, "proficiency": 0.13, "district": "Tacoma School District", "city": "Tacoma", "ncessch": "530870001471"}, {"name": "Hilltop Heritage Middle School", "lat": 47.2563, "lon": -122.4645, "proficiency": 0.18, "district": "Tacoma School District", "city": "Tacoma", "ncessch": "530870001473"}, {"name": "Hunt Middle School", "lat": 47.252923, "lon": -122.523497, "proficiency": 0.183, "district": "Tacoma School District", "city": "Tacoma", "ncessch": "530870003818"}, {"name": "Mason Middle School", "lat": 47.2734, "lon": -122.4898, "proficiency": 0.283, "district": "Tacoma School District", "city": "Tacoma", "ncessch": "530870001483"}, {"name": "Meeker Middle School", "lat": 47.2961, "lon": -122.4025, "proficiency": 0.251, "district": "Tacoma School District", "city": "Tacoma", "ncessch": "530870001487"}, {"name": "Stewart Middle School", "lat": 47.211377, "lon": -122.435396, "proficiency": 0.242, "district": "Tacoma School District", "city": "Tacoma", "ncessch": "530870001504"}, {"name": "Truman Middle School", "lat": 47.2805, "lon": -122.5143, "proficiency": 0.221, "district": "Tacoma School District", "city": "Tacoma", "ncessch": "530870001507"}, {"name": "Wainwright Intermediate School", "lat": 47.241262, "lon": -122.518055, "proficiency": 0.15, "district": "Tacoma School District", "city": "Tacoma", "ncessch": "530870001508"}, {"name": "Maple View Middle School", "lat": 47.38863, "lon": -122.100408, "proficiency": 0.533, "district": "Tahoma School District", "city": "Covington", "ncessch": "530876001515"}, {"name": "Summit Trail Middle School", "lat": 47.37282, "lon": -122.000261, "proficiency": 0.63, "district": "Tahoma School District", "city": "Ravensdale", "ncessch": "530876002979"}, {"name": "Tekoa High School", "lat": 47.2238, "lon": -117.0678, "proficiency": 0.177, "district": "Tekoa School District", "city": "TEKOA", "ncessch": "530879001521"}, {"name": "Tenino Middle School", "lat": 46.861478, "lon": -122.848826, "proficiency": 0.227, "district": "Tenino School District", "city": "Tenino", "ncessch": "530882001523"}, {"name": "Toledo Middle School", "lat": 46.4409, "lon": -122.8498, "proficiency": 0.274, "district": "Toledo School District", "city": "Toledo", "ncessch": "530891001528"}, {"name": "Tonasket Middle School", "lat": 48.70146, "lon": -119.435029, "proficiency": 0.203, "district": "Tonasket School District", "city": "TONASKET", "ncessch": "530894001647"}, {"name": "Toppenish Middle School", "lat": 46.3833, "lon": -120.3133, "proficiency": 0.126, "district": "Toppenish School District", "city": "TOPPENISH", "ncessch": "530897001535"}, {"name": "Touchet Elem & High School", "lat": 46.043441, "lon": -118.671939, "proficiency": 0.474, "district": "Touchet School District", "city": "TOUCHET", "ncessch": "530900001536"}, {"name": "Toutle Lake High School", "lat": 46.3236, "lon": -122.7405, "proficiency": 0.097, "district": "Toutle Lake School District", "city": "Toutle", "ncessch": "530903001538"}, {"name": "Trout Lake School", "lat": 45.989195, "lon": -121.515747, "proficiency": 0.191, "district": "Trout Lake School District", "city": "Trout Lake", "ncessch": "530906001539"}, {"name": "Showalter Middle School", "lat": 47.4749, "lon": -122.2748, "proficiency": 0.103, "district": "Tukwila School District", "city": "TUKWILA", "ncessch": "530813001342"}, {"name": "George Bush Middle School", "lat": 46.96834, "lon": -122.927515, "proficiency": 0.398, "district": "Tumwater School District", "city": "Tumwater", "ncessch": "530910001734"}, {"name": "Tumwater Middle School", "lat": 46.991963, "lon": -122.925219, "proficiency": 0.451, "district": "Tumwater School District", "city": "Tumwater", "ncessch": "530910001545"}, {"name": "Union Gap School", "lat": 46.556098, "lon": -120.479357, "proficiency": 0.4, "district": "Union Gap School District", "city": "Union Gap", "ncessch": "530915002382"}, {"name": "Curtis Junior High", "lat": 47.22343, "lon": -122.553662, "proficiency": 0.412, "district": "University Place School District", "city": "UNIVERSITY PLACE", "ncessch": "530918001548"}, {"name": "Columbia Virtual Academy", "lat": 48.170482, "lon": -117.721184, "proficiency": 0.095, "district": "Valley School District", "city": "Valley", "ncessch": "530924003107"}, {"name": "Alki Middle School", "lat": 45.723501, "lon": -122.688524, "proficiency": 0.434, "district": "Vancouver School District", "city": "VANCOUVER", "ncessch": "530927000578"}, {"name": "Discovery Middle School", "lat": 45.651928, "lon": -122.663644, "proficiency": 0.068, "district": "Vancouver School District", "city": "VANCOUVER", "ncessch": "530927002018"}, {"name": "Gaiser Middle School", "lat": 45.694036, "lon": -122.63903, "proficiency": 0.117, "district": "Vancouver School District", "city": "VANCOUVER", "ncessch": "530927001562"}, {"name": "Jason Lee Middle School", "lat": 45.683059, "lon": -122.68097, "proficiency": 0.242, "district": "Vancouver School District", "city": "VANCOUVER", "ncessch": "530927001570"}, {"name": "Mcloughlin Middle School", "lat": 45.623883, "lon": -122.609439, "proficiency": 0.087, "district": "Vancouver School District", "city": "VANCOUVER", "ncessch": "530927001577"}, {"name": "Thomas Jefferson Middle School", "lat": 45.70777, "lon": -122.701894, "proficiency": 0.268, "district": "Vancouver School District", "city": "VANCOUVER", "ncessch": "530927002944"}, {"name": "Vancouver School of Arts and Academics", "lat": 45.643942, "lon": -122.668786, "proficiency": 0.352, "district": "Vancouver School District", "city": "VANCOUVER", "ncessch": "530927002508"}, {"name": "Vancouver iTech Preparatory", "lat": 45.737322, "lon": -122.621897, "proficiency": 0.356, "district": "Vancouver School District", "city": "VANCOUVER", "ncessch": "530927003415"}, {"name": "McMurray Middle School", "lat": 47.4282, "lon": -122.4545, "proficiency": 0.65, "district": "Vashon Island School District", "city": "VASHON", "ncessch": "530930001589"}, {"name": "Julius A Wendt Elementary/John C Thomas Middle School", "lat": 46.201487, "lon": -123.380647, "proficiency": 0.367, "district": "Wahkiakum School District", "city": "CATHLAMET", "ncessch": "530933001593"}, {"name": "Wahluke Junior High", "lat": 46.742844, "lon": -119.896886, "proficiency": 0.236, "district": "Wahluke School District", "city": "Mattawa", "ncessch": "530936003264"}, {"name": "Garrison Middle School", "lat": 46.0548, "lon": -118.3414, "proficiency": 0.337, "district": "Walla Walla Public Schools", "city": "WALLA WALLA", "ncessch": "530945001601"}, {"name": "Pioneer Middle School", "lat": 47.4127, "lon": -120.3225, "proficiency": 0.164, "district": "Wenatchee School District", "city": "WENATCHEE", "ncessch": "530966001635"}, {"name": "Wapato Middle School", "lat": 46.4361, "lon": -120.4105, "proficiency": 0.149, "district": "Wapato School District", "city": "Wapato", "ncessch": "530948001615"}, {"name": "Warden Middle School", "lat": 46.9606, "lon": -119.0415, "proficiency": 0.169, "district": "Warden School District", "city": "WARDEN", "ncessch": "530951001620"}, {"name": "Canyon Creek Middle School", "lat": 45.610094, "lon": -122.233306, "proficiency": 0.508, "district": "Washougal School District", "city": "Washougal", "ncessch": "530954002709"}, {"name": "Jemtegaard Middle School", "lat": 45.57609, "lon": -122.310091, "proficiency": 0.356, "district": "Washougal School District", "city": "Washougal", "ncessch": "530954001892"}, {"name": "Waterville High School", "lat": 47.6452, "lon": -120.0696, "proficiency": 0.438, "district": "Waterville School District", "city": "Waterville", "ncessch": "530960001628"}, {"name": "Foothills Middle School", "lat": 47.443, "lon": -120.336, "proficiency": 0.378, "district": "Wenatchee School District", "city": "WENATCHEE", "ncessch": "530966001006"}, {"name": "Orchard Middle School", "lat": 47.426513, "lon": -120.326261, "proficiency": 0.177, "district": "Wenatchee School District", "city": "WENATCHEE", "ncessch": "530966001634"}, {"name": "Centennial Middle School", "lat": 47.6656, "lon": -117.3003, "proficiency": 0.339, "district": "West Valley School District (Spokane)", "city": "SPOKANE", "ncessch": "530969001645"}, {"name": "West Valley City School", "lat": 47.6604, "lon": -117.2847, "proficiency": 0.128, "district": "West Valley School District (Spokane)", "city": "SPOKANE", "ncessch": "530969002685"}, {"name": "West Valley Innovation Center", "lat": 46.574019, "lon": -120.632933, "proficiency": 0.171, "district": "West Valley School District (Yakima)", "city": "Yakima", "ncessch": "530972003820"}, {"name": "West Valley Mid-Level Campus", "lat": 46.5764, "lon": -120.6091, "proficiency": 0.532, "district": "West Valley School District (Yakima)", "city": "Yakima", "ncessch": "530972001653"}, {"name": "White Pass Jr. Sr. High School", "lat": 46.536704, "lon": -121.92987, "proficiency": 0.267, "district": "White Pass School District", "city": "Randle", "ncessch": "530975001659"}, {"name": "Glacier Middle School", "lat": 47.164489, "lon": -122.02269, "proficiency": 0.389, "district": "White River School District", "city": "Buckley", "ncessch": "530978003005"}, {"name": "Wayne M Henkle Middle School", "lat": 45.740122, "lon": -121.494382, "proficiency": 0.409, "district": "White Salmon Valley School District", "city": "WHITE SALMON", "ncessch": "530981001666"}, {"name": "Wilbur Secondary School", "lat": 47.753241, "lon": -118.705664, "proficiency": 0.5, "district": "Wilbur School District", "city": "Wilbur", "ncessch": "530984001668"}, {"name": "Willapa Valley Middle-High", "lat": 46.624158, "lon": -123.65146, "proficiency": 0.133, "district": "Willapa Valley School District", "city": "Menlo", "ncessch": "530987001673"}, {"name": "Winlock Middle School", "lat": 46.4901, "lon": -122.8922, "proficiency": 0.208, "district": "Winlock School District", "city": "WINLOCK", "ncessch": "530993002392"}, {"name": "Lewis River Academy", "lat": 45.904102, "lon": -122.749961, "proficiency": 0.2, "district": "Woodland School District", "city": "Woodland", "ncessch": "531005003371"}, {"name": "Woodland Middle School", "lat": 45.904196, "lon": -122.748343, "proficiency": 0.369, "district": "Woodland School District", "city": "Woodland", "ncessch": "531005003509"}, {"name": "Franklin Middle School", "lat": 46.5934, "lon": -120.5356, "proficiency": 0.153, "district": "Yakima School District", "city": "Yakima", "ncessch": "531011001691"}, {"name": "K-8 Learning Lab", "lat": 46.608666, "lon": -120.56145, "proficiency": 0.042, "district": "Yakima School District", "city": "Yakima", "ncessch": "531011002609"}, {"name": "Lewis & Clark Middle School", "lat": 46.5737, "lon": -120.5242, "proficiency": 0.223, "district": "Yakima School District", "city": "Yakima", "ncessch": "531011001698"}, {"name": "Washington Middle School", "lat": 46.5979, "lon": -120.4917, "proficiency": 0.124, "district": "Yakima School District", "city": "Yakima", "ncessch": "531011001708"}, {"name": "Wilson Middle School", "lat": 46.588, "lon": -120.568, "proficiency": 0.183, "district": "Yakima School District", "city": "Yakima", "ncessch": "531011001710"}, {"name": "Ridgeline Middle School", "lat": 46.9337, "lon": -122.6165, "proficiency": 0.45, "district": "Yelm School District", "city": "Yelm", "ncessch": "531014003068"}, {"name": "Yelm Middle School", "lat": 46.9448, "lon": -122.6095, "proficiency": 0.333, "district": "Yelm School District", "city": "Yelm", "ncessch": "531014001717"}, {"name": "Zillah Middle School", "lat": 46.411973, "lon": -120.273871, "proficiency": 0.25, "district": "Zillah School District", "city": "Zillah", "ncessch": "531017002502"}], "districts": [{"name": "Aberdeen School District", "lat": 46.9636, "lon": -123.7922, "proficiency": 0.189, "schoolCount": 1}, {"name": "Adna School District", "lat": 46.6303, "lon": -123.0568, "proficiency": 0.154, "schoolCount": 1}, {"name": "Almira School District", "lat": 47.7073, "lon": -118.9412, "proficiency": 0.522, "schoolCount": 1}, {"name": "Anacortes School District", "lat": 48.5036, "lon": -122.6182, "proficiency": 0.602, "schoolCount": 1}, {"name": "Arlington School District", "lat": 48.194140000000004, "lon": -122.11555433333332, "proficiency": 0.2327, "schoolCount": 3}, {"name": "Asotin-Anatone School District", "lat": 46.3402, "lon": -117.0518, "proficiency": 0.364, "schoolCount": 1}, {"name": "Sedro-Woolley School District", "lat": 48.51215, "lon": -122.224211, "proficiency": 0.295, "schoolCount": 1}, {"name": "Auburn School District", "lat": 47.2746, "lon": -122.2202, "proficiency": 0.25, "schoolCount": 1}, {"name": "Shelton School District", "lat": 47.22586666666666, "lon": -123.11526666666667, "proficiency": 0.2247, "schoolCount": 3}, {"name": "Rainier School District", "lat": 46.8863, "lon": -122.6885, "proficiency": 0.364, "schoolCount": 1}, {"name": "Bainbridge Island School District", "lat": 47.6408, "lon": -122.5256, "proficiency": 0.6225, "schoolCount": 2}, {"name": "Battle Ground School District", "lat": 45.78231944444445, "lon": -122.54171488888889, "proficiency": 0.3898, "schoolCount": 9}, {"name": "Bellevue School District", "lat": 47.59907483333333, "lon": -122.15414233333333, "proficiency": 0.6043, "schoolCount": 6}, {"name": "North Thurston Public Schools", "lat": 47.04157833333333, "lon": -122.80049733333334, "proficiency": 0.2757, "schoolCount": 6}, {"name": "Mead School District", "lat": 47.7662645, "lon": -117.4098085, "proficiency": 0.4, "schoolCount": 4}, {"name": "Bellingham School District", "lat": 48.74936075, "lon": -122.479544, "proficiency": 0.4395, "schoolCount": 4}, {"name": "Bethel School District", "lat": 47.0767208, "lon": -122.3899124, "proficiency": 0.254, "schoolCount": 5}, {"name": "Issaquah School District", "lat": 47.54121816666666, "lon": -122.04278033333333, "proficiency": 0.6603, "schoolCount": 6}, {"name": "Moses Lake School District", "lat": 47.14173400000001, "lon": -119.287985, "proficiency": 0.1917, "schoolCount": 3}, {"name": "Camas School District", "lat": 45.598468, "lon": -122.44272225, "proficiency": 0.5475, "schoolCount": 4}, {"name": "Blaine School District", "lat": 48.9927, "lon": -122.7383, "proficiency": 0.39, "schoolCount": 1}, {"name": "Bremerton School District", "lat": 47.58178, "lon": -122.61204, "proficiency": 0.169, "schoolCount": 1}, {"name": "Brewster School District", "lat": 48.093992, "lon": -119.785739, "proficiency": 0.298, "schoolCount": 1}, {"name": "Bridgeport School District", "lat": 48.0075, "lon": -119.6752, "proficiency": 0.098, "schoolCount": 1}, {"name": "Burlington-Edison School District", "lat": 48.506960750000005, "lon": -122.38679875, "proficiency": 0.2462, "schoolCount": 4}, {"name": "CASHMERE SCHOOL DISTRICT", "lat": 47.515707, "lon": -120.477123, "proficiency": 0.523, "schoolCount": 1}, {"name": "Carbonado School District", "lat": 47.081347, "lon": -122.054216, "proficiency": 0.667, "schoolCount": 1}, {"name": "Cascade School District", "lat": 47.602, "lon": -120.6561, "proficiency": 0.451, "schoolCount": 1}, {"name": "Castle Rock School District", "lat": 46.2717, "lon": -122.9078, "proficiency": 0.056, "schoolCount": 1}, {"name": "Catalyst Public Schools", "lat": 47.572299, "lon": -122.612001, "proficiency": 0.546, "schoolCount": 1}, {"name": "Central Kitsap School District", "lat": 47.644466, "lon": -122.69353125, "proficiency": 0.3005, "schoolCount": 4}, {"name": "Central Valley School District", "lat": 47.65565766666666, "lon": -117.19789122222222, "proficiency": 0.333, "schoolCount": 9}, {"name": "Centralia School District", "lat": 46.7264, "lon": -122.9826, "proficiency": 0.166, "schoolCount": 1}, {"name": "Chehalis School District", "lat": 46.642865, "lon": -122.941675, "proficiency": 0.289, "schoolCount": 1}, {"name": "Cheney School District", "lat": 47.551887, "lon": -117.5335065, "proficiency": 0.287, "schoolCount": 2}, {"name": "Chewelah School District", "lat": 48.280734499999994, "lon": -117.7123745, "proficiency": 0.133, "schoolCount": 2}, {"name": "Chimacum School District", "lat": 48.012077, "lon": -122.778031, "proficiency": 0.231, "schoolCount": 1}, {"name": "Clarkston School District", "lat": 46.392, "lon": -117.0801, "proficiency": 0.312, "schoolCount": 1}, {"name": "Cle Elum-Roslyn School District", "lat": 47.204357, "lon": -120.973876, "proficiency": 0.374, "schoolCount": 1}, {"name": "Clover Park School District", "lat": 47.1728655, "lon": -122.5308785, "proficiency": 0.1462, "schoolCount": 4}, {"name": "Colfax School District", "lat": 46.8923, "lon": -117.3607, "proficiency": 0.643, "schoolCount": 1}, {"name": "College Place School District", "lat": 46.030326, "lon": -118.386084, "proficiency": 0.293, "schoolCount": 1}, {"name": "Columbia (Walla Walla) School District", "lat": 46.200376, "lon": -119.00988, "proficiency": 0.138, "schoolCount": 1}, {"name": "Colville School District", "lat": 48.5346, "lon": -117.8991, "proficiency": 0.55, "schoolCount": 1}, {"name": "Conway School District", "lat": 48.340472, "lon": -122.318834, "proficiency": 0.442, "schoolCount": 1}, {"name": "Coupeville School District", "lat": 48.206754, "lon": -122.684785, "proficiency": 0.375, "schoolCount": 1}, {"name": "Curlew School District", "lat": 48.87442, "lon": -118.604473, "proficiency": 0.158, "schoolCount": 1}, {"name": "Darrington School District", "lat": 48.246694, "lon": -121.602646, "proficiency": 0.5, "schoolCount": 1}, {"name": "Davenport School District", "lat": 47.651475, "lon": -118.150178, "proficiency": 0.551, "schoolCount": 1}, {"name": "Dayton School District", "lat": 46.316329, "lon": -117.974256, "proficiency": 0.267, "schoolCount": 1}, {"name": "Deer Park School District", "lat": 47.954494499999996, "lon": -117.47210100000001, "proficiency": 0.286, "schoolCount": 2}, {"name": "Dieringer School District", "lat": 47.2487, "lon": -122.161, "proficiency": 0.619, "schoolCount": 1}, {"name": "East Valley School District (Spokane)", "lat": 47.69807666666667, "lon": -117.19136833333334, "proficiency": 0.2927, "schoolCount": 3}, {"name": "East Valley School District (Yakima)", "lat": 46.57258, "lon": -120.405005, "proficiency": 0.342, "schoolCount": 1}, {"name": "Eastmont School District", "lat": 47.416186, "lon": -120.27194499999999, "proficiency": 0.1755, "schoolCount": 2}, {"name": "Eatonville School District", "lat": 46.81135, "lon": -122.18635, "proficiency": 0.2475, "schoolCount": 2}, {"name": "Edmonds School District", "lat": 47.811869, "lon": -122.32250714285715, "proficiency": 0.3286, "schoolCount": 7}, {"name": "Ellensburg School District", "lat": 46.992043, "lon": -120.542798, "proficiency": 0.251, "schoolCount": 1}, {"name": "Elma School District", "lat": 47.003349, "lon": -123.409739, "proficiency": 0.193, "schoolCount": 1}, {"name": "Endicott School District", "lat": 46.933, "lon": -117.6904, "proficiency": 0.647, "schoolCount": 1}, {"name": "Entiat School District", "lat": 47.664444, "lon": -120.225939, "proficiency": 0.48, "schoolCount": 1}, {"name": "Enumclaw School District", "lat": 47.20505, "lon": -121.99785, "proficiency": 0.338, "schoolCount": 2}, {"name": "Ephrata School District", "lat": 47.3142, "lon": -119.5499, "proficiency": 0.346, "schoolCount": 1}, {"name": "Everett School District", "lat": 47.90826, "lon": -122.19811999999999, "proficiency": 0.449, "schoolCount": 5}, {"name": "Evergreen School District (Clark)", "lat": 45.642135714285715, "lon": -122.51787514285715, "proficiency": 0.2366, "schoolCount": 7}, {"name": "Federal Way School District", "lat": 47.316875700000004, "lon": -122.31455229999999, "proficiency": 0.211, "schoolCount": 10}, {"name": "Ferndale School District", "lat": 48.86095, "lon": -122.61435, "proficiency": 0.3385, "schoolCount": 2}, {"name": "Fife School District", "lat": 47.231, "lon": -122.3553, "proficiency": 0.21, "schoolCount": 1}, {"name": "Finley School District", "lat": 46.1549, "lon": -119.0346, "proficiency": 0.09, "schoolCount": 1}, {"name": "Franklin Pierce School District", "lat": 47.15315, "lon": -122.43035, "proficiency": 0.183, "schoolCount": 2}, {"name": "Freeman School District", "lat": 47.5177, "lon": -117.1944, "proficiency": 0.429, "schoolCount": 1}, {"name": "Garfield School District", "lat": 47.013565, "lon": -117.140136, "proficiency": 0.417, "schoolCount": 1}, {"name": "Goldendale School District", "lat": 45.818117, "lon": -120.814176, "proficiency": 0.1445, "schoolCount": 2}, {"name": "Grandview School District", "lat": 46.255454, "lon": -119.921225, "proficiency": 0.258, "schoolCount": 1}, {"name": "Granger School District", "lat": 46.3466, "lon": -120.1898, "proficiency": 0.078, "schoolCount": 1}, {"name": "Granite Falls School District", "lat": 48.087278, "lon": -121.962664, "proficiency": 0.188, "schoolCount": 1}, {"name": "Grapeview School District", "lat": 47.32, "lon": -122.9167, "proficiency": 0.394, "schoolCount": 1}, {"name": "Green Mountain School District", "lat": 45.948256, "lon": -122.538843, "proficiency": 0.533, "schoolCount": 1}, {"name": "Griffin School District", "lat": 47.080628, "lon": -123.018855, "proficiency": 0.513, "schoolCount": 1}, {"name": "Highland School District", "lat": 46.674805, "lon": -120.712021, "proficiency": 0.079, "schoolCount": 1}, {"name": "Highline School District", "lat": 47.450995375, "lon": -122.32019575, "proficiency": 0.2206, "schoolCount": 8}, {"name": "Hockinson School District", "lat": 45.740464, "lon": -122.487368, "proficiency": 0.526, "schoolCount": 1}, {"name": "Hood Canal School District", "lat": 47.333201, "lon": -123.15869, "proficiency": 0.207, "schoolCount": 1}, {"name": "Hoquiam School District", "lat": 46.9831, "lon": -123.9052, "proficiency": 0.118, "schoolCount": 1}, {"name": "Inchelium School District", "lat": 48.301363, "lon": -118.198168, "proficiency": 0.211, "schoolCount": 1}, {"name": "Kalama School District", "lat": 46.008516, "lon": -122.839368, "proficiency": 0.203, "schoolCount": 1}, {"name": "Kelso School District", "lat": 46.159505, "lon": -122.90636133333334, "proficiency": 0.1617, "schoolCount": 3}, {"name": "Kennewick School District", "lat": 46.19270583333333, "lon": -119.18339850000001, "proficiency": 0.2198, "schoolCount": 6}, {"name": "Kent School District", "lat": 47.395464125000004, "lon": -122.161165625, "proficiency": 0.2993, "schoolCount": 8}, {"name": "Kettle Falls School District", "lat": 48.6025, "lon": -118.0557, "proficiency": 0.327, "schoolCount": 1}, {"name": "Kiona-Benton City School District", "lat": 46.27004, "lon": -119.489613, "proficiency": 0.094, "schoolCount": 1}, {"name": "La Center School District", "lat": 45.859147, "lon": -122.64999, "proficiency": 0.336, "schoolCount": 1}, {"name": "La Conner School District", "lat": 48.394765, "lon": -122.489504, "proficiency": 0.174, "schoolCount": 1}, {"name": "Lake Chelan School District", "lat": 47.835099, "lon": -120.020326, "proficiency": 0.193, "schoolCount": 1}, {"name": "Lake Stevens School District", "lat": 47.972962, "lon": -122.121981, "proficiency": 0.356, "schoolCount": 1}, {"name": "Lake Washington School District", "lat": 47.67504007142857, "lon": -122.14211814285714, "proficiency": 0.68, "schoolCount": 14}, {"name": "Lakewood School District", "lat": 48.148889, "lon": -122.208951, "proficiency": 0.194, "schoolCount": 1}, {"name": "Liberty School District", "lat": 47.3821, "lon": -117.3216, "proficiency": 0.3, "schoolCount": 1}, {"name": "Lind School District", "lat": 46.975238, "lon": -118.61753, "proficiency": 0.313, "schoolCount": 1}, {"name": "Longview School District", "lat": 46.153070333333325, "lon": -122.973426, "proficiency": 0.29, "schoolCount": 3}, {"name": "Lopez School District", "lat": 48.492136, "lon": -122.897935, "proficiency": 0.474, "schoolCount": 1}, {"name": "Lynden School District", "lat": 48.953149, "lon": -122.44999, "proficiency": 0.308, "schoolCount": 2}, {"name": "Manson School District", "lat": 47.891461, "lon": -120.153354, "proficiency": 0.1, "schoolCount": 1}, {"name": "Mary M Knight School District", "lat": 47.0914245, "lon": -123.16829050000001, "proficiency": 0.2225, "schoolCount": 2}, {"name": "Mary Walker School District", "lat": 48.059856, "lon": -117.745927, "proficiency": 0.133, "schoolCount": 1}, {"name": "Marysville School District", "lat": 48.062082000000004, "lon": -122.170412, "proficiency": 0.2035, "schoolCount": 4}, {"name": "McCleary School District", "lat": 47.04924, "lon": -123.265739, "proficiency": 0.205, "schoolCount": 1}, {"name": "Medical Lake School District", "lat": 47.5721, "lon": -117.6696, "proficiency": 0.38, "schoolCount": 1}, {"name": "Mercer Island School District", "lat": 47.5374, "lon": -122.2285, "proficiency": 0.669, "schoolCount": 1}, {"name": "Meridian School District", "lat": 48.862558, "lon": -122.469401, "proficiency": 0.34, "schoolCount": 2}, {"name": "Methow Valley School District", "lat": 48.4421, "lon": -120.17, "proficiency": 0.552, "schoolCount": 1}, {"name": "Monroe School District", "lat": 47.83555533333333, "lon": -122.02455866666666, "proficiency": 0.321, "schoolCount": 3}, {"name": "Montesano School District", "lat": 46.9842, "lon": -123.5977, "proficiency": 0.341, "schoolCount": 1}, {"name": "Morton School District", "lat": 46.5528, "lon": -122.2722, "proficiency": 0.294, "schoolCount": 1}, {"name": "Mossyrock School District", "lat": 46.530402, "lon": -122.485903, "proficiency": 0.073, "schoolCount": 1}, {"name": "Mount Baker School District", "lat": 48.825958, "lon": -122.222346, "proficiency": 0.25, "schoolCount": 1}, {"name": "Mount Vernon School District", "lat": 48.41651099999999, "lon": -122.32139, "proficiency": 0.2063, "schoolCount": 3}, {"name": "Mukilteo School District", "lat": 47.9093, "lon": -122.27165, "proficiency": 0.3765, "schoolCount": 4}, {"name": "Naches Valley School District", "lat": 46.7291, "lon": -120.6968, "proficiency": 0.137, "schoolCount": 1}, {"name": "Napavine School District", "lat": 46.5771, "lon": -122.9039, "proficiency": 0.188, "schoolCount": 1}, {"name": "Naselle-Grays River Valley School District", "lat": 46.376734, "lon": -123.801799, "proficiency": 0.414, "schoolCount": 1}, {"name": "Newport School District", "lat": 48.1788, "lon": -117.0533, "proficiency": 0.216, "schoolCount": 1}, {"name": "Nine Mile Falls School District", "lat": 47.829063, "lon": -117.599485, "proficiency": 0.514, "schoolCount": 1}, {"name": "Nooksack Valley School District", "lat": 48.9206, "lon": -122.3274, "proficiency": 0.443, "schoolCount": 1}, {"name": "North Beach School District No. 64", "lat": 47.019175, "lon": -124.15839, "proficiency": 0.207, "schoolCount": 1}, {"name": "North Franklin School District", "lat": 46.662577, "lon": -118.870481, "proficiency": 0.163, "schoolCount": 1}, {"name": "North Kitsap School District", "lat": 47.764250000000004, "lon": -122.57464999999999, "proficiency": 0.3905, "schoolCount": 2}, {"name": "North Mason School District", "lat": 47.413467, "lon": -122.841348, "proficiency": 0.289, "schoolCount": 1}, {"name": "Northport School District", "lat": 48.911853, "lon": -117.789274, "proficiency": 0.353, "schoolCount": 1}, {"name": "Northshore School District", "lat": 47.77130628571428, "lon": -122.15358628571428, "proficiency": 0.5071, "schoolCount": 7}, {"name": "Oak Harbor School District", "lat": 48.2993, "lon": -122.6479, "proficiency": 0.365, "schoolCount": 1}, {"name": "Oakesdale School District", "lat": 47.1267, "lon": -117.2438, "proficiency": 0.467, "schoolCount": 1}, {"name": "Ocean Beach School District", "lat": 46.311123, "lon": -124.03834, "proficiency": 0.167, "schoolCount": 1}, {"name": "Ocosta School District", "lat": 46.863504, "lon": -124.10024, "proficiency": 0.135, "schoolCount": 1}, {"name": "Odessa School District", "lat": 47.330708, "lon": -118.688616, "proficiency": 0.143, "schoolCount": 1}, {"name": "Okanogan School District", "lat": 48.365, "lon": -119.5853, "proficiency": 0.356, "schoolCount": 1}, {"name": "Olympia School District", "lat": 47.0473738, "lon": -122.9013252, "proficiency": 0.4, "schoolCount": 5}, {"name": "Omak School District", "lat": 48.410734000000005, "lon": -119.5357845, "proficiency": 0.097, "schoolCount": 2}, {"name": "Onalaska School District", "lat": 46.5817, "lon": -122.7186, "proficiency": 0.282, "schoolCount": 1}, {"name": "Orcas Island School District", "lat": 48.699133, "lon": -122.902922, "proficiency": 0.176, "schoolCount": 1}, {"name": "Oroville School District", "lat": 48.9345, "lon": -119.439, "proficiency": 0.163, "schoolCount": 1}, {"name": "Orting School District", "lat": 47.102858, "lon": -122.217639, "proficiency": 0.23, "schoolCount": 1}, {"name": "Othello School District", "lat": 46.817879, "lon": -119.159727, "proficiency": 0.104, "schoolCount": 1}, {"name": "PRIDE Prep Charter School District", "lat": 47.657663, "lon": -117.398305, "proficiency": 0.224, "schoolCount": 1}, {"name": "Palouse School District", "lat": 46.912588, "lon": -117.070953, "proficiency": 0.294, "schoolCount": 1}, {"name": "Pasco School District", "lat": 46.255672399999995, "lon": -119.1634966, "proficiency": 0.1786, "schoolCount": 5}, {"name": "Pateros School District", "lat": 48.051967, "lon": -119.906507, "proficiency": 0.158, "schoolCount": 1}, {"name": "Paterson School District", "lat": 45.9386, "lon": -119.6091, "proficiency": 0.688, "schoolCount": 1}, {"name": "Pe Ell School District", "lat": 46.5749, "lon": -123.2991, "proficiency": 0.188, "schoolCount": 1}, {"name": "Peninsula School District", "lat": 47.311375, "lon": -122.655325, "proficiency": 0.4475, "schoolCount": 4}, {"name": "Pinnacles Prep Charter School", "lat": 47.417103, "lon": -120.308942, "proficiency": 0.396, "schoolCount": 1}, {"name": "Pioneer School District", "lat": 47.257961, "lon": -123.003383, "proficiency": 0.281, "schoolCount": 1}, {"name": "Pomeroy School District", "lat": 46.4718, "lon": -117.5959, "proficiency": 0.455, "schoolCount": 1}, {"name": "Port Angeles School District", "lat": 48.1169, "lon": -123.4655, "proficiency": 0.438, "schoolCount": 1}, {"name": "Port Townsend School District", "lat": 48.129, "lon": -122.7791, "proficiency": 0.342, "schoolCount": 1}, {"name": "Prosser School District", "lat": 46.2088, "lon": -119.7529, "proficiency": 0.251, "schoolCount": 1}, {"name": "Pullman School District", "lat": 46.718203, "lon": -117.17841, "proficiency": 0.605, "schoolCount": 1}, {"name": "Puyallup School District", "lat": 47.1569405, "lon": -122.290249625, "proficiency": 0.294, "schoolCount": 8}, {"name": "Quilcene School District", "lat": 47.8236, "lon": -122.8745, "proficiency": 0.233, "schoolCount": 1}, {"name": "Quincy School District", "lat": 47.236653, "lon": -119.840745, "proficiency": 0.236, "schoolCount": 1}, {"name": "Quillayute Valley School District", "lat": 47.9480815, "lon": -124.3837045, "proficiency": 0.1295, "schoolCount": 2}, {"name": "Rainier Prep Charter School District", "lat": 47.51151, "lon": -122.318361, "proficiency": 0.564, "schoolCount": 1}, {"name": "Raymond School District", "lat": 46.684986, "lon": -123.725165, "proficiency": 0.156, "schoolCount": 1}, {"name": "Reardan-Edwall School District", "lat": 47.667947, "lon": -117.875768, "proficiency": 0.511, "schoolCount": 1}, {"name": "Renton School District", "lat": 47.490671, "lon": -122.19924180000001, "proficiency": 0.3168, "schoolCount": 5}, {"name": "Richland School District", "lat": 46.28300816666666, "lon": -119.31515083333333, "proficiency": 0.2512, "schoolCount": 6}, {"name": "Ridgefield School District", "lat": 45.798994, "lon": -122.6995615, "proficiency": 0.3305, "schoolCount": 2}, {"name": "Ritzville School District", "lat": 46.975238, "lon": -118.61753, "proficiency": 0.212, "schoolCount": 1}, {"name": "Riverside School District", "lat": 47.9661, "lon": -117.3539, "proficiency": 0.398, "schoolCount": 1}, {"name": "Riverview School District", "lat": 47.642428, "lon": -121.913785, "proficiency": 0.493, "schoolCount": 1}, {"name": "Rochester School District", "lat": 46.8208, "lon": -123.0914, "proficiency": 0.407, "schoolCount": 1}, {"name": "Royal School District", "lat": 46.912, "lon": -119.6277, "proficiency": 0.179, "schoolCount": 1}, {"name": "San Juan Island School District", "lat": 48.534854, "lon": -123.020829, "proficiency": 0.368, "schoolCount": 1}, {"name": "Seattle School District No. 1", "lat": 47.627266999999996, "lon": -122.33737986956521, "proficiency": 0.4494, "schoolCount": 23}, {"name": "Selah School District", "lat": 46.659778, "lon": -120.527787, "proficiency": 0.263, "schoolCount": 1}, {"name": "Selkirk School District", "lat": 48.81916, "lon": -117.39802, "proficiency": 0.522, "schoolCount": 1}, {"name": "Sequim School District", "lat": 48.084635500000005, "lon": -123.106064, "proficiency": 0.526, "schoolCount": 2}, {"name": "Shoreline School District", "lat": 47.76370633333334, "lon": -122.32189199999999, "proficiency": 0.534, "schoolCount": 3}, {"name": "Snohomish School District", "lat": 47.918306, "lon": -122.0850235, "proficiency": 0.4135, "schoolCount": 2}, {"name": "Snoqualmie Valley School District", "lat": 47.5199355, "lon": -121.81209025, "proficiency": 0.545, "schoolCount": 4}, {"name": "Soap Lake School District", "lat": 47.3866, "lon": -119.4972, "proficiency": 0.133, "schoolCount": 1}, {"name": "South Bend School District", "lat": 46.661769, "lon": -123.791741, "proficiency": 0.229, "schoolCount": 1}, {"name": "South Kitsap School District", "lat": 47.52155425, "lon": -122.60205, "proficiency": 0.309, "schoolCount": 4}, {"name": "South Whidbey School District", "lat": 48.005466, "lon": -122.409837, "proficiency": 0.481, "schoolCount": 1}, {"name": "Spokane International Academy", "lat": 47.738621, "lon": -117.39772, "proficiency": 0.529, "schoolCount": 1}, {"name": "Spokane School District", "lat": 47.67532430769231, "lon": -117.40841738461539, "proficiency": 0.3534, "schoolCount": 13}, {"name": "Stanwood-Camano School District", "lat": 48.240599333333336, "lon": -122.34470766666668, "proficiency": 0.324, "schoolCount": 3}, {"name": "Starbuck School District", "lat": 46.517284, "lon": -118.121192, "proficiency": 0.12, "schoolCount": 1}, {"name": "Steilacoom Hist. School District", "lat": 47.10092, "lon": -122.64956, "proficiency": 0.364, "schoolCount": 1}, {"name": "Stevenson-Carson School District", "lat": 45.726722, "lon": -121.811, "proficiency": 0.404, "schoolCount": 1}, {"name": "Sultan School District", "lat": 47.8694, "lon": -121.8175, "proficiency": 0.364, "schoolCount": 1}, {"name": "Summit Public School: Atlas", "lat": 47.51709, "lon": -122.377971, "proficiency": 0.349, "schoolCount": 1}, {"name": "Sumner-Bonney Lake School District", "lat": 47.18518233333333, "lon": -122.19568299999999, "proficiency": 0.432, "schoolCount": 3}, {"name": "Sunnyside School District", "lat": 46.327935, "lon": -119.99776750000001, "proficiency": 0.131, "schoolCount": 2}, {"name": "Tacoma School District", "lat": 47.23927616666666, "lon": -122.46766124999999, "proficiency": 0.1945, "schoolCount": 12}, {"name": "Tahoma School District", "lat": 47.380725, "lon": -122.05033449999999, "proficiency": 0.5815, "schoolCount": 2}, {"name": "Tekoa School District", "lat": 47.2238, "lon": -117.0678, "proficiency": 0.177, "schoolCount": 1}, {"name": "Tenino School District", "lat": 46.861478, "lon": -122.848826, "proficiency": 0.227, "schoolCount": 1}, {"name": "Toledo School District", "lat": 46.4409, "lon": -122.8498, "proficiency": 0.274, "schoolCount": 1}, {"name": "Tonasket School District", "lat": 48.70146, "lon": -119.435029, "proficiency": 0.203, "schoolCount": 1}, {"name": "Toppenish School District", "lat": 46.3833, "lon": -120.3133, "proficiency": 0.126, "schoolCount": 1}, {"name": "Touchet School District", "lat": 46.043441, "lon": -118.671939, "proficiency": 0.474, "schoolCount": 1}, {"name": "Toutle Lake School District", "lat": 46.3236, "lon": -122.7405, "proficiency": 0.097, "schoolCount": 1}, {"name": "Trout Lake School District", "lat": 45.989195, "lon": -121.515747, "proficiency": 0.191, "schoolCount": 1}, {"name": "Tukwila School District", "lat": 47.4749, "lon": -122.2748, "proficiency": 0.103, "schoolCount": 1}, {"name": "Tumwater School District", "lat": 46.9801515, "lon": -122.926367, "proficiency": 0.4245, "schoolCount": 2}, {"name": "Union Gap School District", "lat": 46.556098, "lon": -120.479357, "proficiency": 0.4, "schoolCount": 1}, {"name": "University Place School District", "lat": 47.22343, "lon": -122.553662, "proficiency": 0.412, "schoolCount": 1}, {"name": "Valley School District", "lat": 48.170482, "lon": -117.721184, "proficiency": 0.095, "schoolCount": 1}, {"name": "Vancouver School District", "lat": 45.683180125, "lon": -122.659273, "proficiency": 0.2405, "schoolCount": 8}, {"name": "Vashon Island School District", "lat": 47.4282, "lon": -122.4545, "proficiency": 0.65, "schoolCount": 1}, {"name": "Wahkiakum School District", "lat": 46.201487, "lon": -123.380647, "proficiency": 0.367, "schoolCount": 1}, {"name": "Wahluke School District", "lat": 46.742844, "lon": -119.896886, "proficiency": 0.236, "schoolCount": 1}, {"name": "Walla Walla Public Schools", "lat": 46.0548, "lon": -118.3414, "proficiency": 0.337, "schoolCount": 1}, {"name": "Wenatchee School District", "lat": 47.427404333333335, "lon": -120.32825366666667, "proficiency": 0.2397, "schoolCount": 3}, {"name": "Wapato School District", "lat": 46.4361, "lon": -120.4105, "proficiency": 0.149, "schoolCount": 1}, {"name": "Warden School District", "lat": 46.9606, "lon": -119.0415, "proficiency": 0.169, "schoolCount": 1}, {"name": "Washougal School District", "lat": 45.593092, "lon": -122.2716985, "proficiency": 0.432, "schoolCount": 2}, {"name": "Waterville School District", "lat": 47.6452, "lon": -120.0696, "proficiency": 0.438, "schoolCount": 1}, {"name": "West Valley School District (Spokane)", "lat": 47.663, "lon": -117.29249999999999, "proficiency": 0.2335, "schoolCount": 2}, {"name": "West Valley School District (Yakima)", "lat": 46.5752095, "lon": -120.6210165, "proficiency": 0.3515, "schoolCount": 2}, {"name": "White Pass School District", "lat": 46.536704, "lon": -121.92987, "proficiency": 0.267, "schoolCount": 1}, {"name": "White River School District", "lat": 47.164489, "lon": -122.02269, "proficiency": 0.389, "schoolCount": 1}, {"name": "White Salmon Valley School District", "lat": 45.740122, "lon": -121.494382, "proficiency": 0.409, "schoolCount": 1}, {"name": "Wilbur School District", "lat": 47.753241, "lon": -118.705664, "proficiency": 0.5, "schoolCount": 1}, {"name": "Willapa Valley School District", "lat": 46.624158, "lon": -123.65146, "proficiency": 0.133, "schoolCount": 1}, {"name": "Winlock School District", "lat": 46.4901, "lon": -122.8922, "proficiency": 0.208, "schoolCount": 1}, {"name": "Woodland School District", "lat": 45.904149000000004, "lon": -122.74915200000001, "proficiency": 0.2845, "schoolCount": 2}, {"name": "Yakima School District", "lat": 46.5923332, "lon": -120.53618999999999, "proficiency": 0.145, "schoolCount": 5}, {"name": "Yelm School District", "lat": 46.93925, "lon": -122.613, "proficiency": 0.3915, "schoolCount": 2}, {"name": "Zillah School District", "lat": 46.411973, "lon": -120.273871, "proficiency": 0.25, "schoolCount": 1}], "cities": [{"name": "Aberdeen", "lat": 46.9636, "lon": -123.7922, "proficiency": 0.189, "schoolCount": 1}, {"name": "Adna", "lat": 46.6303, "lon": -123.0568, "proficiency": 0.154, "schoolCount": 1}, {"name": "ALMIRA", "lat": 47.7073, "lon": -118.9412, "proficiency": 0.522, "schoolCount": 1}, {"name": "Anacortes", "lat": 48.5036, "lon": -122.6182, "proficiency": 0.602, "schoolCount": 1}, {"name": "Arlington", "lat": 48.194140000000004, "lon": -122.11555433333332, "proficiency": 0.2327, "schoolCount": 3}, {"name": "ASOTIN", "lat": 46.3402, "lon": -117.0518, "proficiency": 0.364, "schoolCount": 1}, {"name": "Sedro-Woolley", "lat": 48.51215, "lon": -122.224211, "proficiency": 0.295, "schoolCount": 1}, {"name": "AUBURN", "lat": 47.3007, "lon": -122.2492, "proficiency": 0.209, "schoolCount": 2}, {"name": "Shelton", "lat": 47.252700250000004, "lon": -123.12612250000001, "proficiency": 0.2203, "schoolCount": 4}, {"name": "Rainier", "lat": 46.8863, "lon": -122.6885, "proficiency": 0.364, "schoolCount": 1}, {"name": "Bainbridge Island", "lat": 47.6408, "lon": -122.5256, "proficiency": 0.6225, "schoolCount": 2}, {"name": "Battle Ground", "lat": 45.781239375, "lon": -122.541201625, "proficiency": 0.3515, "schoolCount": 8}, {"name": "BATTLE GROUND", "lat": 45.79096, "lon": -122.545821, "proficiency": 0.696, "schoolCount": 1}, {"name": "Bellevue", "lat": 47.59907483333333, "lon": -122.15414233333333, "proficiency": 0.6043, "schoolCount": 6}, {"name": "Lacey", "lat": 47.04157833333333, "lon": -122.80049733333334, "proficiency": 0.2757, "schoolCount": 6}, {"name": "Spokane", "lat": 47.67906855555556, "lon": -117.40177050000001, "proficiency": 0.3686, "schoolCount": 18}, {"name": "Bellingham", "lat": 48.770691799999994, "lon": -122.48239559999999, "proficiency": 0.4278, "schoolCount": 5}, {"name": "Spanaway", "lat": 47.066267333333336, "lon": -122.39733766666666, "proficiency": 0.2997, "schoolCount": 3}, {"name": "SPANAWAY", "lat": 47.069286, "lon": -122.329564, "proficiency": 0.076, "schoolCount": 1}, {"name": "Issaquah", "lat": 47.5457695, "lon": -122.03753599999999, "proficiency": 0.652, "schoolCount": 2}, {"name": "MOSES LAKE", "lat": 47.12115, "lon": -119.2712, "proficiency": 0.2205, "schoolCount": 2}, {"name": "Camas", "lat": 45.598468, "lon": -122.44272225, "proficiency": 0.5475, "schoolCount": 4}, {"name": "Tacoma", "lat": 47.225288666666664, "lon": -122.45358800000001, "proficiency": 0.2083, "schoolCount": 15}, {"name": "BLAINE", "lat": 48.9927, "lon": -122.7383, "proficiency": 0.39, "schoolCount": 1}, {"name": "Bremerton", "lat": 47.5770395, "lon": -122.6120205, "proficiency": 0.3575, "schoolCount": 2}, {"name": "BREWSTER", "lat": 48.093992, "lon": -119.785739, "proficiency": 0.298, "schoolCount": 1}, {"name": "Bridgeport", "lat": 48.0075, "lon": -119.6752, "proficiency": 0.098, "schoolCount": 1}, {"name": "BOW", "lat": 48.5093, "lon": -122.3741, "proficiency": 0.389, "schoolCount": 1}, {"name": "BURLINGTON", "lat": 48.4785715, "lon": -122.3674475, "proficiency": 0.123, "schoolCount": 2}, {"name": "EDISON", "lat": 48.5614, "lon": -122.4382, "proficiency": 0.35, "schoolCount": 1}, {"name": "Cashmere", "lat": 47.515707, "lon": -120.477123, "proficiency": 0.523, "schoolCount": 1}, {"name": "Carbonado", "lat": 47.081347, "lon": -122.054216, "proficiency": 0.667, "schoolCount": 1}, {"name": "Leavenworth", "lat": 47.602, "lon": -120.6561, "proficiency": 0.451, "schoolCount": 1}, {"name": "CASTLE ROCK", "lat": 46.2717, "lon": -122.9078, "proficiency": 0.056, "schoolCount": 1}, {"name": "SILVERDALE", "lat": 47.646988, "lon": -122.70754166666666, "proficiency": 0.32, "schoolCount": 3}, {"name": "BREMERTON", "lat": 47.6369, "lon": -122.6515, "proficiency": 0.242, "schoolCount": 1}, {"name": "Spokane Valley", "lat": 47.6624819, "lon": -117.2045331, "proficiency": 0.2971, "schoolCount": 10}, {"name": "Liberty Lake", "lat": 47.67053, "lon": -117.132695, "proficiency": 0.46, "schoolCount": 1}, {"name": "Centralia", "lat": 46.7264, "lon": -122.9826, "proficiency": 0.166, "schoolCount": 1}, {"name": "Chehalis", "lat": 46.642865, "lon": -122.941675, "proficiency": 0.289, "schoolCount": 1}, {"name": "CHENEY", "lat": 47.506631, "lon": -117.579545, "proficiency": 0.244, "schoolCount": 1}, {"name": "Chewelah", "lat": 48.280734499999994, "lon": -117.7123745, "proficiency": 0.133, "schoolCount": 2}, {"name": "Chimacum", "lat": 48.012077, "lon": -122.778031, "proficiency": 0.231, "schoolCount": 1}, {"name": "Clarkston", "lat": 46.392, "lon": -117.0801, "proficiency": 0.312, "schoolCount": 1}, {"name": "Cle Elum", "lat": 47.204357, "lon": -120.973876, "proficiency": 0.374, "schoolCount": 1}, {"name": "Lakewood", "lat": 47.1728655, "lon": -122.5308785, "proficiency": 0.1462, "schoolCount": 4}, {"name": "Colfax", "lat": 46.8923, "lon": -117.3607, "proficiency": 0.643, "schoolCount": 1}, {"name": "COLLEGE PLACE", "lat": 46.030326, "lon": -118.386084, "proficiency": 0.293, "schoolCount": 1}, {"name": "BURBANK", "lat": 46.200376, "lon": -119.00988, "proficiency": 0.138, "schoolCount": 1}, {"name": "Colville", "lat": 48.5346, "lon": -117.8991, "proficiency": 0.55, "schoolCount": 1}, {"name": "Mount Vernon", "lat": 48.39750125, "lon": -122.320751, "proficiency": 0.2652, "schoolCount": 4}, {"name": "Coupeville", "lat": 48.206754, "lon": -122.684785, "proficiency": 0.375, "schoolCount": 1}, {"name": "Curlew", "lat": 48.87442, "lon": -118.604473, "proficiency": 0.158, "schoolCount": 1}, {"name": "DARRINGTON", "lat": 48.246694, "lon": -121.602646, "proficiency": 0.5, "schoolCount": 1}, {"name": "DAVENPORT", "lat": 47.651475, "lon": -118.150178, "proficiency": 0.551, "schoolCount": 1}, {"name": "Dayton", "lat": 46.316329, "lon": -117.974256, "proficiency": 0.267, "schoolCount": 1}, {"name": "Deer Park", "lat": 47.954494499999996, "lon": -117.47210100000001, "proficiency": 0.286, "schoolCount": 2}, {"name": "Lake Tapps", "lat": 47.2487, "lon": -122.161, "proficiency": 0.619, "schoolCount": 1}, {"name": "YAKIMA", "lat": 46.57258, "lon": -120.405005, "proficiency": 0.342, "schoolCount": 1}, {"name": "East Wenatchee", "lat": 47.416186, "lon": -120.27194499999999, "proficiency": 0.1755, "schoolCount": 2}, {"name": "Ashford", "lat": 46.7542, "lon": -122.1097, "proficiency": 0.333, "schoolCount": 1}, {"name": "Eatonville", "lat": 46.8685, "lon": -122.263, "proficiency": 0.162, "schoolCount": 1}, {"name": "LYNNWOOD", "lat": 47.832714, "lon": -122.30193533333333, "proficiency": 0.3207, "schoolCount": 3}, {"name": "BRIER", "lat": 47.7982, "lon": -122.277, "proficiency": 0.489, "schoolCount": 1}, {"name": "Edmonds", "lat": 47.784820499999995, "lon": -122.362972, "proficiency": 0.278, "schoolCount": 2}, {"name": "EDMONDS", "lat": 47.8171, "lon": -122.3488, "proficiency": 0.293, "schoolCount": 1}, {"name": "Ellensburg", "lat": 46.992043, "lon": -120.542798, "proficiency": 0.251, "schoolCount": 1}, {"name": "Elma", "lat": 47.1013395, "lon": -123.42108, "proficiency": 0.1905, "schoolCount": 2}, {"name": "Endicott", "lat": 46.933, "lon": -117.6904, "proficiency": 0.647, "schoolCount": 1}, {"name": "ENTIAT", "lat": 47.664444, "lon": -120.225939, "proficiency": 0.48, "schoolCount": 1}, {"name": "Enumclaw", "lat": 47.20505, "lon": -121.99785, "proficiency": 0.338, "schoolCount": 2}, {"name": "EPHRATA", "lat": 47.3142, "lon": -119.5499, "proficiency": 0.346, "schoolCount": 1}, {"name": "Everett", "lat": 47.91216666666667, "lon": -122.2111, "proficiency": 0.3722, "schoolCount": 6}, {"name": "Mill Creek", "lat": 47.8721, "lon": -122.2093, "proficiency": 0.556, "schoolCount": 1}, {"name": "Vancouver", "lat": 45.642135714285715, "lon": -122.51787514285715, "proficiency": 0.2366, "schoolCount": 7}, {"name": "KENT", "lat": 47.361341, "lon": -122.282954, "proficiency": 0.102, "schoolCount": 1}, {"name": "FEDERAL WAY", "lat": 47.30564275, "lon": -122.33255875, "proficiency": 0.316, "schoolCount": 4}, {"name": "Federal Way", "lat": 47.3084725, "lon": -122.326867, "proficiency": 0.125, "schoolCount": 2}, {"name": "Auburn", "lat": 47.2778, "lon": -122.2881, "proficiency": 0.166, "schoolCount": 1}, {"name": "DES MOINES", "lat": 47.3633, "lon": -122.3123, "proficiency": 0.16, "schoolCount": 1}, {"name": "Ferndale", "lat": 48.86095, "lon": -122.61435, "proficiency": 0.3385, "schoolCount": 2}, {"name": "KENNEWICK", "lat": 46.187875, "lon": -119.15832083333333, "proficiency": 0.1927, "schoolCount": 6}, {"name": "TACOMA", "lat": 47.1448, "lon": -122.4521, "proficiency": 0.08, "schoolCount": 1}, {"name": "Rockford", "lat": 47.5177, "lon": -117.1944, "proficiency": 0.429, "schoolCount": 1}, {"name": "Garfield", "lat": 47.013565, "lon": -117.140136, "proficiency": 0.417, "schoolCount": 1}, {"name": "GOLDENDALE", "lat": 45.8187, "lon": -120.8147, "proficiency": 0.108, "schoolCount": 1}, {"name": "Goldendale", "lat": 45.817534, "lon": -120.813652, "proficiency": 0.181, "schoolCount": 1}, {"name": "Grandview", "lat": 46.255454, "lon": -119.921225, "proficiency": 0.258, "schoolCount": 1}, {"name": "Granger", "lat": 46.3466, "lon": -120.1898, "proficiency": 0.078, "schoolCount": 1}, {"name": "Granite Falls", "lat": 48.087278, "lon": -121.962664, "proficiency": 0.188, "schoolCount": 1}, {"name": "Grapeview", "lat": 47.32, "lon": -122.9167, "proficiency": 0.394, "schoolCount": 1}, {"name": "WOODLAND", "lat": 45.948256, "lon": -122.538843, "proficiency": 0.533, "schoolCount": 1}, {"name": "Olympia", "lat": 47.0588985, "lon": -122.9433405, "proficiency": 0.328, "schoolCount": 2}, {"name": "Cowiche", "lat": 46.674805, "lon": -120.712021, "proficiency": 0.079, "schoolCount": 1}, {"name": "Burien", "lat": 47.447290499999994, "lon": -122.33416, "proficiency": 0.2715, "schoolCount": 2}, {"name": "Seattle", "lat": 47.572455363636365, "lon": -122.31802418181819, "proficiency": 0.4006, "schoolCount": 11}, {"name": "SeaTac", "lat": 47.456436, "lon": -122.290202, "proficiency": 0.139, "schoolCount": 2}, {"name": "BURIEN", "lat": 47.46228, "lon": -122.337961, "proficiency": 0.111, "schoolCount": 1}, {"name": "Des Moines", "lat": 47.3984, "lon": -122.3034, "proficiency": 0.151, "schoolCount": 1}, {"name": "BRUSH PRAIRIE", "lat": 45.740464, "lon": -122.487368, "proficiency": 0.526, "schoolCount": 1}, {"name": "Hoquiam", "lat": 46.9831, "lon": -123.9052, "proficiency": 0.118, "schoolCount": 1}, {"name": "Inchelium", "lat": 48.301363, "lon": -118.198168, "proficiency": 0.211, "schoolCount": 1}, {"name": "ISSAQUAH", "lat": 47.5520635, "lon": -122.0172335, "proficiency": 0.6185, "schoolCount": 2}, {"name": "RENTON", "lat": 47.4713, "lon": -122.1149, "proficiency": 0.681, "schoolCount": 1}, {"name": "SAMMAMISH", "lat": 47.580343, "lon": -122.032243, "proficiency": 0.74, "schoolCount": 1}, {"name": "Kalama", "lat": 46.008516, "lon": -122.839368, "proficiency": 0.203, "schoolCount": 1}, {"name": "Kelso", "lat": 46.149100000000004, "lon": -122.8966, "proficiency": 0.19, "schoolCount": 2}, {"name": "Longview", "lat": 46.1598815, "lon": -122.9615405, "proficiency": 0.2437, "schoolCount": 4}, {"name": "Kennewick", "lat": 46.183885, "lon": -119.185066, "proficiency": 0.253, "schoolCount": 1}, {"name": "Kent", "lat": 47.389821, "lon": -122.2004495, "proficiency": 0.258, "schoolCount": 4}, {"name": "Covington", "lat": 47.37518633333334, "lon": -122.10051166666666, "proficiency": 0.3743, "schoolCount": 3}, {"name": "Renton", "lat": 47.4574808, "lon": -122.1731864, "proficiency": 0.3678, "schoolCount": 5}, {"name": "KETTLE FALLS", "lat": 48.6025, "lon": -118.0557, "proficiency": 0.327, "schoolCount": 1}, {"name": "Benton City", "lat": 46.27004, "lon": -119.489613, "proficiency": 0.094, "schoolCount": 1}, {"name": "La Center", "lat": 45.859147, "lon": -122.64999, "proficiency": 0.336, "schoolCount": 1}, {"name": "La Conner", "lat": 48.394765, "lon": -122.489504, "proficiency": 0.174, "schoolCount": 1}, {"name": "Chelan", "lat": 47.835099, "lon": -120.020326, "proficiency": 0.193, "schoolCount": 1}, {"name": "Lake Stevens", "lat": 47.972962, "lon": -122.121981, "proficiency": 0.356, "schoolCount": 1}, {"name": "Kirkland", "lat": 47.690333, "lon": -122.20133271428571, "proficiency": 0.665, "schoolCount": 7}, {"name": "Redmond", "lat": 47.6772342, "lon": -122.1063408, "proficiency": 0.7338, "schoolCount": 5}, {"name": "Sammamish", "lat": 47.616029499999996, "lon": -122.0243105, "proficiency": 0.598, "schoolCount": 2}, {"name": "N. Lakewood", "lat": 48.148889, "lon": -122.208951, "proficiency": 0.194, "schoolCount": 1}, {"name": "SPANGLE", "lat": 47.3821, "lon": -117.3216, "proficiency": 0.3, "schoolCount": 1}, {"name": "Lind", "lat": 46.975238, "lon": -118.61753, "proficiency": 0.313, "schoolCount": 1}, {"name": "Lopez Island", "lat": 48.492136, "lon": -122.897935, "proficiency": 0.474, "schoolCount": 1}, {"name": "Lynden", "lat": 48.9468, "lon": -122.482591, "proficiency": 0.313, "schoolCount": 1}, {"name": "LYNDEN", "lat": 48.914299, "lon": -122.4311945, "proficiency": 0.301, "schoolCount": 2}, {"name": "Manson", "lat": 47.891461, "lon": -120.153354, "proficiency": 0.1, "schoolCount": 1}, {"name": "Tumwater", "lat": 46.981274000000006, "lon": -122.91896466666667, "proficiency": 0.3687, "schoolCount": 3}, {"name": "Springdale", "lat": 48.059856, "lon": -117.745927, "proficiency": 0.133, "schoolCount": 1}, {"name": "Marysville", "lat": 48.062082000000004, "lon": -122.170412, "proficiency": 0.2035, "schoolCount": 4}, {"name": "McCleary", "lat": 47.04924, "lon": -123.265739, "proficiency": 0.205, "schoolCount": 1}, {"name": "SPOKANE", "lat": 47.7092245, "lon": -117.3555525, "proficiency": 0.2878, "schoolCount": 4}, {"name": "COLBERT", "lat": 47.803369, "lon": -117.340174, "proficiency": 0.402, "schoolCount": 1}, {"name": "Medical Lake", "lat": 47.5721, "lon": -117.6696, "proficiency": 0.38, "schoolCount": 1}, {"name": "Mercer Island", "lat": 47.5374, "lon": -122.2285, "proficiency": 0.669, "schoolCount": 1}, {"name": "Winthrop", "lat": 48.4421, "lon": -120.17, "proficiency": 0.552, "schoolCount": 1}, {"name": "Snohomish", "lat": 47.879012666666675, "lon": -122.092941, "proficiency": 0.3913, "schoolCount": 3}, {"name": "Monroe", "lat": 47.853120000000004, "lon": -121.98245, "proficiency": 0.308, "schoolCount": 2}, {"name": "Montesano", "lat": 46.9842, "lon": -123.5977, "proficiency": 0.341, "schoolCount": 1}, {"name": "MORTON", "lat": 46.5528, "lon": -122.2722, "proficiency": 0.294, "schoolCount": 1}, {"name": "Moses Lake", "lat": 47.182902, "lon": -119.321555, "proficiency": 0.134, "schoolCount": 1}, {"name": "Mossyrock", "lat": 46.530402, "lon": -122.485903, "proficiency": 0.073, "schoolCount": 1}, {"name": "DEMING", "lat": 48.825958, "lon": -122.222346, "proficiency": 0.25, "schoolCount": 1}, {"name": "Mukilteo", "lat": 47.916700000000006, "lon": -122.30064999999999, "proficiency": 0.481, "schoolCount": 2}, {"name": "Naches", "lat": 46.7291, "lon": -120.6968, "proficiency": 0.137, "schoolCount": 1}, {"name": "Napavine", "lat": 46.5771, "lon": -122.9039, "proficiency": 0.188, "schoolCount": 1}, {"name": "NASELLE", "lat": 46.376734, "lon": -123.801799, "proficiency": 0.414, "schoolCount": 1}, {"name": "Newport", "lat": 48.1788, "lon": -117.0533, "proficiency": 0.216, "schoolCount": 1}, {"name": "Nine Mile Falls", "lat": 47.829063, "lon": -117.599485, "proficiency": 0.514, "schoolCount": 1}, {"name": "Everson", "lat": 48.9206, "lon": -122.3274, "proficiency": 0.443, "schoolCount": 1}, {"name": "Ocean Shores", "lat": 47.019175, "lon": -124.15839, "proficiency": 0.207, "schoolCount": 1}, {"name": "Connell", "lat": 46.662577, "lon": -118.870481, "proficiency": 0.163, "schoolCount": 1}, {"name": "Kingston", "lat": 47.7959, "lon": -122.526, "proficiency": 0.367, "schoolCount": 1}, {"name": "Poulsbo", "lat": 47.7326, "lon": -122.6233, "proficiency": 0.414, "schoolCount": 1}, {"name": "Belfair", "lat": 47.413467, "lon": -122.841348, "proficiency": 0.289, "schoolCount": 1}, {"name": "Northport", "lat": 48.911853, "lon": -117.789274, "proficiency": 0.353, "schoolCount": 1}, {"name": "Bothell", "lat": 47.77633333333333, "lon": -122.19033333333334, "proficiency": 0.5627, "schoolCount": 3}, {"name": "Kenmore", "lat": 47.7763, "lon": -122.2543, "proficiency": 0.421, "schoolCount": 1}, {"name": "Woodinville", "lat": 47.76461466666667, "lon": -122.08326799999999, "proficiency": 0.4803, "schoolCount": 3}, {"name": "Oak Harbor", "lat": 48.2993, "lon": -122.6479, "proficiency": 0.365, "schoolCount": 1}, {"name": "Oakesdale", "lat": 47.1267, "lon": -117.2438, "proficiency": 0.467, "schoolCount": 1}, {"name": "Ilwaco", "lat": 46.311123, "lon": -124.03834, "proficiency": 0.167, "schoolCount": 1}, {"name": "Westport", "lat": 46.863504, "lon": -124.10024, "proficiency": 0.135, "schoolCount": 1}, {"name": "ODESSA", "lat": 47.330708, "lon": -118.688616, "proficiency": 0.143, "schoolCount": 1}, {"name": "Okanogan", "lat": 48.365, "lon": -119.5853, "proficiency": 0.356, "schoolCount": 1}, {"name": "OLYMPIA", "lat": 47.049925, "lon": -122.9097, "proficiency": 0.4642, "schoolCount": 4}, {"name": "Omak", "lat": 48.410734000000005, "lon": -119.5357845, "proficiency": 0.097, "schoolCount": 2}, {"name": "Onalaska", "lat": 46.5817, "lon": -122.7186, "proficiency": 0.282, "schoolCount": 1}, {"name": "EASTSOUND", "lat": 48.699133, "lon": -122.902922, "proficiency": 0.176, "schoolCount": 1}, {"name": "Oroville", "lat": 48.9345, "lon": -119.439, "proficiency": 0.163, "schoolCount": 1}, {"name": "Orting", "lat": 47.102858, "lon": -122.217639, "proficiency": 0.23, "schoolCount": 1}, {"name": "Othello", "lat": 46.817879, "lon": -119.159727, "proficiency": 0.104, "schoolCount": 1}, {"name": "Palouse", "lat": 46.912588, "lon": -117.070953, "proficiency": 0.294, "schoolCount": 1}, {"name": "PASCO", "lat": 46.24607833333334, "lon": -119.13289833333333, "proficiency": 0.1287, "schoolCount": 3}, {"name": "Pasco", "lat": 46.2700635, "lon": -119.209394, "proficiency": 0.2535, "schoolCount": 2}, {"name": "PATEROS", "lat": 48.051967, "lon": -119.906507, "proficiency": 0.158, "schoolCount": 1}, {"name": "Paterson", "lat": 45.9386, "lon": -119.6091, "proficiency": 0.688, "schoolCount": 1}, {"name": "Pe Ell", "lat": 46.5749, "lon": -123.2991, "proficiency": 0.188, "schoolCount": 1}, {"name": "Gig Harbor", "lat": 47.312666666666665, "lon": -122.62093333333333, "proficiency": 0.4897, "schoolCount": 3}, {"name": "Lakebay", "lat": 47.3075, "lon": -122.7585, "proficiency": 0.321, "schoolCount": 1}, {"name": "Wenatchee", "lat": 47.417103, "lon": -120.308942, "proficiency": 0.396, "schoolCount": 1}, {"name": "SHELTON", "lat": 47.257961, "lon": -123.003383, "proficiency": 0.281, "schoolCount": 1}, {"name": "Pomeroy", "lat": 46.4718, "lon": -117.5959, "proficiency": 0.455, "schoolCount": 1}, {"name": "PORT ANGELES", "lat": 48.1169, "lon": -123.4655, "proficiency": 0.438, "schoolCount": 1}, {"name": "Port Townsend", "lat": 48.129, "lon": -122.7791, "proficiency": 0.342, "schoolCount": 1}, {"name": "Prosser", "lat": 46.2088, "lon": -119.7529, "proficiency": 0.251, "schoolCount": 1}, {"name": "Pullman", "lat": 46.718203, "lon": -117.17841, "proficiency": 0.605, "schoolCount": 1}, {"name": "Puyallup", "lat": 47.145529857142854, "lon": -122.29125014285715, "proficiency": 0.2939, "schoolCount": 7}, {"name": "Edgewood", "lat": 47.236815, "lon": -122.283246, "proficiency": 0.295, "schoolCount": 1}, {"name": "Quilcene", "lat": 47.8236, "lon": -122.8745, "proficiency": 0.233, "schoolCount": 1}, {"name": "QUINCY", "lat": 47.236653, "lon": -119.840745, "proficiency": 0.236, "schoolCount": 1}, {"name": "Forks", "lat": 47.9480815, "lon": -124.3837045, "proficiency": 0.1295, "schoolCount": 2}, {"name": "RAYMOND", "lat": 46.684986, "lon": -123.725165, "proficiency": 0.156, "schoolCount": 1}, {"name": "REARDAN", "lat": 47.667947, "lon": -117.875768, "proficiency": 0.511, "schoolCount": 1}, {"name": "Newcastle", "lat": 47.540951, "lon": -122.184377, "proficiency": 0.359, "schoolCount": 1}, {"name": "Richland", "lat": 46.287907999999995, "lon": -119.28891733333334, "proficiency": 0.2063, "schoolCount": 3}, {"name": "West Richland", "lat": 46.278108333333336, "lon": -119.34138433333334, "proficiency": 0.296, "schoolCount": 3}, {"name": "RIDGEFIELD", "lat": 45.790998, "lon": -122.708427, "proficiency": 0.444, "schoolCount": 1}, {"name": "Ridgefield", "lat": 45.80699, "lon": -122.690696, "proficiency": 0.217, "schoolCount": 1}, {"name": "LInd", "lat": 46.975238, "lon": -118.61753, "proficiency": 0.212, "schoolCount": 1}, {"name": "Chattaroy", "lat": 47.9661, "lon": -117.3539, "proficiency": 0.398, "schoolCount": 1}, {"name": "Carnation", "lat": 47.642428, "lon": -121.913785, "proficiency": 0.493, "schoolCount": 1}, {"name": "Rochester", "lat": 46.8208, "lon": -123.0914, "proficiency": 0.407, "schoolCount": 1}, {"name": "Royal City", "lat": 46.912, "lon": -119.6277, "proficiency": 0.179, "schoolCount": 1}, {"name": "FRIDAY HARBOR", "lat": 48.534854, "lon": -123.020829, "proficiency": 0.368, "schoolCount": 1}, {"name": "SEATTLE", "lat": 47.62300364705882, "lon": -122.34479905882354, "proficiency": 0.4519, "schoolCount": 17}, {"name": "Selah", "lat": 46.659778, "lon": -120.527787, "proficiency": 0.263, "schoolCount": 1}, {"name": "Ione", "lat": 48.81916, "lon": -117.39802, "proficiency": 0.522, "schoolCount": 1}, {"name": "Sequim", "lat": 48.084635500000005, "lon": -123.106064, "proficiency": 0.526, "schoolCount": 2}, {"name": "Shoreline", "lat": 47.76370633333334, "lon": -122.32189199999999, "proficiency": 0.534, "schoolCount": 3}, {"name": "Fall City", "lat": 47.5695, "lon": -121.905, "proficiency": 0.62, "schoolCount": 1}, {"name": "SNOQUALMIE", "lat": 47.518306, "lon": -121.8143, "proficiency": 0.556, "schoolCount": 1}, {"name": "Snoqualmie", "lat": 47.518306, "lon": -121.8143, "proficiency": 0.385, "schoolCount": 1}, {"name": "North Bend", "lat": 47.47363, "lon": -121.714761, "proficiency": 0.619, "schoolCount": 1}, {"name": "SOAP LAKE", "lat": 47.3866, "lon": -119.4972, "proficiency": 0.133, "schoolCount": 1}, {"name": "SOUTH BEND", "lat": 46.661769, "lon": -123.791741, "proficiency": 0.229, "schoolCount": 1}, {"name": "PORT ORCHARD", "lat": 47.52155425, "lon": -122.60205, "proficiency": 0.309, "schoolCount": 4}, {"name": "Langley", "lat": 48.005466, "lon": -122.409837, "proficiency": 0.481, "schoolCount": 1}, {"name": "STANWOOD", "lat": 48.23995, "lon": -122.34819999999999, "proficiency": 0.326, "schoolCount": 2}, {"name": "Stanwood", "lat": 48.241898, "lon": -122.337723, "proficiency": 0.32, "schoolCount": 1}, {"name": "Starbuck", "lat": 46.517284, "lon": -118.121192, "proficiency": 0.12, "schoolCount": 1}, {"name": "DUPONT", "lat": 47.10092, "lon": -122.64956, "proficiency": 0.364, "schoolCount": 1}, {"name": "Stevenson", "lat": 45.726722, "lon": -121.811, "proficiency": 0.404, "schoolCount": 1}, {"name": "Sultan", "lat": 47.8694, "lon": -121.8175, "proficiency": 0.364, "schoolCount": 1}, {"name": "Bonney Lake", "lat": 47.1803235, "lon": -122.1758745, "proficiency": 0.41, "schoolCount": 2}, {"name": "Sumner", "lat": 47.1949, "lon": -122.2353, "proficiency": 0.476, "schoolCount": 1}, {"name": "Sunnyside", "lat": 46.327935, "lon": -119.99776750000001, "proficiency": 0.131, "schoolCount": 2}, {"name": "Ravensdale", "lat": 47.37282, "lon": -122.000261, "proficiency": 0.63, "schoolCount": 1}, {"name": "TEKOA", "lat": 47.2238, "lon": -117.0678, "proficiency": 0.177, "schoolCount": 1}, {"name": "Tenino", "lat": 46.861478, "lon": -122.848826, "proficiency": 0.227, "schoolCount": 1}, {"name": "Toledo", "lat": 46.4409, "lon": -122.8498, "proficiency": 0.274, "schoolCount": 1}, {"name": "TONASKET", "lat": 48.70146, "lon": -119.435029, "proficiency": 0.203, "schoolCount": 1}, {"name": "TOPPENISH", "lat": 46.3833, "lon": -120.3133, "proficiency": 0.126, "schoolCount": 1}, {"name": "TOUCHET", "lat": 46.043441, "lon": -118.671939, "proficiency": 0.474, "schoolCount": 1}, {"name": "Toutle", "lat": 46.3236, "lon": -122.7405, "proficiency": 0.097, "schoolCount": 1}, {"name": "Trout Lake", "lat": 45.989195, "lon": -121.515747, "proficiency": 0.191, "schoolCount": 1}, {"name": "TUKWILA", "lat": 47.4749, "lon": -122.2748, "proficiency": 0.103, "schoolCount": 1}, {"name": "Union Gap", "lat": 46.556098, "lon": -120.479357, "proficiency": 0.4, "schoolCount": 1}, {"name": "UNIVERSITY PLACE", "lat": 47.22343, "lon": -122.553662, "proficiency": 0.412, "schoolCount": 1}, {"name": "Valley", "lat": 48.170482, "lon": -117.721184, "proficiency": 0.095, "schoolCount": 1}, {"name": "VANCOUVER", "lat": 45.683180125, "lon": -122.659273, "proficiency": 0.2405, "schoolCount": 8}, {"name": "VASHON", "lat": 47.4282, "lon": -122.4545, "proficiency": 0.65, "schoolCount": 1}, {"name": "CATHLAMET", "lat": 46.201487, "lon": -123.380647, "proficiency": 0.367, "schoolCount": 1}, {"name": "Mattawa", "lat": 46.742844, "lon": -119.896886, "proficiency": 0.236, "schoolCount": 1}, {"name": "WALLA WALLA", "lat": 46.0548, "lon": -118.3414, "proficiency": 0.337, "schoolCount": 1}, {"name": "WENATCHEE", "lat": 47.427404333333335, "lon": -120.32825366666667, "proficiency": 0.2397, "schoolCount": 3}, {"name": "Wapato", "lat": 46.4361, "lon": -120.4105, "proficiency": 0.149, "schoolCount": 1}, {"name": "WARDEN", "lat": 46.9606, "lon": -119.0415, "proficiency": 0.169, "schoolCount": 1}, {"name": "Washougal", "lat": 45.593092, "lon": -122.2716985, "proficiency": 0.432, "schoolCount": 2}, {"name": "Waterville", "lat": 47.6452, "lon": -120.0696, "proficiency": 0.438, "schoolCount": 1}, {"name": "Yakima", "lat": 46.58744071428571, "lon": -120.56042614285714, "proficiency": 0.204, "schoolCount": 7}, {"name": "Randle", "lat": 46.536704, "lon": -121.92987, "proficiency": 0.267, "schoolCount": 1}, {"name": "Buckley", "lat": 47.164489, "lon": -122.02269, "proficiency": 0.389, "schoolCount": 1}, {"name": "WHITE SALMON", "lat": 45.740122, "lon": -121.494382, "proficiency": 0.409, "schoolCount": 1}, {"name": "Wilbur", "lat": 47.753241, "lon": -118.705664, "proficiency": 0.5, "schoolCount": 1}, {"name": "Menlo", "lat": 46.624158, "lon": -123.65146, "proficiency": 0.133, "schoolCount": 1}, {"name": "WINLOCK", "lat": 46.4901, "lon": -122.8922, "proficiency": 0.208, "schoolCount": 1}, {"name": "Woodland", "lat": 45.904149000000004, "lon": -122.74915200000001, "proficiency": 0.2845, "schoolCount": 2}, {"name": "Yelm", "lat": 46.93925, "lon": -122.613, "proficiency": 0.3915, "schoolCount": 2}, {"name": "Zillah", "lat": 46.411973, "lon": -120.273871, "proficiency": 0.25, "schoolCount": 1}]}