{"state": "WI", "stateName": "Wisconsin", "year": 2025, "naep": {"text": "7 out of 10", "numerator": 7, "denominator": 10}, "schools": [{"name": "Wrightstown High", "lat": 44.3172, "lon": -88.1549, "proficiency": 0.3696, "district": "Wrightstown Community School District", "city": "Wrightstown", "ncessch": "551719002229"}, {"name": "Horning Middle", "lat": 43.028622, "lon": -88.204289, "proficiency": 0.4167, "district": "Waukesha School District", "city": "Waukesha", "ncessch": "551578002015"}, {"name": "Adeline Montessori School Inc", "lat": 43.022039, "lon": -88.444201, "proficiency": 0.4, "district": "Adeline Montessori School Inc.", "city": "Oconomowoc", "ncessch": "550008903150"}, {"name": "Wonewoc-Center Elementary", "lat": 43.662531, "lon": -90.22295, "proficiency": 0.4865, "district": "Wonewoc-Union Center School District", "city": "Wonewoc", "ncessch": "551713002224"}, {"name": "Yorkville Elementary", "lat": 42.7415, "lon": -88.0428, "proficiency": 0.7705, "district": "Yorkville J2 School District", "city": "Union Grove", "ncessch": "551722002230"}, {"name": "White Lake Middle", "lat": 45.155743, "lon": -88.764929, "proficiency": 0.3, "district": "White Lake School District", "city": "White Lake", "ncessch": "551659003108"}, {"name": "Green Tree Elementary", "lat": 43.4373, "lon": -88.1988, "proficiency": 0.7547, "district": "West Bend School District", "city": "West Bend", "ncessch": "551629002130"}, {"name": "Rural Virtual Academy", "lat": 45.129379, "lon": -90.336013, "proficiency": 0.0, "district": "Medford Area Public School District", "city": "Medford", "ncessch": "550894002598"}, {"name": "West De Pere Middle", "lat": 44.4393, "lon": -88.093, "proficiency": 0.7132, "district": "West De Pere School District", "city": "De Pere", "ncessch": "551632000545"}, {"name": "Wittenberg Elementary", "lat": 44.8252, "lon": -89.1728, "proficiency": 0.275, "district": "Wittenberg-Birnamwood School District", "city": "Wittenberg", "ncessch": "551710002223"}, {"name": "Silver Lake Intermediate", "lat": 43.08624, "lon": -88.50795, "proficiency": 0.741, "district": "Oconomowoc Area School District", "city": "Oconomowoc", "ncessch": "551089001422"}, {"name": "Woodside Elementary", "lat": 44.363341, "lon": -89.82024, "proficiency": 0.3667, "district": "Wisconsin Rapids School District", "city": "Wisconsin Rapids", "ncessch": "551707002217"}, {"name": "South High", "lat": 42.993, "lon": -88.2237, "proficiency": 0.4286, "district": "Waukesha School District", "city": "Waukesha", "ncessch": "551578002025"}, {"name": "Shared Journeys", "lat": 43.014634, "lon": -88.007544, "proficiency": 0.0526, "district": "West Allis-West Milwaukee School District", "city": "West Allis", "ncessch": "551626002918"}, {"name": "Wonewoc-Center Virtual Academy", "lat": 43.662531, "lon": -90.22295, "proficiency": 0.2857, "district": "Wonewoc-Union Center School District", "city": "Wonewoc", "ncessch": "551713003059"}, {"name": "Wisconsin Rapids Area Middle", "lat": 44.3783, "lon": -89.8559, "proficiency": 0.4915, "district": "Wisconsin Rapids School District", "city": "Wisconsin Rapids", "ncessch": "551707002216"}, {"name": "Wrightstown Middle", "lat": 44.3198, "lon": -88.1554, "proficiency": 0.8, "district": "Wrightstown Community School District", "city": "Wrightstown", "ncessch": "551719000280"}, {"name": "Holmen Middle", "lat": 43.9675, "lon": -91.2616, "proficiency": 0.7993, "district": "Holmen School District", "city": "Holmen", "ncessch": "550654000707"}, {"name": "Wisconsin Dells Middle School", "lat": 43.623808, "lon": -89.762136, "proficiency": 0.6091, "district": "Wisconsin Dells School District", "city": "Wisconsin Dells", "ncessch": "551704002271"}, {"name": "Riverside Middle", "lat": 43.19317, "lon": -88.70342, "proficiency": 0.5226, "district": "Watertown Unified School District", "city": "Watertown", "ncessch": "551575002000"}, {"name": "Wittenberg-Birnamwood High", "lat": 44.8285, "lon": -89.1797, "proficiency": 0.7393, "district": "Wittenberg-Birnamwood School District", "city": "Wittenberg", "ncessch": "551710002222"}, {"name": "Mead Elementary", "lat": 44.393919, "lon": -89.844065, "proficiency": 0.0, "district": "Wisconsin Rapids School District", "city": "Wisconsin Rapids", "ncessch": "551707002781"}, {"name": "Wonewoc-Center High", "lat": 43.662531, "lon": -90.22295, "proficiency": 0.6757, "district": "Wonewoc-Union Center School District", "city": "Wonewoc", "ncessch": "551713002225"}, {"name": "Blair-Taylor Middle/High", "lat": 44.291193, "lon": -91.209517, "proficiency": 0.2941, "district": "Blair-Taylor School District", "city": "Blair", "ncessch": "550001602378"}, {"name": "Brillion Middle", "lat": 44.173148, "lon": -88.065142, "proficiency": 0.8269, "district": "Brillion School District", "city": "Brillion", "ncessch": "550168002384"}, {"name": "Deeper Learning Virtual Academy", "lat": 43.012502, "lon": -88.010197, "proficiency": 0.25, "district": "West Allis-West Milwaukee School District", "city": "West Allis", "ncessch": "551626003142"}, {"name": "Carmen Middle School South", "lat": 43.000403, "lon": -87.931627, "proficiency": 0.3333, "district": "Carmen High School of Science and Technology Inc.", "city": "Milwaukee", "ncessch": "550007603157"}, {"name": "Wonewoc-Center Junior High", "lat": 43.662531, "lon": -90.22295, "proficiency": 0.3478, "district": "Wonewoc-Union Center School District", "city": "Wonewoc", "ncessch": "551713002226"}, {"name": "Central City Cyberschool", "lat": 43.09554, "lon": -87.968903, "proficiency": 0.3182, "district": "Central City Cyberschool of Milwaukee Inc.", "city": "Milwaukee", "ncessch": "550004102171"}, {"name": "Dodgeland High", "lat": 43.4028, "lon": -88.7162, "proficiency": 0.2793, "district": "Dodgeland School District", "city": "Juneau", "ncessch": "550726000787"}, {"name": "East High", "lat": 43.4111, "lon": -88.1634, "proficiency": 0.5882, "district": "West Bend School District", "city": "West Bend", "ncessch": "551629002128"}, {"name": "Phantom Knight School of Opportunity", "lat": 44.446763, "lon": -88.07098, "proficiency": 0.7237, "district": "West De Pere School District", "city": "De Pere", "ncessch": "551632002752"}, {"name": "Lincoln High", "lat": 44.3759, "lon": -89.8054, "proficiency": 0.75, "district": "Wisconsin Rapids School District", "city": "Wisconsin Rapids", "ncessch": "551707002209"}, {"name": "Darrell Lynn Hines Academy", "lat": 43.147632, "lon": -88.019357, "proficiency": 0.2, "district": "Darrell L. Hines Academy Inc.", "city": "Milwaukee", "ncessch": "550004702536"}, {"name": "Stratford Elementary", "lat": 44.805711, "lon": -90.076927, "proficiency": 0.5161, "district": "Stratford School District", "city": "Stratford", "ncessch": "551458000582"}, {"name": "Downtown Montessori", "lat": 42.9986, "lon": -87.90393, "proficiency": 0.7, "district": "Downtown Montessori Academy Inc.", "city": "Milwaukee", "ncessch": "550003902153"}, {"name": "Dr Howard Fuller Collegiate Academy", "lat": 43.090355, "lon": -87.94914, "proficiency": 0.0645, "district": "Dr. Howard Fuller Collegiate Academy Inc.", "city": "Milwaukee", "ncessch": "550006602865"}, {"name": "Lighthouse Learning Academy", "lat": 44.178539, "lon": -87.557926, "proficiency": 0.3333, "district": "Two Rivers Public School District", "city": "Two Rivers", "ncessch": "551512003037"}, {"name": "West High", "lat": 42.9686, "lon": -88.2784, "proficiency": 0.5854, "district": "Waukesha School District", "city": "Waukesha", "ncessch": "551578000528"}, {"name": "Whittier Elementary", "lat": 42.9927, "lon": -88.2265, "proficiency": 0.5903, "district": "Waukesha School District", "city": "Waukesha", "ncessch": "551578002028"}, {"name": "Edgar Middle", "lat": 44.924095, "lon": -89.961545, "proficiency": 0.5455, "district": "Edgar School District", "city": "Edgar", "ncessch": "550408002391"}, {"name": "Hemlock Creek Elementary", "lat": 44.42482, "lon": -88.14374, "proficiency": 0.6471, "district": "West De Pere School District", "city": "De Pere", "ncessch": "551632002726"}, {"name": "Stevens Point Area Senior High", "lat": 44.540152, "lon": -89.581928, "proficiency": 0.7328, "district": "Stevens Point Area Public School District", "city": "Stevens Point", "ncessch": "551449001880"}, {"name": "Theisen Middle", "lat": 43.7559, "lon": -88.4292, "proficiency": 0.8015, "district": "Fond du Lac School District", "city": "Fond du Lac", "ncessch": "550468000505"}, {"name": "Townsend Street Elementary", "lat": 43.0804, "lon": -87.9665, "proficiency": 0.0, "district": "Milwaukee School District", "city": "Milwaukee", "ncessch": "550960001258"}, {"name": "eSucceed Charter School", "lat": 45.168445, "lon": -90.807019, "proficiency": 0.3333, "district": "Gilman School District", "city": "Gilman", "ncessch": "550528003114"}, {"name": "Badger Middle", "lat": 43.413906, "lon": -88.182239, "proficiency": 0.6092, "district": "West Bend School District", "city": "West Bend", "ncessch": "551629002125"}, {"name": "Central Oaks Academy", "lat": 44.386463, "lon": -89.820447, "proficiency": 0.2857, "district": "Wisconsin Rapids School District", "city": "Wisconsin Rapids", "ncessch": "551707003088"}, {"name": "John Dewey Academy of Learning", "lat": 44.512928, "lon": -88.007889, "proficiency": 0.1429, "district": "Green Bay Area Public School District", "city": "Green Bay", "ncessch": "550582002857"}, {"name": "Northern Lights Elementary", "lat": 46.7093, "lon": -92.0949, "proficiency": 0.1333, "district": "Superior School District", "city": "Superior", "ncessch": "551467002539"}, {"name": "Lombardi Middle", "lat": 44.515573, "lon": -88.110407, "proficiency": 0.5594, "district": "Green Bay Area Public School District", "city": "Green Bay", "ncessch": "550582000631"}, {"name": "Waukesha Academy of Health Professions", "lat": 42.9932, "lon": -88.2229, "proficiency": 0.6, "district": "Waukesha School District", "city": "Waukesha", "ncessch": "551578003334"}, {"name": "Huegel Elementary", "lat": 43.024905, "lon": -89.487813, "proficiency": 0.0829, "district": "Madison Metropolitan School District", "city": "Madison", "ncessch": "550852000956"}, {"name": "West De Pere Intermediate School", "lat": 44.440696, "lon": -88.092027, "proficiency": 0.5854, "district": "West De Pere School District", "city": "De Pere", "ncessch": "551632003147"}, {"name": "THINK Academy-Together Helping INspire Kids", "lat": 44.49734, "lon": -89.793878, "proficiency": 0.4026, "district": "Wisconsin Rapids School District", "city": "Rudolph", "ncessch": "551707002212"}, {"name": "ACE Alliance Charter Elementary", "lat": 44.1899, "lon": -88.4542, "proficiency": 0.254, "district": "Neenah Joint School District", "city": "Neenah", "ncessch": "551032003366"}, {"name": "Isthmus Montessori Academy Public", "lat": 43.119182, "lon": -89.354243, "proficiency": 0.4286, "district": "Isthmus Montessori Academy Inc.", "city": "Madison", "ncessch": "550008203085"}, {"name": "ARISE Virtual Academy", "lat": 42.685473, "lon": -89.050782, "proficiency": 0.3333, "district": "Janesville School District", "city": "Janesville", "ncessch": "550702002991"}, {"name": "Washington Elementary", "lat": 43.058373, "lon": -87.997034, "proficiency": 0.5263, "district": "Wauwatosa School District", "city": "Wauwatosa", "ncessch": "551599002089"}, {"name": "James E Dottke Alternative School", "lat": 43.012502, "lon": -88.010197, "proficiency": 0.4079, "district": "West Allis-West Milwaukee School District", "city": "West Allis", "ncessch": "551626002490"}, {"name": "Stettin Elementary", "lat": 44.964325, "lon": -89.705575, "proficiency": 0.3607, "district": "Wausau School District", "city": "Wausau", "ncessch": "551590002061"}, {"name": "Horace Mann Middle", "lat": 44.1686, "lon": -88.4609, "proficiency": 0.0, "district": "Neenah Joint School District", "city": "Neenah", "ncessch": "551032000579"}, {"name": "Washington Middle", "lat": 42.5985, "lon": -87.8225, "proficiency": 0.0993, "district": "Kenosha School District", "city": "Kenosha", "ncessch": "550732000831"}, {"name": "La Casa de Esperanza Charter School", "lat": 43.012251, "lon": -88.223028, "proficiency": 0.3571, "district": "La Casa De Esperanza Inc.", "city": "Waukesha", "ncessch": "550007303031"}, {"name": "Coulee Region Virtual Academy", "lat": 43.810265, "lon": -91.25045, "proficiency": 0.1429, "district": "La Crosse School District", "city": "La Crosse", "ncessch": "550753003156"}, {"name": "Wedgewood Park School", "lat": 42.9794, "lon": -87.9953, "proficiency": 0.1258, "district": "Milwaukee School District", "city": "Milwaukee", "ncessch": "550960002737"}, {"name": "Lake Country Classical Academy Inc", "lat": 43.115722, "lon": -88.512561, "proficiency": 0.439, "district": "Lake Country Classical Academy Inc.", "city": "Oconomowoc", "ncessch": "550008703141"}, {"name": "Black Hawk Middle", "lat": 43.1465, "lon": -89.3701, "proficiency": 0.2065, "district": "Madison Metropolitan School District", "city": "Madison", "ncessch": "550852000959"}, {"name": "Jefferson Middle", "lat": 43.0657, "lon": -89.501303, "proficiency": 0.4123, "district": "Madison Metropolitan School District", "city": "Madison", "ncessch": "550852000938"}, {"name": "Horace Mann Elementary", "lat": 43.0136, "lon": -87.990667, "proficiency": 0.45, "district": "West Allis-West Milwaukee School District", "city": "West Allis", "ncessch": "551626002377"}, {"name": "Sennett Middle", "lat": 43.06305, "lon": -89.321314, "proficiency": 0.2626, "district": "Madison Metropolitan School District", "city": "Madison", "ncessch": "550852000955"}, {"name": "Sherman Middle", "lat": 43.118056, "lon": -89.362157, "proficiency": 0.2344, "district": "Madison Metropolitan School District", "city": "Madison", "ncessch": "550852002435"}, {"name": "Toki Middle", "lat": 43.03369, "lon": -89.475124, "proficiency": 0.4518, "district": "Madison Metropolitan School District", "city": "Madison", "ncessch": "550852000953"}, {"name": "Milwaukee County Youth Education Center", "lat": 43.0426, "lon": -87.9236, "proficiency": 0.2823, "district": "Milwaukee School District", "city": "Milwaukee", "ncessch": "550960001306"}, {"name": "Washington Elementary", "lat": 44.396501, "lon": -89.790068, "proficiency": 0.3913, "district": "Wisconsin Rapids School District", "city": "Wisconsin Rapids", "ncessch": "551707002215"}, {"name": "Maine Elementary", "lat": 45.026341, "lon": -89.691918, "proficiency": 0.8049, "district": "Wausau School District", "city": "Wausau", "ncessch": "551590002058"}, {"name": "Wadewitz Elementary", "lat": 42.7464, "lon": -87.8127, "proficiency": 0.1667, "district": "Racine Unified School District", "city": "Racine", "ncessch": "551236001642"}, {"name": "Alcott Elementary", "lat": 42.9796, "lon": -88.0344, "proficiency": 0.0435, "district": "Milwaukee School District", "city": "Milwaukee", "ncessch": "550960001121"}, {"name": "Audubon Technology and Communication Middle", "lat": 42.983965, "lon": -87.962577, "proficiency": 0.0278, "district": "Milwaukee School District", "city": "Milwaukee", "ncessch": "550960001123"}, {"name": "O Brown Elementary", "lat": 42.805207, "lon": -87.803484, "proficiency": 0.44, "district": "Racine Unified School District", "city": "Racine", "ncessch": "551236001605"}, {"name": "Bethune Academy", "lat": 43.0508, "lon": -87.958, "proficiency": 0.0625, "district": "Milwaukee School District", "city": "Milwaukee", "ncessch": "550960001256"}, {"name": "Burbank Elementary", "lat": 43.0272, "lon": -87.9888, "proficiency": 0.0702, "district": "Milwaukee School District", "city": "Milwaukee", "ncessch": "550960001135"}, {"name": "Burdick Elementary", "lat": 42.9655, "lon": -87.9039, "proficiency": 0.3243, "district": "Milwaukee School District", "city": "Milwaukee", "ncessch": "550960001136"}, {"name": "Carmen Mid/Hi Northwest Campus", "lat": 43.1178, "lon": -88.001, "proficiency": 0.1446, "district": "Milwaukee School District", "city": "Milwaukee", "ncessch": "550960002980"}, {"name": "Carson Academy", "lat": 43.0906, "lon": -87.9754, "proficiency": 0.0741, "district": "Milwaukee School District", "city": "Milwaukee", "ncessch": "550960001829"}, {"name": "Carver Academy", "lat": 43.0559, "lon": -87.9109, "proficiency": 0.0, "district": "Milwaukee School District", "city": "Milwaukee", "ncessch": "550960002602"}, {"name": "Cass Street Elementary", "lat": 43.0516, "lon": -87.9026, "proficiency": 0.0417, "district": "Milwaukee School District", "city": "Milwaukee", "ncessch": "550960001139"}, {"name": "All District 4 Year Old Kindergarten", "lat": 42.707034, "lon": -87.789919, "proficiency": 0.2069, "district": "Racine Unified School District", "city": "Racine", "ncessch": "551236002657"}, {"name": "Congress Elementary", "lat": 43.0989, "lon": -87.979, "proficiency": 0.1207, "district": "Milwaukee School District", "city": "Milwaukee", "ncessch": "550960001143"}, {"name": "Cooper Elementary", "lat": 42.9508, "lon": -87.9409, "proficiency": 0.5758, "district": "Milwaukee School District", "city": "Milwaukee", "ncessch": "550960001144"}, {"name": "Craig Montessori School", "lat": 43.0968, "lon": -88.0079, "proficiency": 0.2667, "district": "Milwaukee School District", "city": "Milwaukee", "ncessch": "550960001045"}, {"name": "Curtin Elementary", "lat": 42.982, "lon": -87.9535, "proficiency": 0.0938, "district": "Milwaukee School District", "city": "Milwaukee", "ncessch": "550960001146"}, {"name": "Fairview Elementary", "lat": 42.9913, "lon": -87.9937, "proficiency": 0.4127, "district": "Milwaukee School District", "city": "Milwaukee", "ncessch": "550960001159"}, {"name": "Fernwood Montessori", "lat": 42.9859, "lon": -87.8803, "proficiency": 0.5574, "district": "Milwaukee School District", "city": "Milwaukee", "ncessch": "550960001160"}, {"name": "Franklin Elementary", "lat": 43.0851, "lon": -87.9417, "proficiency": 0.0, "district": "Milwaukee School District", "city": "Milwaukee", "ncessch": "550960001165"}, {"name": "Oakwood Elementary", "lat": 44.0334, "lon": -88.6041, "proficiency": 0.0492, "district": "Oshkosh Area School District", "city": "Oshkosh", "ncessch": "551119003340"}, {"name": "Garland Elementary", "lat": 42.940124, "lon": -87.95389, "proficiency": 0.2787, "district": "Milwaukee School District", "city": "Milwaukee", "ncessch": "550960001172"}, {"name": "Golda Meir School", "lat": 43.050904, "lon": -87.915406, "proficiency": 0.4758, "district": "Milwaukee School District", "city": "Milwaukee", "ncessch": "550960001164"}, {"name": "Grantosa Drive Elementary", "lat": 43.1065, "lon": -88.013, "proficiency": 0.0667, "district": "Milwaukee School District", "city": "Milwaukee", "ncessch": "550960001176"}, {"name": "Green Tree Preparatory Academy", "lat": 43.142301, "lon": -87.97677, "proficiency": 0.0213, "district": "Milwaukee School District", "city": "Milwaukee", "ncessch": "550960003111"}, {"name": "Greenfield Bilingual", "lat": 43.0119, "lon": -87.9583, "proficiency": 0.1636, "district": "Milwaukee School District", "city": "Milwaukee", "ncessch": "550960001179"}, {"name": "HAPA-Hmong American Peace Academy K3-12", "lat": 43.1013, "lon": -88.018, "proficiency": 0.5102, "district": "Milwaukee School District", "city": "Milwaukee", "ncessch": "550960002979"}, {"name": "Hartford Avenue Elementary", "lat": 43.077, "lon": -87.882, "proficiency": 0.0357, "district": "Milwaukee School District", "city": "Milwaukee", "ncessch": "550960001183"}, {"name": "Hayes Bilingual School", "lat": 43.008051, "lon": -87.923631, "proficiency": 0.1642, "district": "Milwaukee School District", "city": "Milwaukee", "ncessch": "550960000680"}, {"name": "Hi-Mount Elementary", "lat": 43.0587, "lon": -87.9754, "proficiency": 0.0, "district": "Milwaukee School District", "city": "Milwaukee", "ncessch": "550960001187"}, {"name": "Highland Community School", "lat": 43.044775, "lon": -87.9348, "proficiency": 0.5769, "district": "Milwaukee School District", "city": "Milwaukee", "ncessch": "550960001847"}, {"name": "Holmes Elementary", "lat": 43.0635, "lon": -87.9072, "proficiency": 0.0, "district": "Milwaukee School District", "city": "Milwaukee", "ncessch": "550960001188"}, {"name": "Humboldt Park Elementary", "lat": 42.9857, "lon": -87.9024, "proficiency": 0.3676, "district": "Milwaukee School District", "city": "Milwaukee", "ncessch": "550960001190"}, {"name": "IDEAL", "lat": 42.939704, "lon": -87.931529, "proficiency": 0.3103, "district": "Milwaukee School District", "city": "Milwaukee", "ncessch": "550960002493"}, {"name": "Kagel Elementary", "lat": 43.0216, "lon": -87.9273, "proficiency": 0.069, "district": "Milwaukee School District", "city": "Milwaukee", "ncessch": "550960001195"}, {"name": "King Jr Elementary", "lat": 43.078322, "lon": -87.914689, "proficiency": 0.0, "district": "Milwaukee School District", "city": "Milwaukee", "ncessch": "550960001178"}, {"name": "La Causa Charter School", "lat": 43.0129, "lon": -87.9129, "proficiency": 0.1296, "district": "Milwaukee School District", "city": "Milwaukee", "ncessch": "550960001317"}, {"name": "LaFollette Elementary", "lat": 43.0773, "lon": -87.923, "proficiency": 0.0, "district": "Milwaukee School District", "city": "Milwaukee", "ncessch": "550960001202"}, {"name": "Lancaster Elementary", "lat": 43.1075, "lon": -87.9967, "proficiency": 0.1316, "district": "Milwaukee School District", "city": "Milwaukee", "ncessch": "550960001204"}, {"name": "Lincoln Middle", "lat": 43.0477, "lon": -87.9016, "proficiency": 0.1196, "district": "Milwaukee School District", "city": "Milwaukee", "ncessch": "550960002302"}, {"name": "Longfellow Elementary", "lat": 43.0206, "lon": -87.94, "proficiency": 0.0897, "district": "Milwaukee School District", "city": "Milwaukee", "ncessch": "550960001209"}, {"name": "MacDowell Montessori School K3-12", "lat": 43.0327, "lon": -87.9928, "proficiency": 0.1786, "district": "Milwaukee School District", "city": "Milwaukee", "ncessch": "550960002931"}, {"name": "Manitoba Elementary", "lat": 42.991148, "lon": -87.965548, "proficiency": 0.125, "district": "Milwaukee School District", "city": "Milwaukee", "ncessch": "550960001213"}, {"name": "Maryland Montessori", "lat": 43.0621, "lon": -87.8824, "proficiency": 0.5238, "district": "Milwaukee School District", "city": "Milwaukee", "ncessch": "550960001216"}, {"name": "Metcalfe Elementary", "lat": 43.0609, "lon": -87.9563, "proficiency": 0.0, "district": "Milwaukee School District", "city": "Milwaukee", "ncessch": "550960002464"}, {"name": "Milwaukee Academy of Chinese Language", "lat": 43.0397, "lon": -87.9439, "proficiency": 0.0172, "district": "Milwaukee School District", "city": "Milwaukee", "ncessch": "550960002720"}, {"name": "Milwaukee College Preparatory School -- 36th Street Campus", "lat": 43.06324, "lon": -87.959021, "proficiency": 0.4884, "district": "Milwaukee School District", "city": "Milwaukee", "ncessch": "550960002537"}, {"name": "Jones Elementary", "lat": 42.6832, "lon": -87.8184, "proficiency": 0.2174, "district": "Racine Unified School District", "city": "Racine", "ncessch": "551236001627"}, {"name": "Milwaukee College Preparatory School -- Lloyd Street", "lat": 43.0584, "lon": -87.9279, "proficiency": 0.4318, "district": "Milwaukee School District", "city": "Milwaukee", "ncessch": "550960002860"}, {"name": "Milwaukee College Preparatory School: Lola Rowe North Campus", "lat": 43.060879, "lon": -87.929541, "proficiency": 0.5306, "district": "Milwaukee School District", "city": "Milwaukee", "ncessch": "550960003006"}, {"name": "Fratt Elementary", "lat": 42.7218, "lon": -87.822, "proficiency": 0.0323, "district": "Racine Unified School District", "city": "Racine", "ncessch": "551236001611"}, {"name": "Milwaukee Parkside School", "lat": 42.991016, "lon": -87.905091, "proficiency": 0.403, "district": "Milwaukee School District", "city": "Milwaukee", "ncessch": "550960002415"}, {"name": "Milwaukee School of Languages", "lat": 43.0758, "lon": -88.0187, "proficiency": 0.1275, "district": "Milwaukee School District", "city": "Milwaukee", "ncessch": "550960001273"}, {"name": "Milwaukee Sign Language Elementary", "lat": 43.1381, "lon": -88.0097, "proficiency": 0.2432, "district": "Milwaukee School District", "city": "Milwaukee", "ncessch": "550960001191"}, {"name": "Mitchell Elementary", "lat": 43.011842, "lon": -87.941936, "proficiency": 0.0411, "district": "Milwaukee School District", "city": "Milwaukee", "ncessch": "550960001219"}, {"name": "Morgandale Elementary", "lat": 42.9785, "lon": -87.9358, "proficiency": 0.2034, "district": "Milwaukee School District", "city": "Milwaukee", "ncessch": "550960001220"}, {"name": "Morse Mid", "lat": 43.139623, "lon": -88.009655, "proficiency": 0.0748, "district": "Milwaukee School District", "city": "Milwaukee", "ncessch": "550960001221"}, {"name": "Obama School of Career and Technical Education", "lat": 43.10959, "lon": -87.968381, "proficiency": 0.0, "district": "Milwaukee School District", "city": "Milwaukee", "ncessch": "550960002993"}, {"name": "River Trail Elementary", "lat": 43.1258, "lon": -88.0617, "proficiency": 0.0, "district": "Milwaukee School District", "city": "Milwaukee", "ncessch": "550960001174"}, {"name": "Rogers Street Academy", "lat": 43.0088, "lon": -87.9444, "proficiency": 0.1967, "district": "Milwaukee School District", "city": "Milwaukee", "ncessch": "550960002601"}, {"name": "Roosevelt Middle", "lat": 43.0535, "lon": -87.9216, "proficiency": 0.1474, "district": "Milwaukee School District", "city": "Milwaukee", "ncessch": "550960001238"}, {"name": "Sherman Elementary", "lat": 43.0722, "lon": -87.978, "proficiency": 0.0, "district": "Milwaukee School District", "city": "Milwaukee", "ncessch": "550960001240"}, {"name": "Starms Discovery", "lat": 43.057145, "lon": -87.945781, "proficiency": 0.0, "district": "Milwaukee School District", "city": "Milwaukee", "ncessch": "550960002442"}, {"name": "Story Elementary", "lat": 43.0412, "lon": -87.9614, "proficiency": 0.0, "district": "Milwaukee School District", "city": "Milwaukee", "ncessch": "550960001249"}, {"name": "East High", "lat": 44.9813, "lon": -89.5975, "proficiency": 0.4, "district": "Wausau School District", "city": "Wausau", "ncessch": "551590002063"}, {"name": "Roosevelt Elementary", "lat": 42.751004, "lon": -87.791414, "proficiency": 0.0, "district": "Racine Unified School District", "city": "Racine", "ncessch": "551236001637"}, {"name": "Trowbridge Street School of Great Lakes Studies", "lat": 42.9919, "lon": -87.8854, "proficiency": 0.05, "district": "Milwaukee School District", "city": "Milwaukee", "ncessch": "550960001259"}, {"name": "Grant Elementary", "lat": 43.0056, "lon": -87.9511, "proficiency": 0.2549, "district": "Milwaukee School District", "city": "Milwaukee", "ncessch": "550960001175"}, {"name": "Victory Elementary", "lat": 42.9366, "lon": -87.9427, "proficiency": 0.2121, "district": "Milwaukee School District", "city": "Milwaukee", "ncessch": "550960001264"}, {"name": "Vieau Elementary", "lat": 43.0229, "lon": -87.9161, "proficiency": 0.1562, "district": "Milwaukee School District", "city": "Milwaukee", "ncessch": "550960001265"}, {"name": "Whitman Elementary", "lat": 42.9685, "lon": -87.9822, "proficiency": 0.4706, "district": "Milwaukee School District", "city": "Milwaukee", "ncessch": "550960001270"}, {"name": "Wisconsin Conservatory of Lifelong Learning", "lat": 43.043734, "lon": -87.927939, "proficiency": 0.0, "district": "Milwaukee School District", "city": "Milwaukee", "ncessch": "550960000681"}, {"name": "Milwaukee Math and Science Academy", "lat": 43.068465, "lon": -87.967967, "proficiency": 0.0476, "district": "Milwaukee Math and Science Academy Inc.", "city": "Milwaukee", "ncessch": "550006702898"}, {"name": "Milwaukee Scholars Charter School", "lat": 43.1278, "lon": -87.999, "proficiency": 0.3696, "district": "Milwaukee Scholars Charter School Inc.", "city": "Milwaukee", "ncessch": "550006502894"}, {"name": "Milwaukee Academy of Science", "lat": 43.042119, "lon": -87.939429, "proficiency": 0.1667, "district": "Milwaukee Science Education Consortium Inc.", "city": "Milwaukee", "ncessch": "550004202234"}, {"name": "Park View Middle", "lat": 42.8731, "lon": -88.3362, "proficiency": 0.7853, "district": "Mukwonago School District", "city": "Mukwonago", "ncessch": "551006001320"}, {"name": "New Leaf Prep Academy", "lat": 44.551199, "lon": -88.10055, "proficiency": 0.7143, "district": "New Leaf Prep Academy Inc.", "city": "Green Bay", "ncessch": "550009003143"}, {"name": "Westby Elementary", "lat": 43.648, "lon": -90.8647, "proficiency": 0.8182, "district": "Westby Area School District", "city": "Westby", "ncessch": "551641002145"}, {"name": "One City Preparatory Academy", "lat": 43.045778, "lon": -89.341981, "proficiency": 0.1905, "district": "One City Schools Inc.", "city": "Madison", "ncessch": "550008303385"}, {"name": "Osseo-Fairchild Middle", "lat": 44.581105, "lon": -91.218051, "proficiency": 0.3585, "district": "Osseo-Fairchild School District", "city": "Osseo", "ncessch": "551122002398"}, {"name": "21st Century Preparatory School", "lat": 42.728321, "lon": -87.795889, "proficiency": 0.0263, "district": "Racine Charter One Inc.", "city": "Racine", "ncessch": "550004502575"}, {"name": "Gifford School", "lat": 42.7579, "lon": -87.8865, "proficiency": 0.3561, "district": "Racine Unified School District", "city": "Racine", "ncessch": "551236002311"}, {"name": "Gilmore Fine Arts School", "lat": 42.741388, "lon": -87.808279, "proficiency": 0.354, "district": "Racine Unified School District", "city": "Racine", "ncessch": "551236001608"}, {"name": "Jerstad-Agerholm School", "lat": 42.7635, "lon": -87.7912, "proficiency": 0.1111, "district": "Racine Unified School District", "city": "Racine", "ncessch": "551236001624"}, {"name": "Mitchell School", "lat": 42.69981, "lon": -87.811081, "proficiency": 0.0435, "district": "Racine Unified School District", "city": "Racine", "ncessch": "551236001632"}, {"name": "Racine Alternative Learning", "lat": 42.739851, "lon": -87.811325, "proficiency": 0.0, "district": "Racine Unified School District", "city": "Racine", "ncessch": "551236003045"}, {"name": "Starbuck - An IB World School", "lat": 42.7132, "lon": -87.8376, "proficiency": 0.1871, "district": "Racine Unified School District", "city": "Racine", "ncessch": "551236001639"}, {"name": "Walden III High", "lat": 42.726355, "lon": -87.811136, "proficiency": 0.25, "district": "Racine Unified School District", "city": "Racine", "ncessch": "551236001644"}, {"name": "Seeds of Health Elementary Program", "lat": 43.015734, "lon": -87.954564, "proficiency": 0.1944, "district": "Seeds of Health Inc", "city": "Milwaukee", "ncessch": "550007402692"}, {"name": "Shullsburg Junior High", "lat": 42.575381, "lon": -90.230389, "proficiency": 0.2903, "district": "Shullsburg School District", "city": "Shullsburg", "ncessch": "551383002400"}, {"name": "Sheboygan Leadership Academy", "lat": 43.748, "lon": -87.7136, "proficiency": 0.2609, "district": "Sheboygan Area School District", "city": "Sheboygan", "ncessch": "551365002872"}, {"name": "Viroqua Middle", "lat": 43.558854, "lon": -90.900757, "proficiency": 0.6897, "district": "Viroqua Area School District", "city": "Viroqua", "ncessch": "551536001977"}, {"name": "The Lincoln Academy", "lat": 42.52236, "lon": -89.030536, "proficiency": 0.5319, "district": "The Lincoln Academy Inc.", "city": "Beloit", "ncessch": "550009203146"}, {"name": "Bruce Guadalupe", "lat": 43.020867, "lon": -87.922087, "proficiency": 0.4444, "district": "United Community Center Inc.", "city": "Milwaukee", "ncessch": "550007700772"}, {"name": "United Community Center Acosta Middle School", "lat": 43.020383, "lon": -87.917888, "proficiency": 0.4032, "district": "United Community Center Inc.", "city": "Milwaukee", "ncessch": "550007703047"}, {"name": "eAchieve Academy - Wisconsin", "lat": 43.004907, "lon": -88.234575, "proficiency": 0.2273, "district": "Waukesha School District", "city": "Waukesha", "ncessch": "551578003380"}, {"name": "White Rock School", "lat": 43.016796, "lon": -88.223277, "proficiency": 0.9, "district": "Waukesha School District", "city": "Waukesha", "ncessch": "551578002027"}, {"name": "Horace Mann Middle", "lat": 44.9824, "lon": -89.6086, "proficiency": 0.5648, "district": "Wausau School District", "city": "Wausau", "ncessch": "551590000544"}, {"name": "Whitefish Bay Middle", "lat": 43.1119, "lon": -87.8963, "proficiency": 0.8163, "district": "Whitefish Bay School District", "city": "Whitefish Bay", "ncessch": "551662002402"}, {"name": "Woodlands School", "lat": 43.037065, "lon": -87.982592, "proficiency": 0.3529, "district": "Woodlands School Inc.", "city": "Milwaukee", "ncessch": "550011303353"}, {"name": "Woodlands School - State Street Campus", "lat": 43.043, "lon": -87.9537, "proficiency": 0.1667, "district": "Woodlands School Inc.", "city": "Milwaukee", "ncessch": "550011302942"}], "districts": [{"name": "Wrightstown Community School District", "lat": 44.3185, "lon": -88.15514999999999, "proficiency": 0.5848, "schoolCount": 2}, {"name": "Waukesha School District", "lat": 42.99968928571429, "lon": -88.23052014285715, "proficiency": 0.5355, "schoolCount": 7}, {"name": "Adeline Montessori School Inc.", "lat": 43.022039, "lon": -88.444201, "proficiency": 0.4, "schoolCount": 1}, {"name": "Wonewoc-Union Center School District", "lat": 43.662531, "lon": -90.22295, "proficiency": 0.4489, "schoolCount": 4}, {"name": "Yorkville J2 School District", "lat": 42.7415, "lon": -88.0428, "proficiency": 0.7705, "schoolCount": 1}, {"name": "White Lake School District", "lat": 45.155743, "lon": -88.764929, "proficiency": 0.3, "schoolCount": 1}, {"name": "West Bend School District", "lat": 43.42076866666667, "lon": -88.18147966666668, "proficiency": 0.6507, "schoolCount": 3}, {"name": "Medford Area Public School District", "lat": 45.129379, "lon": -90.336013, "proficiency": 0.0, "schoolCount": 1}, {"name": "West De Pere School District", "lat": 44.43789475, "lon": -88.09993675, "proficiency": 0.6673, "schoolCount": 4}, {"name": "Wittenberg-Birnamwood School District", "lat": 44.82685, "lon": -89.17625, "proficiency": 0.5071, "schoolCount": 2}, {"name": "Oconomowoc Area School District", "lat": 43.08624, "lon": -88.50795, "proficiency": 0.741, "schoolCount": 1}, {"name": "Wisconsin Rapids School District", "lat": 44.398823428571426, "lon": -89.81857114285715, "proficiency": 0.384, "schoolCount": 7}, {"name": "West Allis-West Milwaukee School District", "lat": 43.0133095, "lon": -88.00465125, "proficiency": 0.2901, "schoolCount": 4}, {"name": "Holmen School District", "lat": 43.9675, "lon": -91.2616, "proficiency": 0.7993, "schoolCount": 1}, {"name": "Wisconsin Dells School District", "lat": 43.623808, "lon": -89.762136, "proficiency": 0.6091, "schoolCount": 1}, {"name": "Watertown Unified School District", "lat": 43.19317, "lon": -88.70342, "proficiency": 0.5226, "schoolCount": 1}, {"name": "Blair-Taylor School District", "lat": 44.291193, "lon": -91.209517, "proficiency": 0.2941, "schoolCount": 1}, {"name": "Brillion School District", "lat": 44.173148, "lon": -88.065142, "proficiency": 0.8269, "schoolCount": 1}, {"name": "Carmen High School of Science and Technology Inc.", "lat": 43.000403, "lon": -87.931627, "proficiency": 0.3333, "schoolCount": 1}, {"name": "Central City Cyberschool of Milwaukee Inc.", "lat": 43.09554, "lon": -87.968903, "proficiency": 0.3182, "schoolCount": 1}, {"name": "Dodgeland School District", "lat": 43.4028, "lon": -88.7162, "proficiency": 0.2793, "schoolCount": 1}, {"name": "Darrell L. Hines Academy Inc.", "lat": 43.147632, "lon": -88.019357, "proficiency": 0.2, "schoolCount": 1}, {"name": "Stratford School District", "lat": 44.805711, "lon": -90.076927, "proficiency": 0.5161, "schoolCount": 1}, {"name": "Downtown Montessori Academy Inc.", "lat": 42.9986, "lon": -87.90393, "proficiency": 0.7, "schoolCount": 1}, {"name": "Dr. Howard Fuller Collegiate Academy Inc.", "lat": 43.090355, "lon": -87.94914, "proficiency": 0.0645, "schoolCount": 1}, {"name": "Two Rivers Public School District", "lat": 44.178539, "lon": -87.557926, "proficiency": 0.3333, "schoolCount": 1}, {"name": "Edgar School District", "lat": 44.924095, "lon": -89.961545, "proficiency": 0.5455, "schoolCount": 1}, {"name": "Stevens Point Area Public School District", "lat": 44.540152, "lon": -89.581928, "proficiency": 0.7328, "schoolCount": 1}, {"name": "Fond du Lac School District", "lat": 43.7559, "lon": -88.4292, "proficiency": 0.8015, "schoolCount": 1}, {"name": "Milwaukee School District", "lat": 43.04021156060606, "lon": -87.95141643939394, "proficiency": 0.1759, "schoolCount": 66}, {"name": "Gilman School District", "lat": 45.168445, "lon": -90.807019, "proficiency": 0.3333, "schoolCount": 1}, {"name": "Green Bay Area Public School District", "lat": 44.5142505, "lon": -88.059148, "proficiency": 0.3512, "schoolCount": 2}, {"name": "Superior School District", "lat": 46.7093, "lon": -92.0949, "proficiency": 0.1333, "schoolCount": 1}, {"name": "Madison Metropolitan School District", "lat": 43.07531683333334, "lon": -89.41963516666665, "proficiency": 0.2751, "schoolCount": 6}, {"name": "Neenah Joint School District", "lat": 44.179249999999996, "lon": -88.45755, "proficiency": 0.127, "schoolCount": 2}, {"name": "Isthmus Montessori Academy Inc.", "lat": 43.119182, "lon": -89.354243, "proficiency": 0.4286, "schoolCount": 1}, {"name": "Janesville School District", "lat": 42.685473, "lon": -89.050782, "proficiency": 0.3333, "schoolCount": 1}, {"name": "Wauwatosa School District", "lat": 43.058373, "lon": -87.997034, "proficiency": 0.5263, "schoolCount": 1}, {"name": "Wausau School District", "lat": 44.9885915, "lon": -89.65089825, "proficiency": 0.5326, "schoolCount": 4}, {"name": "Kenosha School District", "lat": 42.5985, "lon": -87.8225, "proficiency": 0.0993, "schoolCount": 1}, {"name": "La Casa De Esperanza Inc.", "lat": 43.012251, "lon": -88.223028, "proficiency": 0.3571, "schoolCount": 1}, {"name": "La Crosse School District", "lat": 43.810265, "lon": -91.25045, "proficiency": 0.1429, "schoolCount": 1}, {"name": "Lake Country Classical Academy Inc.", "lat": 43.115722, "lon": -88.512561, "proficiency": 0.439, "schoolCount": 1}, {"name": "Racine Unified School District", "lat": 42.73512684615385, "lon": -87.81500292307692, "proficiency": 0.1819, "schoolCount": 13}, {"name": "Oshkosh Area School District", "lat": 44.0334, "lon": -88.6041, "proficiency": 0.0492, "schoolCount": 1}, {"name": "Milwaukee Math and Science Academy Inc.", "lat": 43.068465, "lon": -87.967967, "proficiency": 0.0476, "schoolCount": 1}, {"name": "Milwaukee Scholars Charter School Inc.", "lat": 43.1278, "lon": -87.999, "proficiency": 0.3696, "schoolCount": 1}, {"name": "Milwaukee Science Education Consortium Inc.", "lat": 43.042119, "lon": -87.939429, "proficiency": 0.1667, "schoolCount": 1}, {"name": "Mukwonago School District", "lat": 42.8731, "lon": -88.3362, "proficiency": 0.7853, "schoolCount": 1}, {"name": "New Leaf Prep Academy Inc.", "lat": 44.551199, "lon": -88.10055, "proficiency": 0.7143, "schoolCount": 1}, {"name": "Westby Area School District", "lat": 43.648, "lon": -90.8647, "proficiency": 0.8182, "schoolCount": 1}, {"name": "One City Schools Inc.", "lat": 43.045778, "lon": -89.341981, "proficiency": 0.1905, "schoolCount": 1}, {"name": "Osseo-Fairchild School District", "lat": 44.581105, "lon": -91.218051, "proficiency": 0.3585, "schoolCount": 1}, {"name": "Racine Charter One Inc.", "lat": 42.728321, "lon": -87.795889, "proficiency": 0.0263, "schoolCount": 1}, {"name": "Seeds of Health Inc", "lat": 43.015734, "lon": -87.954564, "proficiency": 0.1944, "schoolCount": 1}, {"name": "Shullsburg School District", "lat": 42.575381, "lon": -90.230389, "proficiency": 0.2903, "schoolCount": 1}, {"name": "Sheboygan Area School District", "lat": 43.748, "lon": -87.7136, "proficiency": 0.2609, "schoolCount": 1}, {"name": "Viroqua Area School District", "lat": 43.558854, "lon": -90.900757, "proficiency": 0.6897, "schoolCount": 1}, {"name": "The Lincoln Academy Inc.", "lat": 42.52236, "lon": -89.030536, "proficiency": 0.5319, "schoolCount": 1}, {"name": "United Community Center Inc.", "lat": 43.020625, "lon": -87.9199875, "proficiency": 0.4238, "schoolCount": 2}, {"name": "Whitefish Bay School District", "lat": 43.1119, "lon": -87.8963, "proficiency": 0.8163, "schoolCount": 1}, {"name": "Woodlands School Inc.", "lat": 43.040032499999995, "lon": -87.96814599999999, "proficiency": 0.2598, "schoolCount": 2}], "cities": [{"name": "Wrightstown", "lat": 44.3185, "lon": -88.15514999999999, "proficiency": 0.5848, "schoolCount": 2}, {"name": "Waukesha", "lat": 43.0012595, "lon": -88.229583625, "proficiency": 0.5132, "schoolCount": 8}, {"name": "Oconomowoc", "lat": 43.074667, "lon": -88.48823733333334, "proficiency": 0.5267, "schoolCount": 3}, {"name": "Wonewoc", "lat": 43.662531, "lon": -90.22295, "proficiency": 0.4489, "schoolCount": 4}, {"name": "Union Grove", "lat": 42.7415, "lon": -88.0428, "proficiency": 0.7705, "schoolCount": 1}, {"name": "White Lake", "lat": 45.155743, "lon": -88.764929, "proficiency": 0.3, "schoolCount": 1}, {"name": "West Bend", "lat": 43.42076866666667, "lon": -88.18147966666668, "proficiency": 0.6507, "schoolCount": 3}, {"name": "Medford", "lat": 45.129379, "lon": -90.336013, "proficiency": 0.0, "schoolCount": 1}, {"name": "De Pere", "lat": 44.43789475, "lon": -88.09993675, "proficiency": 0.6673, "schoolCount": 4}, {"name": "Wittenberg", "lat": 44.82685, "lon": -89.17625, "proficiency": 0.5071, "schoolCount": 2}, {"name": "Wisconsin Rapids", "lat": 44.382404, "lon": -89.82268666666668, "proficiency": 0.3809, "schoolCount": 6}, {"name": "West Allis", "lat": 43.0133095, "lon": -88.00465125, "proficiency": 0.2901, "schoolCount": 4}, {"name": "Holmen", "lat": 43.9675, "lon": -91.2616, "proficiency": 0.7993, "schoolCount": 1}, {"name": "Wisconsin Dells", "lat": 43.623808, "lon": -89.762136, "proficiency": 0.6091, "schoolCount": 1}, {"name": "Watertown", "lat": 43.19317, "lon": -88.70342, "proficiency": 0.5226, "schoolCount": 1}, {"name": "Blair", "lat": 44.291193, "lon": -91.209517, "proficiency": 0.2941, "schoolCount": 1}, {"name": "Brillion", "lat": 44.173148, "lon": -88.065142, "proficiency": 0.8269, "schoolCount": 1}, {"name": "Milwaukee", "lat": 43.04255602531646, "lon": -87.9519451772152, "proficiency": 0.1946, "schoolCount": 79}, {"name": "Juneau", "lat": 43.4028, "lon": -88.7162, "proficiency": 0.2793, "schoolCount": 1}, {"name": "Stratford", "lat": 44.805711, "lon": -90.076927, "proficiency": 0.5161, "schoolCount": 1}, {"name": "Two Rivers", "lat": 44.178539, "lon": -87.557926, "proficiency": 0.3333, "schoolCount": 1}, {"name": "Edgar", "lat": 44.924095, "lon": -89.961545, "proficiency": 0.5455, "schoolCount": 1}, {"name": "Stevens Point", "lat": 44.540152, "lon": -89.581928, "proficiency": 0.7328, "schoolCount": 1}, {"name": "Fond du Lac", "lat": 43.7559, "lon": -88.4292, "proficiency": 0.8015, "schoolCount": 1}, {"name": "Gilman", "lat": 45.168445, "lon": -90.807019, "proficiency": 0.3333, "schoolCount": 1}, {"name": "Green Bay", "lat": 44.52656666666667, "lon": -88.07294866666666, "proficiency": 0.4722, "schoolCount": 3}, {"name": "Superior", "lat": 46.7093, "lon": -92.0949, "proficiency": 0.1333, "schoolCount": 1}, {"name": "Madison", "lat": 43.077107625, "lon": -89.401754375, "proficiency": 0.2837, "schoolCount": 8}, {"name": "Rudolph", "lat": 44.49734, "lon": -89.793878, "proficiency": 0.4026, "schoolCount": 1}, {"name": "Neenah", "lat": 44.179249999999996, "lon": -88.45755, "proficiency": 0.127, "schoolCount": 2}, {"name": "Janesville", "lat": 42.685473, "lon": -89.050782, "proficiency": 0.3333, "schoolCount": 1}, {"name": "Wauwatosa", "lat": 43.058373, "lon": -87.997034, "proficiency": 0.5263, "schoolCount": 1}, {"name": "Wausau", "lat": 44.9885915, "lon": -89.65089825, "proficiency": 0.5326, "schoolCount": 4}, {"name": "Kenosha", "lat": 42.5985, "lon": -87.8225, "proficiency": 0.0993, "schoolCount": 1}, {"name": "La Crosse", "lat": 43.810265, "lon": -91.25045, "proficiency": 0.1429, "schoolCount": 1}, {"name": "Racine", "lat": 42.73464071428572, "lon": -87.81363764285713, "proficiency": 0.1708, "schoolCount": 14}, {"name": "Oshkosh", "lat": 44.0334, "lon": -88.6041, "proficiency": 0.0492, "schoolCount": 1}, {"name": "Mukwonago", "lat": 42.8731, "lon": -88.3362, "proficiency": 0.7853, "schoolCount": 1}, {"name": "Westby", "lat": 43.648, "lon": -90.8647, "proficiency": 0.8182, "schoolCount": 1}, {"name": "Osseo", "lat": 44.581105, "lon": -91.218051, "proficiency": 0.3585, "schoolCount": 1}, {"name": "Shullsburg", "lat": 42.575381, "lon": -90.230389, "proficiency": 0.2903, "schoolCount": 1}, {"name": "Sheboygan", "lat": 43.748, "lon": -87.7136, "proficiency": 0.2609, "schoolCount": 1}, {"name": "Viroqua", "lat": 43.558854, "lon": -90.900757, "proficiency": 0.6897, "schoolCount": 1}, {"name": "Beloit", "lat": 42.52236, "lon": -89.030536, "proficiency": 0.5319, "schoolCount": 1}, {"name": "Whitefish Bay", "lat": 43.1119, "lon": -87.8963, "proficiency": 0.8163, "schoolCount": 1}]}