{"state": "WV", "stateName": "West Virginia", "year": 2022, "naep": {"text": "8 out of 10", "numerator": 8, "denominator": 10}, "schools": [{"name": "Belington Middle School", "lat": 39.033387, "lon": -79.925713, "proficiency": 0.42, "district": "BARBOUR COUNTY BOARD OF EDUCATION", "city": "Belington", "ncessch": "540003000002"}, {"name": "Kasson Elementary/Middle School", "lat": 39.228572, "lon": -79.878367, "proficiency": 0.495, "district": "BARBOUR COUNTY BOARD OF EDUCATION", "city": "Moatsville", "ncessch": "540003000005"}, {"name": "Philippi Middle School", "lat": 39.152068, "lon": -80.065495, "proficiency": 0.12, "district": "BARBOUR COUNTY BOARD OF EDUCATION", "city": "Philippi", "ncessch": "540003000010"}, {"name": "Hedgesville Middle School", "lat": 39.55582, "lon": -77.990871, "proficiency": 0.12, "district": "BERKELEY COUNTY SCHOOLS", "city": "Hedgesville", "ncessch": "540006000020"}, {"name": "Martinsburg North Middle School", "lat": 39.471763, "lon": -77.949534, "proficiency": 0.075, "district": "BERKELEY COUNTY SCHOOLS", "city": "Martinsburg", "ncessch": "540006000024"}, {"name": "Martinsburg South Middle School", "lat": 39.44967, "lon": -77.968863, "proficiency": 0.17, "district": "BERKELEY COUNTY SCHOOLS", "city": "Martinsburg", "ncessch": "540006000025"}, {"name": "Mountain Ridge Middle School", "lat": 39.370447, "lon": -78.078321, "proficiency": 0.12, "district": "BERKELEY COUNTY SCHOOLS", "city": "Gerrardstown", "ncessch": "540006001497"}, {"name": "Musselman Middle School", "lat": 39.347569, "lon": -78.049206, "proficiency": 0.22, "district": "BERKELEY COUNTY SCHOOLS", "city": "Bunker Hill", "ncessch": "540006001375"}, {"name": "Spring Mills Middle School", "lat": 39.541155, "lon": -77.901697, "proficiency": 0.17, "district": "BERKELEY COUNTY SCHOOLS", "city": "Martinsburg", "ncessch": "540006001207"}, {"name": "Madison Middle School", "lat": 38.072485, "lon": -81.827692, "proficiency": 0.17, "district": "BOONE COUNTY  SCHOOLS", "city": "Madison", "ncessch": "540009001324"}, {"name": "Sherman Junior High School", "lat": 38.114954, "lon": -81.621491, "proficiency": 0.37, "district": "BOONE COUNTY  SCHOOLS", "city": "Seth", "ncessch": "540009001325"}, {"name": "Van Junior/senior High School", "lat": 37.970429, "lon": -81.712429, "proficiency": 0.1, "district": "BOONE COUNTY  SCHOOLS", "city": "Van", "ncessch": "540009000055"}, {"name": "Braxton County Middle School", "lat": 38.694798, "lon": -80.663406, "proficiency": 0.17, "district": "BRAXTON COUNTY SCHOOLS", "city": "Sutton", "ncessch": "540012000006"}, {"name": "Brooke Middle School", "lat": 40.304508, "lon": -80.588773, "proficiency": 0.32, "district": "BROOKE COUNTY SCHOOLS", "city": "Wellsburg", "ncessch": "540015001582"}, {"name": "Barboursville Middle School", "lat": 38.403525, "lon": -82.29436, "proficiency": 0.42, "district": "CABELL COUNTY SCHOOLS", "city": "Barboursville", "ncessch": "540018000091"}, {"name": "Crossroads Academy", "lat": 38.42743, "lon": -82.399577, "proficiency": 0.25, "district": "CABELL COUNTY SCHOOLS", "city": "Huntington", "ncessch": "540018000884"}, {"name": "Huntington East Middle School", "lat": 38.409498, "lon": -82.372526, "proficiency": 0.22, "district": "CABELL COUNTY SCHOOLS", "city": "Huntington", "ncessch": "540018001483"}, {"name": "Huntington Middle School", "lat": 38.411147, "lon": -82.452275, "proficiency": 0.22, "district": "CABELL COUNTY SCHOOLS", "city": "Huntington", "ncessch": "540018001465"}, {"name": "Milton Middle School", "lat": 38.437656, "lon": -82.151072, "proficiency": 0.37, "district": "CABELL COUNTY SCHOOLS", "city": "Milton", "ncessch": "540018000683"}, {"name": "Calhoun Middle/High School", "lat": 38.837444, "lon": -81.113261, "proficiency": 0.15, "district": "CALHOUN COUNTY SCHOOLS", "city": "Mount Zion", "ncessch": "540021000142"}, {"name": "Clay Middle School", "lat": 38.460488, "lon": -81.081536, "proficiency": 0.17, "district": "CLAY COUNTY SCHOOLS", "city": "Clay", "ncessch": "540024000030"}, {"name": "Doddridge County Middle School", "lat": 39.28837, "lon": -80.741708, "proficiency": 0.47, "district": "DODDRIDGE COUNTY SCHOOLS", "city": "West Union", "ncessch": "540027000043"}, {"name": "Fayetteville Pk-8", "lat": 38.045379, "lon": -81.113682, "proficiency": 0.22, "district": "FAYETTE COUNTY SCHOOLS", "city": "Fayetteville", "ncessch": "540030001595"}, {"name": "Meadow Bridge High", "lat": 37.867942, "lon": -80.861471, "proficiency": 0.05, "district": "FAYETTE COUNTY SCHOOLS", "city": "Meadow Bridge", "ncessch": "540030000190"}, {"name": "Midland Trail High", "lat": 38.112278, "lon": -80.996441, "proficiency": 0.27, "district": "FAYETTE COUNTY SCHOOLS", "city": "Hico", "ncessch": "540030000191"}, {"name": "Oak Hill Middle School", "lat": 37.990508, "lon": -81.145435, "proficiency": 0.17, "district": "FAYETTE COUNTY SCHOOLS", "city": "Oak Hill", "ncessch": "540030000172"}, {"name": "Valley Pk-8", "lat": 38.181712, "lon": -81.310496, "proficiency": 0.15, "district": "FAYETTE COUNTY SCHOOLS", "city": "Smithers", "ncessch": "540030001596"}, {"name": "Gilmer County High School", "lat": 38.939032, "lon": -80.834346, "proficiency": 0.22, "district": "GILMER COUNTY SCHOOLS", "city": "Glenville", "ncessch": "540033000210"}, {"name": "Petersburg High School", "lat": 39.000069, "lon": -79.122462, "proficiency": 0.22, "district": "GRANT COUNTY SCHOOLS", "city": "Petersburg", "ncessch": "540036000220"}, {"name": "Union Educational Complex", "lat": 39.274324, "lon": -79.279745, "proficiency": 0.1, "district": "GRANT COUNTY SCHOOLS", "city": "Mount Storm", "ncessch": "540036000687"}, {"name": "Eastern Greenbrier Middle School", "lat": 37.773813, "lon": -80.472979, "proficiency": 0.17, "district": "GREENBRIER COUNTY SCHOOLS", "city": "Ronceverte", "ncessch": "540039000050"}, {"name": "Western Greenbrier Middle School", "lat": 37.955694, "lon": -80.667985, "proficiency": 0.12, "district": "GREENBRIER COUNTY SCHOOLS", "city": "Crawley", "ncessch": "540039001038"}, {"name": "Capon Bridge Middle School", "lat": 39.304044, "lon": -78.439129, "proficiency": 0.22, "district": "HAMPSHIRE COUNTY SCHOOLS", "city": "Capon Bridge", "ncessch": "540042001336"}, {"name": "Romney Middle School", "lat": 39.324157, "lon": -78.700796, "proficiency": 0.17, "district": "HAMPSHIRE COUNTY SCHOOLS", "city": "Romney", "ncessch": "540042000252"}, {"name": "Oak Glen Middle School", "lat": 40.54477, "lon": -80.560281, "proficiency": 0.57, "district": "HANCOCK COUNTY SCHOOLS", "city": "New Cumberland", "ncessch": "540045001193"}, {"name": "Weir Middle School", "lat": 40.406209, "lon": -80.575398, "proficiency": 0.37, "district": "HANCOCK COUNTY SCHOOLS", "city": "Weirton", "ncessch": "540045001501"}, {"name": "East Hardy Elementary School", "lat": 39.048061, "lon": -78.758968, "proficiency": 0.15, "district": "HARDY COUNTY SCHOOLS", "city": "Baker", "ncessch": "540048000056"}, {"name": "Moorefield Middle School", "lat": 39.069103, "lon": -78.945111, "proficiency": 0.37, "district": "HARDY COUNTY SCHOOLS", "city": "Moorefield", "ncessch": "540048000886"}, {"name": "Bridgeport Middle School", "lat": 39.288203, "lon": -80.262012, "proficiency": 0.52, "district": "HARRISON COUNTY SCHOOLS", "city": "Bridgeport", "ncessch": "540051000285"}, {"name": "Evolution Middle School", "lat": 39.293442, "lon": -80.397126, "proficiency": 0.25, "district": "HARRISON COUNTY SCHOOLS", "city": "Clarksburg", "ncessch": "540051001514"}, {"name": "Lincoln Middle School", "lat": 39.37687, "lon": -80.345982, "proficiency": 0.27, "district": "HARRISON COUNTY SCHOOLS", "city": "Shinnston", "ncessch": "540051001453"}, {"name": "Mountaineer Middle School", "lat": 39.278062, "lon": -80.397051, "proficiency": 0.17, "district": "HARRISON COUNTY SCHOOLS", "city": "Clarksburg", "ncessch": "540051001231"}, {"name": "South Harrison Middle School", "lat": 39.186852, "lon": -80.387077, "proficiency": 0.47, "district": "HARRISON COUNTY SCHOOLS", "city": "Lost Creek", "ncessch": "540051000864"}, {"name": "Washington Irving Middle School", "lat": 39.27808, "lon": -80.342684, "proficiency": 0.17, "district": "HARRISON COUNTY SCHOOLS", "city": "Clarksburg", "ncessch": "540051000605"}, {"name": "Ravenswood Middle School", "lat": 38.952393, "lon": -81.759671, "proficiency": 0.37, "district": "JACKSON COUNTY SCHOOLS", "city": "Ravenswood", "ncessch": "540054001240"}, {"name": "Ripley Middle School", "lat": 38.807321, "lon": -81.705077, "proficiency": 0.22, "district": "JACKSON COUNTY SCHOOLS", "city": "Ripley", "ncessch": "540054001239"}, {"name": "Charles Town Middle School", "lat": 39.277898, "lon": -77.848723, "proficiency": 0.17, "district": "JEFFERSON COUNTY SCHOOLS", "city": "Charles Town", "ncessch": "540057000341"}, {"name": "Harpers Ferry Middle School", "lat": 39.322721, "lon": -77.756019, "proficiency": 0.27, "district": "JEFFERSON COUNTY SCHOOLS", "city": "Harpers Ferry", "ncessch": "540057000343"}, {"name": "Shepherdstown Middle School", "lat": 39.427158, "lon": -77.811127, "proficiency": 0.37, "district": "JEFFERSON COUNTY SCHOOLS", "city": "Shepherdstown", "ncessch": "540057000349"}, {"name": "Wildwood Middle School", "lat": 39.356492, "lon": -77.833651, "proficiency": 0.22, "district": "JEFFERSON COUNTY SCHOOLS", "city": "Shenandoah Junction", "ncessch": "540057001463"}, {"name": "Andrew Jackson Middle School", "lat": 38.425991, "lon": -81.783003, "proficiency": 0.37, "district": "KANAWHA COUNTY SCHOOLS", "city": "Charleston", "ncessch": "540060000355"}, {"name": "KCS Alternative Learning", "lat": 38.38008, "lon": -81.66221, "proficiency": 0.05, "district": "KANAWHA COUNTY SCHOOLS", "city": "Charleston", "ncessch": "540060000898"}, {"name": "Du Pont Middle School", "lat": 38.269934, "lon": -81.567235, "proficiency": 0.17, "district": "KANAWHA COUNTY SCHOOLS", "city": "Belle", "ncessch": "540060000384"}, {"name": "Dunbar Middle School", "lat": 38.365501, "lon": -81.756018, "proficiency": 0.27, "district": "KANAWHA COUNTY SCHOOLS", "city": "Dunbar", "ncessch": "540060000382"}, {"name": "East Bank Middle School", "lat": 38.214991, "lon": -81.451716, "proficiency": 0.17, "district": "KANAWHA COUNTY SCHOOLS", "city": "East Bank", "ncessch": "540060000386"}, {"name": "Elkview Middle School", "lat": 38.44258, "lon": -81.478186, "proficiency": 0.27, "district": "KANAWHA COUNTY SCHOOLS", "city": "Elkview", "ncessch": "540060000390"}, {"name": "Hayes Middle School", "lat": 38.373258, "lon": -81.842, "proficiency": 0.27, "district": "KANAWHA COUNTY SCHOOLS", "city": "Saint Albans", "ncessch": "540060000402"}, {"name": "Horace Mann Middle School", "lat": 38.324411, "lon": -81.585946, "proficiency": 0.37, "district": "KANAWHA COUNTY SCHOOLS", "city": "Charleston", "ncessch": "540060000406"}, {"name": "John Adams Middle School", "lat": 38.327003, "lon": -81.659476, "proficiency": 0.52, "district": "KANAWHA COUNTY SCHOOLS", "city": "Charleston", "ncessch": "540060000352"}, {"name": "Mckinley Middle School", "lat": 38.375643, "lon": -81.79087, "proficiency": 0.17, "district": "KANAWHA COUNTY SCHOOLS", "city": "Saint Albans", "ncessch": "540060000420"}, {"name": "Sissonville Middle School", "lat": 38.463854, "lon": -81.669475, "proficiency": 0.22, "district": "KANAWHA COUNTY SCHOOLS", "city": "Charleston", "ncessch": "540060000451"}, {"name": "South Charleston Middle School", "lat": 38.36625, "lon": -81.690858, "proficiency": 0.12, "district": "KANAWHA COUNTY SCHOOLS", "city": "South Charleston", "ncessch": "540060000443"}, {"name": "West Side Middle School", "lat": 38.367756, "lon": -81.649477, "proficiency": 0.075, "district": "KANAWHA COUNTY SCHOOLS", "city": "Charleston", "ncessch": "540060001442"}, {"name": "Robert L. Bland Middle School", "lat": 39.03894, "lon": -80.462101, "proficiency": 0.22, "district": "LEWIS COUNTY SCHOOLS", "city": "Weston", "ncessch": "540063001459"}, {"name": "Duval Pk-8", "lat": 38.238904, "lon": -81.993056, "proficiency": 0.17, "district": "LINCOLN COUNTY SCHOOLS", "city": "Griffithsville", "ncessch": "540066001236"}, {"name": "Guyan Valley Middle", "lat": 38.248816, "lon": -82.189857, "proficiency": 0.12, "district": "LINCOLN COUNTY SCHOOLS", "city": "Branchland", "ncessch": "540066001242"}, {"name": "Hamlin Pk-8", "lat": 38.279055, "lon": -82.101078, "proficiency": 0.245, "district": "LINCOLN COUNTY SCHOOLS", "city": "Hamlin", "ncessch": "540066001237"}, {"name": "Harts Pk-8", "lat": 38.0378, "lon": -82.135652, "proficiency": 0.15, "district": "LINCOLN COUNTY SCHOOLS", "city": "Harts", "ncessch": "540066001484"}, {"name": "Chapmanville Middle School", "lat": 37.974721, "lon": -82.030162, "proficiency": 0.17, "district": "LOGAN COUNTY SCHOOLS", "city": "Chapmanville", "ncessch": "540069000729"}, {"name": "Logan Middle School", "lat": 37.849774, "lon": -81.99592, "proficiency": 0.075, "district": "LOGAN COUNTY SCHOOLS", "city": "Logan", "ncessch": "540069000519"}, {"name": "Man Middle School", "lat": 37.727391, "lon": -81.855119, "proficiency": 0.12, "district": "LOGAN COUNTY SCHOOLS", "city": "Mallory", "ncessch": "540069001060"}, {"name": "Barrackville Elementary/Middle School", "lat": 39.501993, "lon": -80.166088, "proficiency": 0.545, "district": "MARION COUNTY SCHOOLS", "city": "Barrackville", "ncessch": "540072000542"}, {"name": "East Fairmont Middle School", "lat": 39.480541, "lon": -80.131057, "proficiency": 0.32, "district": "MARION COUNTY SCHOOLS", "city": "Fairmont", "ncessch": "540072000627"}, {"name": "Fairview Middle School", "lat": 39.592332, "lon": -80.252764, "proficiency": 0.345, "district": "MARION COUNTY SCHOOLS", "city": "Fairview", "ncessch": "540072001281"}, {"name": "Mannington Middle School", "lat": 39.528802, "lon": -80.343796, "proficiency": 0.37, "district": "MARION COUNTY SCHOOLS", "city": "Mannington", "ncessch": "540072001284"}, {"name": "Monongah Middle School", "lat": 39.461972, "lon": -80.218049, "proficiency": 0.345, "district": "MARION COUNTY SCHOOLS", "city": "Monongah", "ncessch": "540072001283"}, {"name": "Rivesville Elementary/Middle School", "lat": 39.531535, "lon": -80.12801, "proficiency": 0.245, "district": "MARION COUNTY SCHOOLS", "city": "Rivesville", "ncessch": "540072000574"}, {"name": "West Fairmont Middle School", "lat": 39.470085, "lon": -80.15059, "proficiency": 0.37, "district": "MARION COUNTY SCHOOLS", "city": "Fairmont", "ncessch": "540072001249"}, {"name": "Cameron High School", "lat": 39.848429, "lon": -80.554532, "proficiency": 0.445, "district": "MARSHALL COUNTY SCHOOLS", "city": "Cameron", "ncessch": "540075000589"}, {"name": "Moundsville Middle School", "lat": 39.922368, "lon": -80.74559, "proficiency": 0.22, "district": "MARSHALL COUNTY SCHOOLS", "city": "Moundsville", "ncessch": "540075000598"}, {"name": "Sherrard Middle School", "lat": 39.996835, "lon": -80.679567, "proficiency": 0.42, "district": "MARSHALL COUNTY SCHOOLS", "city": "Wheeling", "ncessch": "540075000604"}, {"name": "Hannan Junior/Senior High School", "lat": 38.5674, "lon": -82.073142, "proficiency": 0.245, "district": "MASON COUNTY SCHOOLS", "city": "Ashton", "ncessch": "540078000614"}, {"name": "Point Pleasant Junior/Senior High School", "lat": 38.879903, "lon": -82.121036, "proficiency": 0.12, "district": "MASON COUNTY SCHOOLS", "city": "Point Pleasant", "ncessch": "540078000625"}, {"name": "Wahama Junior/Senior High School", "lat": 39.009755, "lon": -82.036361, "proficiency": 0.17, "district": "MASON COUNTY SCHOOLS", "city": "Mason", "ncessch": "540078000630"}, {"name": "Mount View High School", "lat": 37.403757, "lon": -81.542691, "proficiency": 0.17, "district": "MCDOWELL COUNTY SCHOOLS", "city": "Welch", "ncessch": "540081001246"}, {"name": "Sandy River Middle School", "lat": 37.418535, "lon": -81.789548, "proficiency": 0.12, "district": "MCDOWELL COUNTY SCHOOLS", "city": "Avondale", "ncessch": "540081001046"}, {"name": "Southside K-8", "lat": 37.304775, "lon": -81.674462, "proficiency": 0.15, "district": "MCDOWELL COUNTY SCHOOLS", "city": "War", "ncessch": "540081001468"}, {"name": "Bluefield Middle School", "lat": 37.251827, "lon": -81.245783, "proficiency": 0.22, "district": "MERCER COUNTY SCHOOLS", "city": "Bluefield", "ncessch": "540084000737"}, {"name": "Glenwood School (K-8)", "lat": 37.337373, "lon": -81.152355, "proficiency": 0.42, "district": "MERCER COUNTY SCHOOLS", "city": "Princeton", "ncessch": "540084000685"}, {"name": "Montcalm High School", "lat": 37.345954, "lon": -81.255609, "proficiency": 0.15, "district": "MERCER COUNTY SCHOOLS", "city": "Rock", "ncessch": "540084000697"}, {"name": "Pikeview Middle School", "lat": 37.426871, "lon": -81.061306, "proficiency": 0.42, "district": "MERCER COUNTY SCHOOLS", "city": "Princeton", "ncessch": "540084001480"}, {"name": "Princeton Middle School", "lat": 37.369205, "lon": -81.10323, "proficiency": 0.17, "district": "MERCER COUNTY SCHOOLS", "city": "Princeton", "ncessch": "540084000702"}, {"name": "Frankfort Middle School", "lat": 39.541077, "lon": -78.803694, "proficiency": 0.32, "district": "MINERAL COUNTY SCHOOLS", "city": "Ridgeley", "ncessch": "540087000071"}, {"name": "Keyser Middle School", "lat": 39.426833, "lon": -78.989112, "proficiency": 0.17, "district": "MINERAL COUNTY SCHOOLS", "city": "Keyser", "ncessch": "540087001402"}, {"name": "Burch Pk8", "lat": 37.677239, "lon": -82.178967, "proficiency": 0.15, "district": "MINGO COUNTY SCHOOLS", "city": "Delbarton", "ncessch": "540090001492"}, {"name": "Gilbert Pk8", "lat": 37.636012, "lon": -81.912381, "proficiency": 0.15, "district": "MINGO COUNTY SCHOOLS", "city": "Gilbert", "ncessch": "540090001491"}, {"name": "Kermit Pre K8", "lat": 37.809542, "lon": -82.398877, "proficiency": 0.345, "district": "MINGO COUNTY SCHOOLS", "city": "Kermit", "ncessch": "540090000906"}, {"name": "Lenore Pk8 School", "lat": 37.797854, "lon": -82.289744, "proficiency": 0.075, "district": "MINGO COUNTY SCHOOLS", "city": "Williamson", "ncessch": "540090001063"}, {"name": "Matewan Pk8", "lat": 37.624393, "lon": -82.153444, "proficiency": 0.15, "district": "MINGO COUNTY SCHOOLS", "city": "Matewan", "ncessch": "540090001404"}, {"name": "Williamson Pk8", "lat": 37.669486, "lon": -82.288492, "proficiency": 0.245, "district": "MINGO COUNTY SCHOOLS", "city": "Williamson", "ncessch": "540090001254"}, {"name": "Clay-Battelle High School", "lat": 39.719871, "lon": -80.223144, "proficiency": 0.245, "district": "MONONGALIA COUNTY SCHOOLS", "city": "Blacksville", "ncessch": "540093000769"}, {"name": "Mountaineer Middle School", "lat": 39.637433, "lon": -79.946799, "proficiency": 0.47, "district": "MONONGALIA COUNTY SCHOOLS", "city": "Morgantown", "ncessch": "540093000655"}, {"name": "South Middle School", "lat": 39.612669, "lon": -79.955087, "proficiency": 0.42, "district": "MONONGALIA COUNTY SCHOOLS", "city": "Morgantown", "ncessch": "540093001299"}, {"name": "Suncrest Middle School", "lat": 39.652825, "lon": -79.970789, "proficiency": 0.52, "district": "MONONGALIA COUNTY SCHOOLS", "city": "Morgantown", "ncessch": "540093000801"}, {"name": "Westwood Middle School", "lat": 39.618231, "lon": -79.978993, "proficiency": 0.22, "district": "MONONGALIA COUNTY SCHOOLS", "city": "Morgantown", "ncessch": "540093000755"}, {"name": "Mountain View Elementary & Middle School", "lat": 37.586281, "lon": -80.54568, "proficiency": 0.345, "district": "MONROE COUNTY SCHOOLS", "city": "Union", "ncessch": "540096001044"}, {"name": "Peterstown Middle School", "lat": 37.465615, "lon": -80.779782, "proficiency": 0.47, "district": "MONROE COUNTY SCHOOLS", "city": "Peterstown", "ncessch": "540096000765"}, {"name": "Paw Paw High School", "lat": 39.527688, "lon": -78.454855, "proficiency": 0.25, "district": "MORGAN COUNTY SCHOOLS", "city": "Paw Paw", "ncessch": "540099000824"}, {"name": "Warm Springs Middle School", "lat": 39.632781, "lon": -78.202162, "proficiency": 0.12, "district": "MORGAN COUNTY SCHOOLS", "city": "Berkeley Springs", "ncessch": "540099000909"}, {"name": "Richwood Middle School", "lat": 38.338062, "lon": -80.676827, "proficiency": 0.075, "district": "NICHOLAS COUNTY SCHOOLS", "city": "Richwood", "ncessch": "540102000846"}, {"name": "Summersville Middle School", "lat": 38.32244, "lon": -80.83006, "proficiency": 0.22, "district": "NICHOLAS COUNTY SCHOOLS", "city": "Summersville", "ncessch": "540102001262"}, {"name": "Bridge Street Middle School", "lat": 40.042698, "lon": -80.66077, "proficiency": 0.22, "district": "OHIO COUNTY SCHOOLS", "city": "Wheeling", "ncessch": "540105000854"}, {"name": "Triadelphia Middle School", "lat": 40.06, "lon": -80.674978, "proficiency": 0.27, "district": "OHIO COUNTY SCHOOLS", "city": "Wheeling", "ncessch": "540105000869"}, {"name": "Warwood School", "lat": 40.11411, "lon": -80.70073, "proficiency": 0.27, "district": "OHIO COUNTY SCHOOLS", "city": "Wheeling", "ncessch": "540105000871"}, {"name": "Wheeling Middle School", "lat": 40.047186, "lon": -80.726226, "proficiency": 0.12, "district": "OHIO COUNTY SCHOOLS", "city": "Wheeling", "ncessch": "540105000874"}, {"name": "Pendleton County Middle/High School", "lat": 38.652267, "lon": -79.325821, "proficiency": 0.345, "district": "PENDLETON COUNTY SCHOOLS", "city": "Franklin", "ncessch": "540108000882"}, {"name": "Pleasants County Middle School", "lat": 39.377815, "lon": -81.26364, "proficiency": 0.22, "district": "PLEASANTS COUNTY SCHOOLS", "city": "Belmont", "ncessch": "540111001264"}, {"name": "Green Bank Elementary-Middle School", "lat": 38.425883, "lon": -79.825936, "proficiency": 0.3, "district": "POCAHONTAS COUNTY SCHOOLS", "city": "Green Bank", "ncessch": "540114001448"}, {"name": "Marlinton Middle School", "lat": 38.200495, "lon": -80.110799, "proficiency": 0.345, "district": "POCAHONTAS COUNTY SCHOOLS", "city": "Buckeye", "ncessch": "540114000895"}, {"name": "Aurora School", "lat": 39.323677, "lon": -79.550324, "proficiency": 0.495, "district": "PRESTON COUNTY SCHOOLS", "city": "Aurora", "ncessch": "540117001358"}, {"name": "Bruceton School", "lat": 39.65848, "lon": -79.641491, "proficiency": 0.37, "district": "PRESTON COUNTY SCHOOLS", "city": "Bruceton Mills", "ncessch": "540117000901"}, {"name": "Central Preston Middle School", "lat": 39.461933, "lon": -79.68262, "proficiency": 0.27, "district": "PRESTON COUNTY SCHOOLS", "city": "Kingwood", "ncessch": "540117000903"}, {"name": "Rowlesburg School", "lat": 39.35611, "lon": -79.686121, "proficiency": 0.25, "district": "PRESTON COUNTY SCHOOLS", "city": "Rowlesburg", "ncessch": "540117001431"}, {"name": "South Preston School", "lat": 39.38075, "lon": -79.771381, "proficiency": 0.15, "district": "PRESTON COUNTY SCHOOLS", "city": "Tunnelton", "ncessch": "540117001522"}, {"name": "Terra Alta/east Preston School", "lat": 39.443171, "lon": -79.535404, "proficiency": 0.15, "district": "PRESTON COUNTY SCHOOLS", "city": "Terra Alta", "ncessch": "540117000913"}, {"name": "West Preston School", "lat": 39.496549, "lon": -79.811525, "proficiency": 0.12, "district": "PRESTON COUNTY SCHOOLS", "city": "Arthurdale", "ncessch": "540117001520"}, {"name": "George Washington Middle", "lat": 38.536677, "lon": -81.925408, "proficiency": 0.37, "district": "PUTNAM COUNTY SCHOOLS", "city": "Eleanor", "ncessch": "540120000923"}, {"name": "Hurricane Middle", "lat": 38.428346, "lon": -82.019265, "proficiency": 0.52, "district": "PUTNAM COUNTY SCHOOLS", "city": "Hurricane", "ncessch": "540120000927"}, {"name": "Poca Middle School", "lat": 38.476213, "lon": -81.812543, "proficiency": 0.27, "district": "PUTNAM COUNTY SCHOOLS", "city": "Poca", "ncessch": "540120000932"}, {"name": "Winfield Middle School", "lat": 38.535091, "lon": -81.888677, "proficiency": 0.67, "district": "PUTNAM COUNTY SCHOOLS", "city": "Winfield", "ncessch": "540120001304"}, {"name": "Beckley-Stratton Middle School", "lat": 37.785036, "lon": -81.155107, "proficiency": 0.12, "district": "RALEIGH COUNTY SCHOOLS", "city": "Beckley", "ncessch": "540123000940"}, {"name": "Independence Middle School", "lat": 37.697204, "lon": -81.225613, "proficiency": 0.37, "district": "RALEIGH COUNTY SCHOOLS", "city": "Sophia", "ncessch": "540123000779"}, {"name": "Park Middle School", "lat": 37.771553, "lon": -81.191217, "proficiency": 0.37, "district": "RALEIGH COUNTY SCHOOLS", "city": "Beckley", "ncessch": "540123000972"}, {"name": "Shady Spring Middle School", "lat": 37.694059, "lon": -81.10249, "proficiency": 0.37, "district": "RALEIGH COUNTY SCHOOLS", "city": "Shady Spring", "ncessch": "540123000981"}, {"name": "Trap Hill Middle School", "lat": 37.794567, "lon": -81.33627, "proficiency": 0.37, "district": "RALEIGH COUNTY SCHOOLS", "city": "Glen Daniel", "ncessch": "540123000990"}, {"name": "Elkins Middle School", "lat": 38.927274, "lon": -79.86355, "proficiency": 0.17, "district": "RANDOLPH COUNTY SCHOOLS", "city": "Elkins", "ncessch": "540126000996"}, {"name": "Tygarts Valley Middle/High School", "lat": 38.72684, "lon": -79.971974, "proficiency": 0.15, "district": "RANDOLPH COUNTY SCHOOLS", "city": "Mill Creek", "ncessch": "540126001011"}, {"name": "Ritchie County Middle", "lat": 39.262784, "lon": -81.064148, "proficiency": 0.22, "district": "RITCHIE COUNTY SCHOOLS", "city": "Ellenboro", "ncessch": "540129000663"}, {"name": "Geary Elementary/Middle School", "lat": 38.620698, "lon": -81.241161, "proficiency": 0.15, "district": "ROANE COUNTY SCHOOLS", "city": "Left Hand", "ncessch": "540132001305"}, {"name": "Spencer Middle School", "lat": 38.804859, "lon": -81.352627, "proficiency": 0.12, "district": "ROANE COUNTY SCHOOLS", "city": "Spencer", "ncessch": "540132001270"}, {"name": "Walton Elementary/Middle School", "lat": 38.63346, "lon": -81.400103, "proficiency": 0.1, "district": "ROANE COUNTY SCHOOLS", "city": "Walton", "ncessch": "540132001033"}, {"name": "Taylor County Middle School", "lat": 39.340579, "lon": -80.076246, "proficiency": 0.22, "district": "TAYLOR COUNTY SCHOOLS", "city": "Grafton", "ncessch": "540138001462"}, {"name": "Davis Thomas Elementary Middle School", "lat": 39.146627, "lon": -79.493119, "proficiency": 0.3, "district": "TUCKER COUNTY SCHOOLS", "city": "Thomas", "ncessch": "540141001067"}, {"name": "Tucker Valley Elementary Middle School", "lat": 39.102579, "lon": -79.670035, "proficiency": 0.345, "district": "TUCKER COUNTY SCHOOLS", "city": "Hambleton", "ncessch": "540141000851"}, {"name": "Tyler Consolidated Middle School", "lat": 39.520712, "lon": -80.894765, "proficiency": 0.22, "district": "TYLER COUNTY SCHOOLS", "city": "Sistersville", "ncessch": "540144000667"}, {"name": "B-u Middle School", "lat": 38.97074, "lon": -80.231128, "proficiency": 0.12, "district": "UPSHUR COUNTY SCHOOLS", "city": "Buckhannon", "ncessch": "540147001077"}, {"name": "Buffalo Middle School", "lat": 38.348318, "lon": -82.513025, "proficiency": 0.52, "district": "WAYNE COUNTY SCHOOLS", "city": "Kenova", "ncessch": "540150001294"}, {"name": "Ceredo-Kenova Middle School", "lat": 38.391518, "lon": -82.564206, "proficiency": 0.27, "district": "WAYNE COUNTY SCHOOLS", "city": "Ceredo", "ncessch": "540150001293"}, {"name": "Crum Pre K-8 School", "lat": 37.906487, "lon": -82.448047, "proficiency": 0.15, "district": "WAYNE COUNTY SCHOOLS", "city": "Crum", "ncessch": "540150001579"}, {"name": "Fort Gay Pre K-8", "lat": 38.114682, "lon": -82.591493, "proficiency": 0.245, "district": "WAYNE COUNTY SCHOOLS", "city": "Fort Gay", "ncessch": "540150001495"}, {"name": "Vinson Middle School", "lat": 38.398956, "lon": -82.510809, "proficiency": 0.22, "district": "WAYNE COUNTY SCHOOLS", "city": "Huntington", "ncessch": "540150001114"}, {"name": "Wayne Middle School", "lat": 38.245436, "lon": -82.434594, "proficiency": 0.37, "district": "WAYNE COUNTY SCHOOLS", "city": "Wayne", "ncessch": "540150001113"}, {"name": "Webster County High School", "lat": 38.407171, "lon": -80.506107, "proficiency": 0.17, "district": "WEBSTER COUNTY SCHOOLS", "city": "Upperglade", "ncessch": "540153001118"}, {"name": "Long Drain School", "lat": 39.661633, "lon": -80.484493, "proficiency": 0.695, "district": "WETZEL COUNTY SCHOOLS", "city": "METZ", "ncessch": "540156001125"}, {"name": "New Martinsville School", "lat": 39.681301, "lon": -80.855808, "proficiency": 0.42, "district": "WETZEL COUNTY SCHOOLS", "city": "New Martinsville", "ncessch": "540156001127"}, {"name": "Paden City High School", "lat": 39.605674, "lon": -80.931943, "proficiency": 0.1, "district": "WETZEL COUNTY SCHOOLS", "city": "Paden City", "ncessch": "540156001129"}, {"name": "Short Line School", "lat": 39.570269, "lon": -80.725588, "proficiency": 0.3, "district": "WETZEL COUNTY SCHOOLS", "city": "Reader", "ncessch": "540156001295"}, {"name": "Wirt County Middle School", "lat": 39.058249, "lon": -81.391292, "proficiency": 0.42, "district": "WIRT COUNTY SCHOOLS", "city": "Elizabeth", "ncessch": "540159000102"}, {"name": "Blennerhassett Middle School", "lat": 39.259564, "lon": -81.616076, "proficiency": 0.42, "district": "WOOD COUNTY SCHOOLS", "city": "Parkersburg", "ncessch": "540162001365"}, {"name": "Edison Middle School", "lat": 39.231469, "lon": -81.532331, "proficiency": 0.42, "district": "WOOD COUNTY SCHOOLS", "city": "Parkersburg", "ncessch": "540162001148"}, {"name": "Hamilton Middle School", "lat": 39.285367, "lon": -81.521993, "proficiency": 0.42, "district": "WOOD COUNTY SCHOOLS", "city": "Parkersburg", "ncessch": "540162001154"}, {"name": "Jackson Middle School", "lat": 39.324582, "lon": -81.536746, "proficiency": 0.32, "district": "WOOD COUNTY SCHOOLS", "city": "Vienna", "ncessch": "540162001156"}, {"name": "Van Devender Middle School", "lat": 39.286611, "lon": -81.542902, "proficiency": 0.17, "district": "WOOD COUNTY SCHOOLS", "city": "Parkersburg", "ncessch": "540162001180"}, {"name": "Williamstown High School", "lat": 39.400251, "lon": -81.451546, "proficiency": 0.32, "district": "WOOD COUNTY SCHOOLS", "city": "Williamstown", "ncessch": "540162001188"}, {"name": "Baileysville Elementary & Middle School", "lat": 37.590409, "lon": -81.673184, "proficiency": 0.05, "district": "WYOMING COUNTY SCHOOLS", "city": "Brenton", "ncessch": "540165001191"}, {"name": "Glen Fork Elementary & Middle School", "lat": 37.695378, "lon": -81.524788, "proficiency": 0.75, "district": "WYOMING COUNTY SCHOOLS", "city": "Glen Fork", "ncessch": "540165001196"}, {"name": "Herndon Cons Elementary & Middle School", "lat": 37.525967, "lon": -81.371599, "proficiency": 0.3, "district": "WYOMING COUNTY SCHOOLS", "city": "Bud", "ncessch": "540165001201"}, {"name": "Huff Cons Elementary & Middle School", "lat": 37.585558, "lon": -81.806741, "proficiency": 0.1, "district": "WYOMING COUNTY SCHOOLS", "city": "Hanover", "ncessch": "540165001203"}, {"name": "Mullens Middle School", "lat": 37.589145, "lon": -81.375379, "proficiency": 0.345, "district": "WYOMING COUNTY SCHOOLS", "city": "Mullens", "ncessch": "540165001211"}, {"name": "Oceana Middle School", "lat": 37.686678, "lon": -81.625299, "proficiency": 0.22, "district": "WYOMING COUNTY SCHOOLS", "city": "Oceana", "ncessch": "540165001213"}, {"name": "Pineville Middle School", "lat": 37.577293, "lon": -81.536455, "proficiency": 0.57, "district": "WYOMING COUNTY SCHOOLS", "city": "Pineville", "ncessch": "540165001217"}, {"name": "Road Branch Elementary & Middle School", "lat": 37.75376, "lon": -81.670051, "proficiency": 0.1, "district": "WYOMING COUNTY SCHOOLS", "city": "Cyclone", "ncessch": "540165001218"}], "districts": [{"name": "BARBOUR COUNTY BOARD OF EDUCATION", "lat": 39.138009000000004, "lon": -79.956525, "proficiency": 0.345, "schoolCount": 3}, {"name": "BERKELEY COUNTY SCHOOLS", "lat": 39.45607066666667, "lon": -77.98974866666667, "proficiency": 0.1458, "schoolCount": 6}, {"name": "BOONE COUNTY  SCHOOLS", "lat": 38.05262266666667, "lon": -81.72053733333333, "proficiency": 0.2133, "schoolCount": 3}, {"name": "BRAXTON COUNTY SCHOOLS", "lat": 38.694798, "lon": -80.663406, "proficiency": 0.17, "schoolCount": 1}, {"name": "BROOKE COUNTY SCHOOLS", "lat": 40.304508, "lon": -80.588773, "proficiency": 0.32, "schoolCount": 1}, {"name": "CABELL COUNTY SCHOOLS", "lat": 38.4178512, "lon": -82.333962, "proficiency": 0.296, "schoolCount": 5}, {"name": "CALHOUN COUNTY SCHOOLS", "lat": 38.837444, "lon": -81.113261, "proficiency": 0.15, "schoolCount": 1}, {"name": "CLAY COUNTY SCHOOLS", "lat": 38.460488, "lon": -81.081536, "proficiency": 0.17, "schoolCount": 1}, {"name": "DODDRIDGE COUNTY SCHOOLS", "lat": 39.28837, "lon": -80.741708, "proficiency": 0.47, "schoolCount": 1}, {"name": "FAYETTE COUNTY SCHOOLS", "lat": 38.039563799999996, "lon": -81.085505, "proficiency": 0.172, "schoolCount": 5}, {"name": "GILMER COUNTY SCHOOLS", "lat": 38.939032, "lon": -80.834346, "proficiency": 0.22, "schoolCount": 1}, {"name": "GRANT COUNTY SCHOOLS", "lat": 39.1371965, "lon": -79.2011035, "proficiency": 0.16, "schoolCount": 2}, {"name": "GREENBRIER COUNTY SCHOOLS", "lat": 37.8647535, "lon": -80.570482, "proficiency": 0.145, "schoolCount": 2}, {"name": "HAMPSHIRE COUNTY SCHOOLS", "lat": 39.314100499999995, "lon": -78.5699625, "proficiency": 0.195, "schoolCount": 2}, {"name": "HANCOCK COUNTY SCHOOLS", "lat": 40.475489499999995, "lon": -80.5678395, "proficiency": 0.47, "schoolCount": 2}, {"name": "HARDY COUNTY SCHOOLS", "lat": 39.058582, "lon": -78.85203949999999, "proficiency": 0.26, "schoolCount": 2}, {"name": "HARRISON COUNTY SCHOOLS", "lat": 39.28358483333333, "lon": -80.355322, "proficiency": 0.3083, "schoolCount": 6}, {"name": "JACKSON COUNTY SCHOOLS", "lat": 38.879857, "lon": -81.732374, "proficiency": 0.295, "schoolCount": 2}, {"name": "JEFFERSON COUNTY SCHOOLS", "lat": 39.346067250000004, "lon": -77.81238, "proficiency": 0.2575, "schoolCount": 4}, {"name": "KANAWHA COUNTY SCHOOLS", "lat": 38.361327076923075, "lon": -81.66049769230769, "proficiency": 0.2342, "schoolCount": 13}, {"name": "LEWIS COUNTY SCHOOLS", "lat": 39.03894, "lon": -80.462101, "proficiency": 0.22, "schoolCount": 1}, {"name": "LINCOLN COUNTY SCHOOLS", "lat": 38.20114375, "lon": -82.10491075, "proficiency": 0.1713, "schoolCount": 4}, {"name": "LOGAN COUNTY SCHOOLS", "lat": 37.850628666666665, "lon": -81.96040033333334, "proficiency": 0.1217, "schoolCount": 3}, {"name": "MARION COUNTY SCHOOLS", "lat": 39.509608571428565, "lon": -80.198622, "proficiency": 0.3629, "schoolCount": 7}, {"name": "MARSHALL COUNTY SCHOOLS", "lat": 39.922543999999995, "lon": -80.65989633333334, "proficiency": 0.3617, "schoolCount": 3}, {"name": "MASON COUNTY SCHOOLS", "lat": 38.81901933333333, "lon": -82.07684633333334, "proficiency": 0.1783, "schoolCount": 3}, {"name": "MCDOWELL COUNTY SCHOOLS", "lat": 37.375689, "lon": -81.66890033333334, "proficiency": 0.1467, "schoolCount": 3}, {"name": "MERCER COUNTY SCHOOLS", "lat": 37.346245999999994, "lon": -81.1636566, "proficiency": 0.276, "schoolCount": 5}, {"name": "MINERAL COUNTY SCHOOLS", "lat": 39.483955, "lon": -78.89640299999999, "proficiency": 0.245, "schoolCount": 2}, {"name": "MINGO COUNTY SCHOOLS", "lat": 37.702421, "lon": -82.20365083333333, "proficiency": 0.1858, "schoolCount": 6}, {"name": "MONONGALIA COUNTY SCHOOLS", "lat": 39.6482058, "lon": -80.0149624, "proficiency": 0.375, "schoolCount": 5}, {"name": "MONROE COUNTY SCHOOLS", "lat": 37.525948, "lon": -80.66273100000001, "proficiency": 0.4075, "schoolCount": 2}, {"name": "MORGAN COUNTY SCHOOLS", "lat": 39.5802345, "lon": -78.3285085, "proficiency": 0.185, "schoolCount": 2}, {"name": "NICHOLAS COUNTY SCHOOLS", "lat": 38.330251000000004, "lon": -80.7534435, "proficiency": 0.1475, "schoolCount": 2}, {"name": "OHIO COUNTY SCHOOLS", "lat": 40.0659985, "lon": -80.690676, "proficiency": 0.22, "schoolCount": 4}, {"name": "PENDLETON COUNTY SCHOOLS", "lat": 38.652267, "lon": -79.325821, "proficiency": 0.345, "schoolCount": 1}, {"name": "PLEASANTS COUNTY SCHOOLS", "lat": 39.377815, "lon": -81.26364, "proficiency": 0.22, "schoolCount": 1}, {"name": "POCAHONTAS COUNTY SCHOOLS", "lat": 38.313188999999994, "lon": -79.9683675, "proficiency": 0.3225, "schoolCount": 2}, {"name": "PRESTON COUNTY SCHOOLS", "lat": 39.44581, "lon": -79.66840942857142, "proficiency": 0.2579, "schoolCount": 7}, {"name": "PUTNAM COUNTY SCHOOLS", "lat": 38.49408175, "lon": -81.91147325, "proficiency": 0.4575, "schoolCount": 4}, {"name": "RALEIGH COUNTY SCHOOLS", "lat": 37.748483799999995, "lon": -81.2021394, "proficiency": 0.32, "schoolCount": 5}, {"name": "RANDOLPH COUNTY SCHOOLS", "lat": 38.827056999999996, "lon": -79.91776200000001, "proficiency": 0.16, "schoolCount": 2}, {"name": "RITCHIE COUNTY SCHOOLS", "lat": 39.262784, "lon": -81.064148, "proficiency": 0.22, "schoolCount": 1}, {"name": "ROANE COUNTY SCHOOLS", "lat": 38.686339, "lon": -81.331297, "proficiency": 0.1233, "schoolCount": 3}, {"name": "TAYLOR COUNTY SCHOOLS", "lat": 39.340579, "lon": -80.076246, "proficiency": 0.22, "schoolCount": 1}, {"name": "TUCKER COUNTY SCHOOLS", "lat": 39.124603, "lon": -79.581577, "proficiency": 0.3225, "schoolCount": 2}, {"name": "TYLER COUNTY SCHOOLS", "lat": 39.520712, "lon": -80.894765, "proficiency": 0.22, "schoolCount": 1}, {"name": "UPSHUR COUNTY SCHOOLS", "lat": 38.97074, "lon": -80.231128, "proficiency": 0.12, "schoolCount": 1}, {"name": "WAYNE COUNTY SCHOOLS", "lat": 38.23423283333333, "lon": -82.51036233333333, "proficiency": 0.2958, "schoolCount": 6}, {"name": "WEBSTER COUNTY SCHOOLS", "lat": 38.407171, "lon": -80.506107, "proficiency": 0.17, "schoolCount": 1}, {"name": "WETZEL COUNTY SCHOOLS", "lat": 39.62971925, "lon": -80.749458, "proficiency": 0.3787, "schoolCount": 4}, {"name": "WIRT COUNTY SCHOOLS", "lat": 39.058249, "lon": -81.391292, "proficiency": 0.42, "schoolCount": 1}, {"name": "WOOD COUNTY SCHOOLS", "lat": 39.297974, "lon": -81.533599, "proficiency": 0.345, "schoolCount": 6}, {"name": "WYOMING COUNTY SCHOOLS", "lat": 37.6255235, "lon": -81.572937, "proficiency": 0.3044, "schoolCount": 8}], "cities": [{"name": "Belington", "lat": 39.033387, "lon": -79.925713, "proficiency": 0.42, "schoolCount": 1}, {"name": "Moatsville", "lat": 39.228572, "lon": -79.878367, "proficiency": 0.495, "schoolCount": 1}, {"name": "Philippi", "lat": 39.152068, "lon": -80.065495, "proficiency": 0.12, "schoolCount": 1}, {"name": "Hedgesville", "lat": 39.55582, "lon": -77.990871, "proficiency": 0.12, "schoolCount": 1}, {"name": "Martinsburg", "lat": 39.487529333333335, "lon": -77.94003133333332, "proficiency": 0.1383, "schoolCount": 3}, {"name": "Gerrardstown", "lat": 39.370447, "lon": -78.078321, "proficiency": 0.12, "schoolCount": 1}, {"name": "Bunker Hill", "lat": 39.347569, "lon": -78.049206, "proficiency": 0.22, "schoolCount": 1}, {"name": "Madison", "lat": 38.072485, "lon": -81.827692, "proficiency": 0.17, "schoolCount": 1}, {"name": "Seth", "lat": 38.114954, "lon": -81.621491, "proficiency": 0.37, "schoolCount": 1}, {"name": "Van", "lat": 37.970429, "lon": -81.712429, "proficiency": 0.1, "schoolCount": 1}, {"name": "Sutton", "lat": 38.694798, "lon": -80.663406, "proficiency": 0.17, "schoolCount": 1}, {"name": "Wellsburg", "lat": 40.304508, "lon": -80.588773, "proficiency": 0.32, "schoolCount": 1}, {"name": "Barboursville", "lat": 38.403525, "lon": -82.29436, "proficiency": 0.42, "schoolCount": 1}, {"name": "Huntington", "lat": 38.41175775, "lon": -82.43379675, "proficiency": 0.2275, "schoolCount": 4}, {"name": "Milton", "lat": 38.437656, "lon": -82.151072, "proficiency": 0.37, "schoolCount": 1}, {"name": "Mount Zion", "lat": 38.837444, "lon": -81.113261, "proficiency": 0.15, "schoolCount": 1}, {"name": "Clay", "lat": 38.460488, "lon": -81.081536, "proficiency": 0.17, "schoolCount": 1}, {"name": "West Union", "lat": 39.28837, "lon": -80.741708, "proficiency": 0.47, "schoolCount": 1}, {"name": "Fayetteville", "lat": 38.045379, "lon": -81.113682, "proficiency": 0.22, "schoolCount": 1}, {"name": "Meadow Bridge", "lat": 37.867942, "lon": -80.861471, "proficiency": 0.05, "schoolCount": 1}, {"name": "Hico", "lat": 38.112278, "lon": -80.996441, "proficiency": 0.27, "schoolCount": 1}, {"name": "Oak Hill", "lat": 37.990508, "lon": -81.145435, "proficiency": 0.17, "schoolCount": 1}, {"name": "Smithers", "lat": 38.181712, "lon": -81.310496, "proficiency": 0.15, "schoolCount": 1}, {"name": "Glenville", "lat": 38.939032, "lon": -80.834346, "proficiency": 0.22, "schoolCount": 1}, {"name": "Petersburg", "lat": 39.000069, "lon": -79.122462, "proficiency": 0.22, "schoolCount": 1}, {"name": "Mount Storm", "lat": 39.274324, "lon": -79.279745, "proficiency": 0.1, "schoolCount": 1}, {"name": "Ronceverte", "lat": 37.773813, "lon": -80.472979, "proficiency": 0.17, "schoolCount": 1}, {"name": "Crawley", "lat": 37.955694, "lon": -80.667985, "proficiency": 0.12, "schoolCount": 1}, {"name": "Capon Bridge", "lat": 39.304044, "lon": -78.439129, "proficiency": 0.22, "schoolCount": 1}, {"name": "Romney", "lat": 39.324157, "lon": -78.700796, "proficiency": 0.17, "schoolCount": 1}, {"name": "New Cumberland", "lat": 40.54477, "lon": -80.560281, "proficiency": 0.57, "schoolCount": 1}, {"name": "Weirton", "lat": 40.406209, "lon": -80.575398, "proficiency": 0.37, "schoolCount": 1}, {"name": "Baker", "lat": 39.048061, "lon": -78.758968, "proficiency": 0.15, "schoolCount": 1}, {"name": "Moorefield", "lat": 39.069103, "lon": -78.945111, "proficiency": 0.37, "schoolCount": 1}, {"name": "Bridgeport", "lat": 39.288203, "lon": -80.262012, "proficiency": 0.52, "schoolCount": 1}, {"name": "Clarksburg", "lat": 39.28319466666667, "lon": -80.37895366666667, "proficiency": 0.1967, "schoolCount": 3}, {"name": "Shinnston", "lat": 39.37687, "lon": -80.345982, "proficiency": 0.27, "schoolCount": 1}, {"name": "Lost Creek", "lat": 39.186852, "lon": -80.387077, "proficiency": 0.47, "schoolCount": 1}, {"name": "Ravenswood", "lat": 38.952393, "lon": -81.759671, "proficiency": 0.37, "schoolCount": 1}, {"name": "Ripley", "lat": 38.807321, "lon": -81.705077, "proficiency": 0.22, "schoolCount": 1}, {"name": "Charles Town", "lat": 39.277898, "lon": -77.848723, "proficiency": 0.17, "schoolCount": 1}, {"name": "Harpers Ferry", "lat": 39.322721, "lon": -77.756019, "proficiency": 0.27, "schoolCount": 1}, {"name": "Shepherdstown", "lat": 39.427158, "lon": -77.811127, "proficiency": 0.37, "schoolCount": 1}, {"name": "Shenandoah Junction", "lat": 39.356492, "lon": -77.833651, "proficiency": 0.22, "schoolCount": 1}, {"name": "Charleston", "lat": 38.38151583333333, "lon": -81.6682645, "proficiency": 0.2675, "schoolCount": 6}, {"name": "Belle", "lat": 38.269934, "lon": -81.567235, "proficiency": 0.17, "schoolCount": 1}, {"name": "Dunbar", "lat": 38.365501, "lon": -81.756018, "proficiency": 0.27, "schoolCount": 1}, {"name": "East Bank", "lat": 38.214991, "lon": -81.451716, "proficiency": 0.17, "schoolCount": 1}, {"name": "Elkview", "lat": 38.44258, "lon": -81.478186, "proficiency": 0.27, "schoolCount": 1}, {"name": "Saint Albans", "lat": 38.374450499999995, "lon": -81.816435, "proficiency": 0.22, "schoolCount": 2}, {"name": "South Charleston", "lat": 38.36625, "lon": -81.690858, "proficiency": 0.12, "schoolCount": 1}, {"name": "Weston", "lat": 39.03894, "lon": -80.462101, "proficiency": 0.22, "schoolCount": 1}, {"name": "Griffithsville", "lat": 38.238904, "lon": -81.993056, "proficiency": 0.17, "schoolCount": 1}, {"name": "Branchland", "lat": 38.248816, "lon": -82.189857, "proficiency": 0.12, "schoolCount": 1}, {"name": "Hamlin", "lat": 38.279055, "lon": -82.101078, "proficiency": 0.245, "schoolCount": 1}, {"name": "Harts", "lat": 38.0378, "lon": -82.135652, "proficiency": 0.15, "schoolCount": 1}, {"name": "Chapmanville", "lat": 37.974721, "lon": -82.030162, "proficiency": 0.17, "schoolCount": 1}, {"name": "Logan", "lat": 37.849774, "lon": -81.99592, "proficiency": 0.075, "schoolCount": 1}, {"name": "Mallory", "lat": 37.727391, "lon": -81.855119, "proficiency": 0.12, "schoolCount": 1}, {"name": "Barrackville", "lat": 39.501993, "lon": -80.166088, "proficiency": 0.545, "schoolCount": 1}, {"name": "Fairmont", "lat": 39.475313, "lon": -80.1408235, "proficiency": 0.345, "schoolCount": 2}, {"name": "Fairview", "lat": 39.592332, "lon": -80.252764, "proficiency": 0.345, "schoolCount": 1}, {"name": "Mannington", "lat": 39.528802, "lon": -80.343796, "proficiency": 0.37, "schoolCount": 1}, {"name": "Monongah", "lat": 39.461972, "lon": -80.218049, "proficiency": 0.345, "schoolCount": 1}, {"name": "Rivesville", "lat": 39.531535, "lon": -80.12801, "proficiency": 0.245, "schoolCount": 1}, {"name": "Cameron", "lat": 39.848429, "lon": -80.554532, "proficiency": 0.445, "schoolCount": 1}, {"name": "Moundsville", "lat": 39.922368, "lon": -80.74559, "proficiency": 0.22, "schoolCount": 1}, {"name": "Wheeling", "lat": 40.0521658, "lon": -80.6884542, "proficiency": 0.26, "schoolCount": 5}, {"name": "Ashton", "lat": 38.5674, "lon": -82.073142, "proficiency": 0.245, "schoolCount": 1}, {"name": "Point Pleasant", "lat": 38.879903, "lon": -82.121036, "proficiency": 0.12, "schoolCount": 1}, {"name": "Mason", "lat": 39.009755, "lon": -82.036361, "proficiency": 0.17, "schoolCount": 1}, {"name": "Welch", "lat": 37.403757, "lon": -81.542691, "proficiency": 0.17, "schoolCount": 1}, {"name": "Avondale", "lat": 37.418535, "lon": -81.789548, "proficiency": 0.12, "schoolCount": 1}, {"name": "War", "lat": 37.304775, "lon": -81.674462, "proficiency": 0.15, "schoolCount": 1}, {"name": "Bluefield", "lat": 37.251827, "lon": -81.245783, "proficiency": 0.22, "schoolCount": 1}, {"name": "Princeton", "lat": 37.377816333333335, "lon": -81.10563033333334, "proficiency": 0.3367, "schoolCount": 3}, {"name": "Rock", "lat": 37.345954, "lon": -81.255609, "proficiency": 0.15, "schoolCount": 1}, {"name": "Ridgeley", "lat": 39.541077, "lon": -78.803694, "proficiency": 0.32, "schoolCount": 1}, {"name": "Keyser", "lat": 39.426833, "lon": -78.989112, "proficiency": 0.17, "schoolCount": 1}, {"name": "Delbarton", "lat": 37.677239, "lon": -82.178967, "proficiency": 0.15, "schoolCount": 1}, {"name": "Gilbert", "lat": 37.636012, "lon": -81.912381, "proficiency": 0.15, "schoolCount": 1}, {"name": "Kermit", "lat": 37.809542, "lon": -82.398877, "proficiency": 0.345, "schoolCount": 1}, {"name": "Williamson", "lat": 37.733670000000004, "lon": -82.289118, "proficiency": 0.16, "schoolCount": 2}, {"name": "Matewan", "lat": 37.624393, "lon": -82.153444, "proficiency": 0.15, "schoolCount": 1}, {"name": "Blacksville", "lat": 39.719871, "lon": -80.223144, "proficiency": 0.245, "schoolCount": 1}, {"name": "Morgantown", "lat": 39.6302895, "lon": -79.962917, "proficiency": 0.4075, "schoolCount": 4}, {"name": "Union", "lat": 37.586281, "lon": -80.54568, "proficiency": 0.345, "schoolCount": 1}, {"name": "Peterstown", "lat": 37.465615, "lon": -80.779782, "proficiency": 0.47, "schoolCount": 1}, {"name": "Paw Paw", "lat": 39.527688, "lon": -78.454855, "proficiency": 0.25, "schoolCount": 1}, {"name": "Berkeley Springs", "lat": 39.632781, "lon": -78.202162, "proficiency": 0.12, "schoolCount": 1}, {"name": "Richwood", "lat": 38.338062, "lon": -80.676827, "proficiency": 0.075, "schoolCount": 1}, {"name": "Summersville", "lat": 38.32244, "lon": -80.83006, "proficiency": 0.22, "schoolCount": 1}, {"name": "Franklin", "lat": 38.652267, "lon": -79.325821, "proficiency": 0.345, "schoolCount": 1}, {"name": "Belmont", "lat": 39.377815, "lon": -81.26364, "proficiency": 0.22, "schoolCount": 1}, {"name": "Green Bank", "lat": 38.425883, "lon": -79.825936, "proficiency": 0.3, "schoolCount": 1}, {"name": "Buckeye", "lat": 38.200495, "lon": -80.110799, "proficiency": 0.345, "schoolCount": 1}, {"name": "Aurora", "lat": 39.323677, "lon": -79.550324, "proficiency": 0.495, "schoolCount": 1}, {"name": "Bruceton Mills", "lat": 39.65848, "lon": -79.641491, "proficiency": 0.37, "schoolCount": 1}, {"name": "Kingwood", "lat": 39.461933, "lon": -79.68262, "proficiency": 0.27, "schoolCount": 1}, {"name": "Rowlesburg", "lat": 39.35611, "lon": -79.686121, "proficiency": 0.25, "schoolCount": 1}, {"name": "Tunnelton", "lat": 39.38075, "lon": -79.771381, "proficiency": 0.15, "schoolCount": 1}, {"name": "Terra Alta", "lat": 39.443171, "lon": -79.535404, "proficiency": 0.15, "schoolCount": 1}, {"name": "Arthurdale", "lat": 39.496549, "lon": -79.811525, "proficiency": 0.12, "schoolCount": 1}, {"name": "Eleanor", "lat": 38.536677, "lon": -81.925408, "proficiency": 0.37, "schoolCount": 1}, {"name": "Hurricane", "lat": 38.428346, "lon": -82.019265, "proficiency": 0.52, "schoolCount": 1}, {"name": "Poca", "lat": 38.476213, "lon": -81.812543, "proficiency": 0.27, "schoolCount": 1}, {"name": "Winfield", "lat": 38.535091, "lon": -81.888677, "proficiency": 0.67, "schoolCount": 1}, {"name": "Beckley", "lat": 37.7782945, "lon": -81.17316199999999, "proficiency": 0.245, "schoolCount": 2}, {"name": "Sophia", "lat": 37.697204, "lon": -81.225613, "proficiency": 0.37, "schoolCount": 1}, {"name": "Shady Spring", "lat": 37.694059, "lon": -81.10249, "proficiency": 0.37, "schoolCount": 1}, {"name": "Glen Daniel", "lat": 37.794567, "lon": -81.33627, "proficiency": 0.37, "schoolCount": 1}, {"name": "Elkins", "lat": 38.927274, "lon": -79.86355, "proficiency": 0.17, "schoolCount": 1}, {"name": "Mill Creek", "lat": 38.72684, "lon": -79.971974, "proficiency": 0.15, "schoolCount": 1}, {"name": "Ellenboro", "lat": 39.262784, "lon": -81.064148, "proficiency": 0.22, "schoolCount": 1}, {"name": "Left Hand", "lat": 38.620698, "lon": -81.241161, "proficiency": 0.15, "schoolCount": 1}, {"name": "Spencer", "lat": 38.804859, "lon": -81.352627, "proficiency": 0.12, "schoolCount": 1}, {"name": "Walton", "lat": 38.63346, "lon": -81.400103, "proficiency": 0.1, "schoolCount": 1}, {"name": "Grafton", "lat": 39.340579, "lon": -80.076246, "proficiency": 0.22, "schoolCount": 1}, {"name": "Thomas", "lat": 39.146627, "lon": -79.493119, "proficiency": 0.3, "schoolCount": 1}, {"name": "Hambleton", "lat": 39.102579, "lon": -79.670035, "proficiency": 0.345, "schoolCount": 1}, {"name": "Sistersville", "lat": 39.520712, "lon": -80.894765, "proficiency": 0.22, "schoolCount": 1}, {"name": "Buckhannon", "lat": 38.97074, "lon": -80.231128, "proficiency": 0.12, "schoolCount": 1}, {"name": "Kenova", "lat": 38.348318, "lon": -82.513025, "proficiency": 0.52, "schoolCount": 1}, {"name": "Ceredo", "lat": 38.391518, "lon": -82.564206, "proficiency": 0.27, "schoolCount": 1}, {"name": "Crum", "lat": 37.906487, "lon": -82.448047, "proficiency": 0.15, "schoolCount": 1}, {"name": "Fort Gay", "lat": 38.114682, "lon": -82.591493, "proficiency": 0.245, "schoolCount": 1}, {"name": "Wayne", "lat": 38.245436, "lon": -82.434594, "proficiency": 0.37, "schoolCount": 1}, {"name": "Upperglade", "lat": 38.407171, "lon": -80.506107, "proficiency": 0.17, "schoolCount": 1}, {"name": "METZ", "lat": 39.661633, "lon": -80.484493, "proficiency": 0.695, "schoolCount": 1}, {"name": "New Martinsville", "lat": 39.681301, "lon": -80.855808, "proficiency": 0.42, "schoolCount": 1}, {"name": "Paden City", "lat": 39.605674, "lon": -80.931943, "proficiency": 0.1, "schoolCount": 1}, {"name": "Reader", "lat": 39.570269, "lon": -80.725588, "proficiency": 0.3, "schoolCount": 1}, {"name": "Elizabeth", "lat": 39.058249, "lon": -81.391292, "proficiency": 0.42, "schoolCount": 1}, {"name": "Parkersburg", "lat": 39.26575275, "lon": -81.5533255, "proficiency": 0.3575, "schoolCount": 4}, {"name": "Vienna", "lat": 39.324582, "lon": -81.536746, "proficiency": 0.32, "schoolCount": 1}, {"name": "Williamstown", "lat": 39.400251, "lon": -81.451546, "proficiency": 0.32, "schoolCount": 1}, {"name": "Brenton", "lat": 37.590409, "lon": -81.673184, "proficiency": 0.05, "schoolCount": 1}, {"name": "Glen Fork", "lat": 37.695378, "lon": -81.524788, "proficiency": 0.75, "schoolCount": 1}, {"name": "Bud", "lat": 37.525967, "lon": -81.371599, "proficiency": 0.3, "schoolCount": 1}, {"name": "Hanover", "lat": 37.585558, "lon": -81.806741, "proficiency": 0.1, "schoolCount": 1}, {"name": "Mullens", "lat": 37.589145, "lon": -81.375379, "proficiency": 0.345, "schoolCount": 1}, {"name": "Oceana", "lat": 37.686678, "lon": -81.625299, "proficiency": 0.22, "schoolCount": 1}, {"name": "Pineville", "lat": 37.577293, "lon": -81.536455, "proficiency": 0.57, "schoolCount": 1}, {"name": "Cyclone", "lat": 37.75376, "lon": -81.670051, "proficiency": 0.1, "schoolCount": 1}]}