{"state": "WY", "stateName": "Wyoming", "year": 2025, "naep": {"text": "7 out of 10", "numerator": 7, "denominator": 10}, "schools": [{"name": "Laramie Middle School", "lat": 41.323914, "lon": -105.566175, "proficiency": 0.6422, "district": "Albany County School District #1", "city": "Laramie", "ncessch": "560073000002"}, {"name": "Rock River Junior High School", "lat": 41.742975, "lon": -105.969402, "proficiency": 0.4167, "district": "Albany County School District #1", "city": "Rock River", "ncessch": "560073000017"}, {"name": "Snowy Range Academy", "lat": 41.307523, "lon": -105.544698, "proficiency": 0.8947, "district": "Albany County School District #1", "city": "Laramie", "ncessch": "560073000216"}, {"name": "UW Laboratory School", "lat": 41.314332, "lon": -105.579058, "proficiency": 0.6667, "district": "Albany County School District #1", "city": "Laramie", "ncessch": "560073000535"}, {"name": "Burlington Middle School", "lat": 44.451148, "lon": -108.433748, "proficiency": 0.5455, "district": "Big Horn County School District #1", "city": "Burlington", "ncessch": "560142000477"}, {"name": "Rocky Mountain Middle School", "lat": 44.876375, "lon": -108.464366, "proficiency": 0.2617, "district": "Big Horn County School District #1", "city": "Cowley", "ncessch": "560142000428"}, {"name": "Lovell Middle School", "lat": 44.830594, "lon": -108.400135, "proficiency": 0.6389, "district": "Big Horn County School District #2", "city": "Lovell", "ncessch": "560146000055"}, {"name": "Greybull Middle School", "lat": 44.497287, "lon": -108.057217, "proficiency": 0.6111, "district": "Big Horn County School District #3", "city": "Greybull", "ncessch": "560317000378"}, {"name": "Riverside Middle/High School", "lat": 44.380558, "lon": -108.052722, "proficiency": 0.7368, "district": "Big Horn County School District #4", "city": "Basin", "ncessch": "560109000036"}, {"name": "Sage Valley Junior High School", "lat": 44.27034, "lon": -105.518151, "proficiency": 0.5818, "district": "Campbell County School District #1", "city": "Gillette", "ncessch": "560147000410"}, {"name": "Twin Spruce Junior High School", "lat": 44.28751, "lon": -105.503771, "proficiency": 0.4645, "district": "Campbell County School District #1", "city": "Gillette", "ncessch": "560147000058"}, {"name": "Wright Jr. & Sr. High School", "lat": 43.756234, "lon": -105.491657, "proficiency": 0.5882, "district": "Campbell County School District #1", "city": "Wright", "ncessch": "560147000429"}, {"name": "Little Snake River Valley School", "lat": 41.816455, "lon": -107.223771, "proficiency": 0.6522, "district": "Carbon County School District #1", "city": "Baggs", "ncessch": "560103000124"}, {"name": "Rawlins Middle School", "lat": 41.802819, "lon": -107.22711, "proficiency": 0.3491, "district": "Carbon County School District #1", "city": "Rawlins", "ncessch": "560103000028"}, {"name": "Encampment K-12 School", "lat": 41.209449, "lon": -106.793026, "proficiency": 0.3333, "district": "Carbon County School District #2", "city": "Encampment", "ncessch": "560170000387"}, {"name": "HEM Junior/Senior High School", "lat": 41.862054, "lon": -106.555805, "proficiency": 0.5333, "district": "Carbon County School District #2", "city": "Hanna", "ncessch": "560170000385"}, {"name": "Saratoga Middle/High School", "lat": 41.451756, "lon": -106.818903, "proficiency": 0.2273, "district": "Carbon County School District #2", "city": "Saratoga", "ncessch": "560170000390"}, {"name": "Douglas Middle School", "lat": 42.749981, "lon": -105.398722, "proficiency": 0.5739, "district": "Converse County School District #1", "city": "Douglas", "ncessch": "560214000368"}, {"name": "Glenrock Jr/Sr High School", "lat": 42.86098, "lon": -105.84937, "proficiency": 0.4561, "district": "Converse County School District #2", "city": "Glenrock", "ncessch": "560215000137"}, {"name": "Hulett School", "lat": 44.686403, "lon": -104.602808, "proficiency": 0.5385, "district": "Crook County School District #1", "city": "Hulett", "ncessch": "560237000407"}, {"name": "Moorcroft Secondary School", "lat": 44.260367, "lon": -104.944069, "proficiency": 0.44, "district": "Crook County School District #1", "city": "Moorcroft", "ncessch": "560237000566"}, {"name": "Sundance Secondary School", "lat": 44.407155, "lon": -104.371186, "proficiency": 0.6944, "district": "Crook County School District #1", "city": "Sundance", "ncessch": "560237000405"}, {"name": "Lander Middle School", "lat": 42.84208, "lon": -108.738731, "proficiency": 0.3796, "district": "Fremont County School District # 1", "city": "Lander", "ncessch": "560287000198"}, {"name": "Wyoming Indian Middle School", "lat": 43.025099, "lon": -108.770237, "proficiency": 0.05, "district": "Fremont County School District #14", "city": "Ethete", "ncessch": "560445000386"}, {"name": "Dubois Middle School", "lat": 43.542002, "lon": -109.63039, "proficiency": 0.5625, "district": "Fremont County School District # 2", "city": "Dubois", "ncessch": "560267000366"}, {"name": "Ft. Washakie Middle School", "lat": 42.999067, "lon": -108.854857, "proficiency": 0.05, "district": "Fremont County School District #21", "city": "Ft. Washakie", "ncessch": "560282000370"}, {"name": "Shoshoni Junior High School", "lat": 43.245414, "lon": -108.116231, "proficiency": 0.4688, "district": "Fremont County School District #24", "city": "Shoshoni", "ncessch": "560570000510"}, {"name": "Riverton Middle School", "lat": 43.032413, "lon": -108.411827, "proficiency": 0.4724, "district": "Fremont County School District #25", "city": "Riverton", "ncessch": "560522000287"}, {"name": "Arapahoe Elementary", "lat": 42.964229, "lon": -108.490074, "proficiency": 0.1395, "district": "Fremont County School District #38", "city": "Arapahoe", "ncessch": "560096000162"}, {"name": "Wind River Middle School", "lat": 43.246238, "lon": -108.684995, "proficiency": 0.35, "district": "Fremont County School District # 6", "city": "Pavillion", "ncessch": "560283000545"}, {"name": "Lingle-Ft. Laramie Middle School", "lat": 42.136384, "lon": -104.34154, "proficiency": 0.4615, "district": "Goshen County School District #1", "city": "Lingle", "ncessch": "560299000373"}, {"name": "Southeast Junior High School", "lat": 41.91277, "lon": -104.296803, "proficiency": 0.5217, "district": "Goshen County School District #1", "city": "Yoder", "ncessch": "560299000482"}, {"name": "Torrington Middle School", "lat": 42.0714, "lon": -104.193, "proficiency": 0.5765, "district": "Goshen County School District #1", "city": "Torrington", "ncessch": "560299000169"}, {"name": "Thermopolis Middle School", "lat": 43.641336, "lon": -108.228194, "proficiency": 0.725, "district": "Hot Springs County School District #1", "city": "Thermopolis", "ncessch": "560331000181"}, {"name": "Clear Creek Middle School", "lat": 44.340939, "lon": -106.703016, "proficiency": 0.7407, "district": "Johnson County School District #1", "city": "Buffalo", "ncessch": "560377000191"}, {"name": "Kaycee School", "lat": 43.712712, "lon": -106.63385, "proficiency": 0.95, "district": "Johnson County School District #1", "city": "Kaycee", "ncessch": "560377000449"}, {"name": "Carey Junior High School", "lat": 41.147516, "lon": -104.773046, "proficiency": 0.3929, "district": "Laramie County School District #1", "city": "Cheyenne", "ncessch": "560198000093"}, {"name": "Johnson Junior High School", "lat": 41.111187, "lon": -104.820724, "proficiency": 0.2299, "district": "Laramie County School District #1", "city": "Cheyenne", "ncessch": "560198000094"}, {"name": "McCormick Junior High School", "lat": 41.174085, "lon": -104.835412, "proficiency": 0.4984, "district": "Laramie County School District #1", "city": "Cheyenne", "ncessch": "560198000095"}, {"name": "PODER Academy Secondary School", "lat": 41.142651, "lon": -104.833839, "proficiency": 0.8, "district": "Laramie County School District #1", "city": "Cheyenne", "ncessch": "560198000574"}, {"name": "Burns Jr & Sr High School", "lat": 41.188003, "lon": -104.353325, "proficiency": 0.4364, "district": "Laramie County School District #2", "city": "Burns", "ncessch": "560412000209"}, {"name": "Pine Bluffs Jr & Sr High School", "lat": 41.179277, "lon": -104.064568, "proficiency": 0.4333, "district": "Laramie County School District #2", "city": "Pine Bluffs", "ncessch": "560412000210"}, {"name": "Kemmerer Junior Senior High School", "lat": 41.786268, "lon": -110.544047, "proficiency": 0.5211, "district": "Lincoln County School District #1", "city": "Diamondville", "ncessch": "560403000557"}, {"name": "Cokeville High School", "lat": 42.08274, "lon": -110.955407, "proficiency": 0.4545, "district": "Lincoln County School District #2", "city": "Cokeville", "ncessch": "560406000381"}, {"name": "Star Valley Middle School", "lat": 42.749397, "lon": -110.942239, "proficiency": 0.6095, "district": "Lincoln County School District #2", "city": "Afton", "ncessch": "560406000203"}, {"name": "C Y Middle School", "lat": 42.813692, "lon": -106.358793, "proficiency": 0.6039, "district": "Natrona County School District #1", "city": "Casper", "ncessch": "560451000232"}, {"name": "Casper Classical Academy", "lat": 42.842309, "lon": -106.299699, "proficiency": 0.4177, "district": "Natrona County School District #1", "city": "Casper", "ncessch": "560451000183"}, {"name": "Centennial Middle School", "lat": 42.83453, "lon": -106.263593, "proficiency": 0.4141, "district": "Natrona County School District #1", "city": "Casper", "ncessch": "560451000470"}, {"name": "Dean Morgan Middle School", "lat": 42.835797, "lon": -106.330229, "proficiency": 0.285, "district": "Natrona County School District #1", "city": "Casper", "ncessch": "560451000233"}, {"name": "Midwest School", "lat": 43.409682, "lon": -106.273378, "proficiency": 0.5, "district": "Natrona County School District #1", "city": "Midwest", "ncessch": "560451000133"}, {"name": "Poison Spider Elementary", "lat": 42.83421, "lon": -106.567371, "proficiency": 0.2174, "district": "Natrona County School District #1", "city": "Casper", "ncessch": "560451000253"}, {"name": "Woods Learning Center", "lat": 42.845533, "lon": -106.277419, "proficiency": 0.1538, "district": "Natrona County School District #1", "city": "Casper", "ncessch": "560451000262"}, {"name": "Lusk Middle School", "lat": 42.759881, "lon": -104.446441, "proficiency": 0.3333, "district": "Niobrara County School District #1", "city": "Lusk", "ncessch": "560423000215"}, {"name": "Powell Middle School", "lat": 44.756479, "lon": -108.754556, "proficiency": 0.72, "district": "Park County School District # 1", "city": "Powell", "ncessch": "560516000279"}, {"name": "Meeteetse School", "lat": 44.153664, "lon": -108.872369, "proficiency": 0.4444, "district": "Park County School District #16", "city": "Meeteetse", "ncessch": "560438000139"}, {"name": "Cody Middle School", "lat": 44.530639, "lon": -109.03488, "proficiency": 0.6423, "district": "Park County School District # 6", "city": "Cody", "ncessch": "560207000351"}, {"name": "Wheatland Middle School", "lat": 42.048952, "lon": -104.977015, "proficiency": 0.4, "district": "Platte County School District #1", "city": "Wheatland", "ncessch": "560509000274"}, {"name": "Guernsey-Sunrise Junior High", "lat": 42.264807, "lon": -104.742339, "proficiency": 0.2667, "district": "Platte County School District #2", "city": "Guernsey", "ncessch": "560318000499"}, {"name": "Prairie View Community School", "lat": 41.762217, "lon": -104.820843, "proficiency": 0.3125, "district": "Prairie View Community School", "city": "Chugwater", "ncessch": "568025900599"}, {"name": "Big Horn Middle School", "lat": 44.682332, "lon": -106.997833, "proficiency": 0.8409, "district": "Sheridan County School District #1", "city": "Big Horn", "ncessch": "560569000446"}, {"name": "Tongue River Middle School", "lat": 44.905842, "lon": -107.177691, "proficiency": 0.7, "district": "Sheridan County School District #1", "city": "Ranchester", "ncessch": "560569000447"}, {"name": "Sheridan Junior High School", "lat": 44.803212, "lon": -106.963889, "proficiency": 0.7409, "district": "Sheridan County School District #2", "city": "Sheridan", "ncessch": "560569500361"}, {"name": "Clearmont K-12 School", "lat": 44.637318, "lon": -106.38178, "proficiency": 0.95, "district": "Sheridan County School District #3", "city": "Clearmont", "ncessch": "560568000569"}, {"name": "Pinedale Middle School", "lat": 42.870732, "lon": -109.857728, "proficiency": 0.6804, "district": "Sublette County School District #1", "city": "Pinedale", "ncessch": "560486000268"}, {"name": "Big Piney Middle School", "lat": 42.537443, "lon": -110.115579, "proficiency": 0.5, "district": "Sublette County School District #9", "city": "Big Piney", "ncessch": "560126000042"}, {"name": "Farson-Eden Middle School", "lat": 42.108714, "lon": -109.442793, "proficiency": 0.8667, "district": "Sweetwater County School District #1", "city": "Farson", "ncessch": "560530200524"}, {"name": "Rock Springs Junior High", "lat": 41.59032, "lon": -109.255794, "proficiency": 0.3984, "district": "Sweetwater County School District #1", "city": "Rock Springs", "ncessch": "560530200295"}, {"name": "Lincoln Middle School", "lat": 41.509855, "lon": -109.46663, "proficiency": 0.4938, "district": "Sweetwater County School District #2", "city": "Green River", "ncessch": "560576200399"}, {"name": "Jackson Hole Middle School", "lat": 43.462973, "lon": -110.803563, "proficiency": 0.5901, "district": "Teton County School District #1", "city": "Jackson", "ncessch": "560583000336"}, {"name": "Davis Middle School", "lat": 41.260919, "lon": -110.972237, "proficiency": 0.4783, "district": "Uinta County School District #1", "city": "Evanston", "ncessch": "560276000153"}, {"name": "Evanston Middle School", "lat": 41.260261, "lon": -110.962734, "proficiency": 0.6869, "district": "Uinta County School District #1", "city": "Evanston", "ncessch": "560276000463"}, {"name": "Mountain View K-8", "lat": 41.270944, "lon": -110.319708, "proficiency": 0.4915, "district": "Uinta County School District #4", "city": "Mountain View", "ncessch": "560450000558"}, {"name": "Lyman Intermediate School", "lat": 41.328583, "lon": -110.292311, "proficiency": 0.6607, "district": "Uinta County School District #6", "city": "Lyman", "ncessch": "560426000357"}, {"name": "Worland Middle School", "lat": 44.010839, "lon": -107.941625, "proficiency": 0.4835, "district": "Washakie County School District #1", "city": "Worland", "ncessch": "560624000344"}, {"name": "Ten Sleep K-12", "lat": 44.036012, "lon": -107.447922, "proficiency": 0.75, "district": "Washakie County School District #2", "city": "Ten Sleep", "ncessch": "560582000393"}, {"name": "Newcastle Middle School", "lat": 43.85104, "lon": -104.208172, "proficiency": 0.5918, "district": "Weston County School District #1", "city": "Newcastle", "ncessch": "560483000264"}, {"name": "Upton Middle School", "lat": 44.101674, "lon": -104.621453, "proficiency": 0.3478, "district": "Weston County School District #7", "city": "Upton", "ncessch": "560609000342"}], "districts": [{"name": "Albany County School District #1", "lat": 41.422186, "lon": -105.66483325, "proficiency": 0.6551, "schoolCount": 4}, {"name": "Big Horn County School District #1", "lat": 44.66376150000001, "lon": -108.449057, "proficiency": 0.4036, "schoolCount": 2}, {"name": "Big Horn County School District #2", "lat": 44.830594, "lon": -108.400135, "proficiency": 0.6389, "schoolCount": 1}, {"name": "Big Horn County School District #3", "lat": 44.497287, "lon": -108.057217, "proficiency": 0.6111, "schoolCount": 1}, {"name": "Big Horn County School District #4", "lat": 44.380558, "lon": -108.052722, "proficiency": 0.7368, "schoolCount": 1}, {"name": "Campbell County School District #1", "lat": 44.10469466666666, "lon": -105.50452633333333, "proficiency": 0.5448, "schoolCount": 3}, {"name": "Carbon County School District #1", "lat": 41.809636999999995, "lon": -107.22544049999999, "proficiency": 0.5007, "schoolCount": 2}, {"name": "Carbon County School District #2", "lat": 41.507753, "lon": -106.722578, "proficiency": 0.3646, "schoolCount": 3}, {"name": "Converse County School District #1", "lat": 42.749981, "lon": -105.398722, "proficiency": 0.5739, "schoolCount": 1}, {"name": "Converse County School District #2", "lat": 42.86098, "lon": -105.84937, "proficiency": 0.4561, "schoolCount": 1}, {"name": "Crook County School District #1", "lat": 44.45130833333334, "lon": -104.63935433333332, "proficiency": 0.5576, "schoolCount": 3}, {"name": "Fremont County School District # 1", "lat": 42.84208, "lon": -108.738731, "proficiency": 0.3796, "schoolCount": 1}, {"name": "Fremont County School District #14", "lat": 43.025099, "lon": -108.770237, "proficiency": 0.05, "schoolCount": 1}, {"name": "Fremont County School District # 2", "lat": 43.542002, "lon": -109.63039, "proficiency": 0.5625, "schoolCount": 1}, {"name": "Fremont County School District #21", "lat": 42.999067, "lon": -108.854857, "proficiency": 0.05, "schoolCount": 1}, {"name": "Fremont County School District #24", "lat": 43.245414, "lon": -108.116231, "proficiency": 0.4688, "schoolCount": 1}, {"name": "Fremont County School District #25", "lat": 43.032413, "lon": -108.411827, "proficiency": 0.4724, "schoolCount": 1}, {"name": "Fremont County School District #38", "lat": 42.964229, "lon": -108.490074, "proficiency": 0.1395, "schoolCount": 1}, {"name": "Fremont County School District # 6", "lat": 43.246238, "lon": -108.684995, "proficiency": 0.35, "schoolCount": 1}, {"name": "Goshen County School District #1", "lat": 42.04018466666667, "lon": -104.27711433333333, "proficiency": 0.5199, "schoolCount": 3}, {"name": "Hot Springs County School District #1", "lat": 43.641336, "lon": -108.228194, "proficiency": 0.725, "schoolCount": 1}, {"name": "Johnson County School District #1", "lat": 44.0268255, "lon": -106.668433, "proficiency": 0.8454, "schoolCount": 2}, {"name": "Laramie County School District #1", "lat": 41.143859750000004, "lon": -104.81575525, "proficiency": 0.4803, "schoolCount": 4}, {"name": "Laramie County School District #2", "lat": 41.18364, "lon": -104.2089465, "proficiency": 0.4349, "schoolCount": 2}, {"name": "Lincoln County School District #1", "lat": 41.786268, "lon": -110.544047, "proficiency": 0.5211, "schoolCount": 1}, {"name": "Lincoln County School District #2", "lat": 42.4160685, "lon": -110.948823, "proficiency": 0.532, "schoolCount": 2}, {"name": "Natrona County School District #1", "lat": 42.91653614285714, "lon": -106.33864028571429, "proficiency": 0.3703, "schoolCount": 7}, {"name": "Niobrara County School District #1", "lat": 42.759881, "lon": -104.446441, "proficiency": 0.3333, "schoolCount": 1}, {"name": "Park County School District # 1", "lat": 44.756479, "lon": -108.754556, "proficiency": 0.72, "schoolCount": 1}, {"name": "Park County School District #16", "lat": 44.153664, "lon": -108.872369, "proficiency": 0.4444, "schoolCount": 1}, {"name": "Park County School District # 6", "lat": 44.530639, "lon": -109.03488, "proficiency": 0.6423, "schoolCount": 1}, {"name": "Platte County School District #1", "lat": 42.048952, "lon": -104.977015, "proficiency": 0.4, "schoolCount": 1}, {"name": "Platte County School District #2", "lat": 42.264807, "lon": -104.742339, "proficiency": 0.2667, "schoolCount": 1}, {"name": "Prairie View Community School", "lat": 41.762217, "lon": -104.820843, "proficiency": 0.3125, "schoolCount": 1}, {"name": "Sheridan County School District #1", "lat": 44.794087000000005, "lon": -107.087762, "proficiency": 0.7704, "schoolCount": 2}, {"name": "Sheridan County School District #2", "lat": 44.803212, "lon": -106.963889, "proficiency": 0.7409, "schoolCount": 1}, {"name": "Sheridan County School District #3", "lat": 44.637318, "lon": -106.38178, "proficiency": 0.95, "schoolCount": 1}, {"name": "Sublette County School District #1", "lat": 42.870732, "lon": -109.857728, "proficiency": 0.6804, "schoolCount": 1}, {"name": "Sublette County School District #9", "lat": 42.537443, "lon": -110.115579, "proficiency": 0.5, "schoolCount": 1}, {"name": "Sweetwater County School District #1", "lat": 41.849517, "lon": -109.34929349999999, "proficiency": 0.6325, "schoolCount": 2}, {"name": "Sweetwater County School District #2", "lat": 41.509855, "lon": -109.46663, "proficiency": 0.4938, "schoolCount": 1}, {"name": "Teton County School District #1", "lat": 43.462973, "lon": -110.803563, "proficiency": 0.5901, "schoolCount": 1}, {"name": "Uinta County School District #1", "lat": 41.26059, "lon": -110.96748550000001, "proficiency": 0.5826, "schoolCount": 2}, {"name": "Uinta County School District #4", "lat": 41.270944, "lon": -110.319708, "proficiency": 0.4915, "schoolCount": 1}, {"name": "Uinta County School District #6", "lat": 41.328583, "lon": -110.292311, "proficiency": 0.6607, "schoolCount": 1}, {"name": "Washakie County School District #1", "lat": 44.010839, "lon": -107.941625, "proficiency": 0.4835, "schoolCount": 1}, {"name": "Washakie County School District #2", "lat": 44.036012, "lon": -107.447922, "proficiency": 0.75, "schoolCount": 1}, {"name": "Weston County School District #1", "lat": 43.85104, "lon": -104.208172, "proficiency": 0.5918, "schoolCount": 1}, {"name": "Weston County School District #7", "lat": 44.101674, "lon": -104.621453, "proficiency": 0.3478, "schoolCount": 1}], "cities": [{"name": "Laramie", "lat": 41.31525633333334, "lon": -105.56331033333333, "proficiency": 0.7345, "schoolCount": 3}, {"name": "Rock River", "lat": 41.742975, "lon": -105.969402, "proficiency": 0.4167, "schoolCount": 1}, {"name": "Burlington", "lat": 44.451148, "lon": -108.433748, "proficiency": 0.5455, "schoolCount": 1}, {"name": "Cowley", "lat": 44.876375, "lon": -108.464366, "proficiency": 0.2617, "schoolCount": 1}, {"name": "Lovell", "lat": 44.830594, "lon": -108.400135, "proficiency": 0.6389, "schoolCount": 1}, {"name": "Greybull", "lat": 44.497287, "lon": -108.057217, "proficiency": 0.6111, "schoolCount": 1}, {"name": "Basin", "lat": 44.380558, "lon": -108.052722, "proficiency": 0.7368, "schoolCount": 1}, {"name": "Gillette", "lat": 44.278925, "lon": -105.51096100000001, "proficiency": 0.5232, "schoolCount": 2}, {"name": "Wright", "lat": 43.756234, "lon": -105.491657, "proficiency": 0.5882, "schoolCount": 1}, {"name": "Baggs", "lat": 41.816455, "lon": -107.223771, "proficiency": 0.6522, "schoolCount": 1}, {"name": "Rawlins", "lat": 41.802819, "lon": -107.22711, "proficiency": 0.3491, "schoolCount": 1}, {"name": "Encampment", "lat": 41.209449, "lon": -106.793026, "proficiency": 0.3333, "schoolCount": 1}, {"name": "Hanna", "lat": 41.862054, "lon": -106.555805, "proficiency": 0.5333, "schoolCount": 1}, {"name": "Saratoga", "lat": 41.451756, "lon": -106.818903, "proficiency": 0.2273, "schoolCount": 1}, {"name": "Douglas", "lat": 42.749981, "lon": -105.398722, "proficiency": 0.5739, "schoolCount": 1}, {"name": "Glenrock", "lat": 42.86098, "lon": -105.84937, "proficiency": 0.4561, "schoolCount": 1}, {"name": "Hulett", "lat": 44.686403, "lon": -104.602808, "proficiency": 0.5385, "schoolCount": 1}, {"name": "Moorcroft", "lat": 44.260367, "lon": -104.944069, "proficiency": 0.44, "schoolCount": 1}, {"name": "Sundance", "lat": 44.407155, "lon": -104.371186, "proficiency": 0.6944, "schoolCount": 1}, {"name": "Lander", "lat": 42.84208, "lon": -108.738731, "proficiency": 0.3796, "schoolCount": 1}, {"name": "Ethete", "lat": 43.025099, "lon": -108.770237, "proficiency": 0.05, "schoolCount": 1}, {"name": "Dubois", "lat": 43.542002, "lon": -109.63039, "proficiency": 0.5625, "schoolCount": 1}, {"name": "Ft. Washakie", "lat": 42.999067, "lon": -108.854857, "proficiency": 0.05, "schoolCount": 1}, {"name": "Shoshoni", "lat": 43.245414, "lon": -108.116231, "proficiency": 0.4688, "schoolCount": 1}, {"name": "Riverton", "lat": 43.032413, "lon": -108.411827, "proficiency": 0.4724, "schoolCount": 1}, {"name": "Arapahoe", "lat": 42.964229, "lon": -108.490074, "proficiency": 0.1395, "schoolCount": 1}, {"name": "Pavillion", "lat": 43.246238, "lon": -108.684995, "proficiency": 0.35, "schoolCount": 1}, {"name": "Lingle", "lat": 42.136384, "lon": -104.34154, "proficiency": 0.4615, "schoolCount": 1}, {"name": "Yoder", "lat": 41.91277, "lon": -104.296803, "proficiency": 0.5217, "schoolCount": 1}, {"name": "Torrington", "lat": 42.0714, "lon": -104.193, "proficiency": 0.5765, "schoolCount": 1}, {"name": "Thermopolis", "lat": 43.641336, "lon": -108.228194, "proficiency": 0.725, "schoolCount": 1}, {"name": "Buffalo", "lat": 44.340939, "lon": -106.703016, "proficiency": 0.7407, "schoolCount": 1}, {"name": "Kaycee", "lat": 43.712712, "lon": -106.63385, "proficiency": 0.95, "schoolCount": 1}, {"name": "Cheyenne", "lat": 41.143859750000004, "lon": -104.81575525, "proficiency": 0.4803, "schoolCount": 4}, {"name": "Burns", "lat": 41.188003, "lon": -104.353325, "proficiency": 0.4364, "schoolCount": 1}, {"name": "Pine Bluffs", "lat": 41.179277, "lon": -104.064568, "proficiency": 0.4333, "schoolCount": 1}, {"name": "Diamondville", "lat": 41.786268, "lon": -110.544047, "proficiency": 0.5211, "schoolCount": 1}, {"name": "Cokeville", "lat": 42.08274, "lon": -110.955407, "proficiency": 0.4545, "schoolCount": 1}, {"name": "Afton", "lat": 42.749397, "lon": -110.942239, "proficiency": 0.6095, "schoolCount": 1}, {"name": "Casper", "lat": 42.83434516666667, "lon": -106.34951733333332, "proficiency": 0.3486, "schoolCount": 6}, {"name": "Midwest", "lat": 43.409682, "lon": -106.273378, "proficiency": 0.5, "schoolCount": 1}, {"name": "Lusk", "lat": 42.759881, "lon": -104.446441, "proficiency": 0.3333, "schoolCount": 1}, {"name": "Powell", "lat": 44.756479, "lon": -108.754556, "proficiency": 0.72, "schoolCount": 1}, {"name": "Meeteetse", "lat": 44.153664, "lon": -108.872369, "proficiency": 0.4444, "schoolCount": 1}, {"name": "Cody", "lat": 44.530639, "lon": -109.03488, "proficiency": 0.6423, "schoolCount": 1}, {"name": "Wheatland", "lat": 42.048952, "lon": -104.977015, "proficiency": 0.4, "schoolCount": 1}, {"name": "Guernsey", "lat": 42.264807, "lon": -104.742339, "proficiency": 0.2667, "schoolCount": 1}, {"name": "Chugwater", "lat": 41.762217, "lon": -104.820843, "proficiency": 0.3125, "schoolCount": 1}, {"name": "Big Horn", "lat": 44.682332, "lon": -106.997833, "proficiency": 0.8409, "schoolCount": 1}, {"name": "Ranchester", "lat": 44.905842, "lon": -107.177691, "proficiency": 0.7, "schoolCount": 1}, {"name": "Sheridan", "lat": 44.803212, "lon": -106.963889, "proficiency": 0.7409, "schoolCount": 1}, {"name": "Clearmont", "lat": 44.637318, "lon": -106.38178, "proficiency": 0.95, "schoolCount": 1}, {"name": "Pinedale", "lat": 42.870732, "lon": -109.857728, "proficiency": 0.6804, "schoolCount": 1}, {"name": "Big Piney", "lat": 42.537443, "lon": -110.115579, "proficiency": 0.5, "schoolCount": 1}, {"name": "Farson", "lat": 42.108714, "lon": -109.442793, "proficiency": 0.8667, "schoolCount": 1}, {"name": "Rock Springs", "lat": 41.59032, "lon": -109.255794, "proficiency": 0.3984, "schoolCount": 1}, {"name": "Green River", "lat": 41.509855, "lon": -109.46663, "proficiency": 0.4938, "schoolCount": 1}, {"name": "Jackson", "lat": 43.462973, "lon": -110.803563, "proficiency": 0.5901, "schoolCount": 1}, {"name": "Evanston", "lat": 41.26059, "lon": -110.96748550000001, "proficiency": 0.5826, "schoolCount": 2}, {"name": "Mountain View", "lat": 41.270944, "lon": -110.319708, "proficiency": 0.4915, "schoolCount": 1}, {"name": "Lyman", "lat": 41.328583, "lon": -110.292311, "proficiency": 0.6607, "schoolCount": 1}, {"name": "Worland", "lat": 44.010839, "lon": -107.941625, "proficiency": 0.4835, "schoolCount": 1}, {"name": "Ten Sleep", "lat": 44.036012, "lon": -107.447922, "proficiency": 0.75, "schoolCount": 1}, {"name": "Newcastle", "lat": 43.85104, "lon": -104.208172, "proficiency": 0.5918, "schoolCount": 1}, {"name": "Upton", "lat": 44.101674, "lon": -104.621453, "proficiency": 0.3478, "schoolCount": 1}]}