{"state":"DE","stateName":"Delaware","naep":{"text":"8 out of 10","numerator":8,"denominator":10},"schools":[{"name":"Positive Outcomes Charter School","x":780.1,"y":210.8,"proficiency":0.245,"district":"Positive Outcomes Charter School","city":"Camden"},{"name":"East Side Charter School","x":777.7,"y":198.9,"proficiency":0.245,"district":"East Side Charter School","city":"Wilmington"},{"name":"Campus Community School","x":779.9,"y":209.8,"proficiency":0.3,"district":"Campus Community School","city":"Dover"},{"name":"Edison (Thomas A.) Charter School","x":777.6,"y":199,"proficiency":-0.03,"district":"Edison (Thomas A.) Charter School","city":"Wilmington"},{"name":"Sussex Academy","x":784.1,"y":217.9,"proficiency":0.57,"district":"Sussex Academy","city":"Georgetown"},{"name":"Kuumba Academy Charter School","x":777.4,"y":199.1,"proficiency":0.15,"district":"Kuumba Academy Charter School","city":"Wilmington"},{"name":"Newark Charter School","x":774.4,"y":201.6,"proficiency":0.745,"district":"Newark Charter School","city":"Newark"},{"name":"Providence Creek Academy Charter School","x":777.8,"y":207.7,"proficiency":0.3,"district":"Providence Creek Academy Charter School","city":"Clayton"},{"name":"MOT Charter School","x":776,"y":205.7,"proficiency":0.445,"district":"MOT Charter School","city":"Middletown"},{"name":"Charter School of New Castle","x":777.7,"y":200.4,"proficiency":0.15,"district":"Charter School of New Castle","city":"New Castle"},{"name":"Odyssey Charter School","x":776.6,"y":199,"proficiency":0.27,"district":"Odyssey Charter School","city":"Wilmington"},{"name":"Las Americas ASPIRA Academy","x":775.5,"y":200.7,"proficiency":0.075,"district":"Las Americas Aspira Academy","city":"Newark"},{"name":"Gateway Charter School","x":776.3,"y":199.3,"proficiency":0.1,"district":"Gateway Charter School","city":"Wilmington"},{"name":"First State Montessori Academy","x":777.4,"y":199.1,"proficiency":0.3,"district":"First State Montessori Academy","city":"Wilmington"},{"name":"Freire Charter School","x":777.4,"y":199,"proficiency":0.1,"district":"Freire Charter School Wilmington","city":"Wilmington"},{"name":"Great Oaks Charter School","x":777.4,"y":199.1,"proficiency":0.05,"district":"Great Oaks Charter School","city":"Wilmington"},{"name":"Meredith (Everett) Middle School","x":776.3,"y":205.2,"proficiency":0.22,"district":"Appoquinimink School District","city":"Middletown"},{"name":"Redding (Louis L.) Middle School","x":776.3,"y":205,"proficiency":0.27,"district":"Appoquinimink School District","city":"Middletown"},{"name":"Waters (Alfred G.) Middle School","x":776.4,"y":204,"proficiency":0.42,"district":"Appoquinimink School District","city":"Middletown"},{"name":"Mariner Middle School","x":784.7,"y":216.5,"proficiency":0.27,"district":"Cape Henlopen School District","city":"Milton"},{"name":"Beacon Middle School","x":787.2,"y":216.9,"proficiency":0.52,"district":"Cape Henlopen School District","city":"Lewes"},{"name":"Sussex Consortium","x":785.9,"y":216.5,"proficiency":-0.03,"district":"Cape Henlopen School District","city":"Lewes"},{"name":"Dover Air Force Base Middle School","x":780.8,"y":210.5,"proficiency":0.3,"district":"Caesar Rodney School District","city":"Dover"},{"name":"John S. Charlton School","x":780.5,"y":210.9,"proficiency":0.245,"district":"Caesar Rodney School District","city":"Camden"},{"name":"F. Niel Postlethwait Middle School","x":780.5,"y":210.9,"proficiency":0.27,"district":"Caesar Rodney School District","city":"Camden"},{"name":"Fred Fifer III Middle School","x":779.9,"y":210.7,"proficiency":0.27,"district":"Caesar Rodney School District","city":"Camden"},{"name":"Central Middle School","x":780.1,"y":209.8,"proficiency":0.12,"district":"Capital School District","city":"Dover"},{"name":"Kent County Community School","x":779.8,"y":209.9,"proficiency":-0.03,"district":"Capital School District","city":"Dover"},{"name":"Kent County Secondary ILC","x":779.9,"y":209.8,"proficiency":-0.03,"district":"Capital School District","city":"Dover"},{"name":"Delaware School for the Deaf","x":775.5,"y":200.9,"proficiency":0.245,"district":"Christina School District","city":"Newark"},{"name":"The Bayard School","x":777.1,"y":199.2,"proficiency":0.05,"district":"Christina School District","city":"Wilmington"},{"name":"Shue-Medill Middle School","x":775.4,"y":200.5,"proficiency":0.12,"district":"Christina School District","city":"Newark"},{"name":"Kirk (George V.) Middle School","x":775.4,"y":201,"proficiency":0.12,"district":"Christina School District","city":"Newark"},{"name":"Gauger-Cobbs Middle School","x":775.4,"y":201.2,"proficiency":0.12,"district":"Christina School District","city":"Newark"},{"name":"Christiana High School","x":775.7,"y":201.1,"proficiency":0.645,"district":"Christina School District","city":"Newark"},{"name":"Brennen School (The)","x":775.4,"y":200.9,"proficiency":-0.03,"district":"Christina School District","city":"Newark"},{"name":"Read (George) Middle School","x":777.1,"y":200.5,"proficiency":0.17,"district":"Colonial School District","city":"New Castle"},{"name":"Bedford (Gunning) Middle School","x":777,"y":202.7,"proficiency":0.12,"district":"Colonial School District","city":"New Castle"},{"name":"McCullough (Calvin R. ) Middle School","x":777.4,"y":200,"proficiency":0.05,"district":"Colonial School District","city":"New Castle"},{"name":"Delmar Middle School","x":782.3,"y":222.9,"proficiency":0.27,"district":"Delmar School District","city":"Delmar"},{"name":"Southern Delaware School of the Arts","x":787.1,"y":221.8,"proficiency":0.495,"district":"Indian River School District","city":"Selbyville"},{"name":"Ennis (Howard T.) School","x":785.1,"y":218.9,"proficiency":-0.03,"district":"Indian River School District","city":"Georgetown"},{"name":"Selbyville Middle School","x":787.3,"y":221.7,"proficiency":0.22,"district":"Indian River School District","city":"Selbyville"},{"name":"Georgetown Middle School","x":783.9,"y":218.2,"proficiency":0.22,"district":"Indian River School District","city":"Georgetown"},{"name":"Millsboro Middle School","x":785.7,"y":219.6,"proficiency":0.27,"district":"Indian River School District","city":"Millsboro"},{"name":"Chipman (W.T.) Middle School","x":780.2,"y":214.3,"proficiency":0.27,"district":"Lake Forest School District","city":"Harrington"},{"name":"Laurel Middle School","x":782,"y":221.3,"proficiency":0.22,"district":"Laurel School District","city":"Laurel"},{"name":"Milford Central Academy","x":782.4,"y":213.8,"proficiency":0.22,"district":"Milford School District","city":"Milford"},{"name":"Springer Middle School","x":777.3,"y":198,"proficiency":0.22,"district":"Brandywine School District","city":"Wilmington"},{"name":"duPont (Pierre S.) Middle School","x":777.5,"y":198.7,"proficiency":0.445,"district":"Brandywine School District","city":"Wilmington"},{"name":"Talley Middle School","x":778.1,"y":197.5,"proficiency":0.15,"district":"Brandywine School District","city":"Wilmington"},{"name":"Calloway (Cab) School of the Arts","x":776.8,"y":199.1,"proficiency":0.42,"district":"Red Clay Consolidated School District","city":"Wilmington"},{"name":"Brandywine Springs School","x":775.9,"y":199.5,"proficiency":0.22,"district":"Red Clay Consolidated School District","city":"Wilmington"},{"name":"First State School","x":777.3,"y":199,"proficiency":-0.03,"district":"Red Clay Consolidated School District","city":"Wilmington"},{"name":"Meadowood Program","x":775.7,"y":200.3,"proficiency":-0.03,"district":"Red Clay Consolidated School District","city":"Newark"},{"name":"Stanton Middle School","x":776.1,"y":200,"proficiency":0.075,"district":"Red Clay Consolidated School District","city":"Wilmington"},{"name":"Skyline Middle School","x":775.5,"y":199.9,"proficiency":0.12,"district":"Red Clay Consolidated School District","city":"Wilmington"},{"name":"duPont (H.B.) Middle School","x":775.2,"y":198.6,"proficiency":0.37,"district":"Red Clay Consolidated School District","city":"Hockessin"},{"name":"Conrad Schools of Science","x":776.7,"y":199.7,"proficiency":0.57,"district":"Red Clay Consolidated School District","city":"Wilmington"},{"name":"duPont (Alexis I.) Middle School","x":776.8,"y":198.8,"proficiency":0.025,"district":"Red Clay Consolidated School District","city":"Greenville"},{"name":"Dickinson (John) School","x":775.7,"y":199.8,"proficiency":0.245,"district":"Red Clay Consolidated School District","city":"Wilmington"},{"name":"Seaford Middle School","x":780.9,"y":219.5,"proficiency":0.075,"district":"Seaford School District","city":"Seaford"},{"name":"Smyrna Middle School","x":778.1,"y":207.5,"proficiency":0.15,"district":"Smyrna School District","city":"Smyrna"},{"name":"Woodbridge Middle School","x":780.7,"y":217.8,"proficiency":0.12,"district":"Woodbridge School District","city":"Bridgeville"}],"districts":[{"name":"Positive Outcomes Charter School","x":780.1,"y":210.8,"proficiency":0.245,"schoolCount":1},{"name":"East Side Charter School","x":777.7,"y":198.9,"proficiency":0.245,"schoolCount":1},{"name":"Campus Community School","x":779.9,"y":209.8,"proficiency":0.3,"schoolCount":1},{"name":"Edison (Thomas A.) Charter School","x":777.6,"y":199,"proficiency":-0.03,"schoolCount":1},{"name":"Sussex Academy","x":784.1,"y":217.9,"proficiency":0.57,"schoolCount":1},{"name":"Kuumba Academy Charter School","x":777.4,"y":199.1,"proficiency":0.15,"schoolCount":1},{"name":"Newark Charter School","x":774.4,"y":201.6,"proficiency":0.745,"schoolCount":1},{"name":"Providence Creek Academy Charter School","x":777.8,"y":207.7,"proficiency":0.3,"schoolCount":1},{"name":"MOT Charter School","x":776,"y":205.7,"proficiency":0.445,"schoolCount":1},{"name":"Charter School of New Castle","x":777.7,"y":200.4,"proficiency":0.15,"schoolCount":1},{"name":"Odyssey Charter School","x":776.6,"y":199,"proficiency":0.27,"schoolCount":1},{"name":"Las Americas Aspira Academy","x":775.5,"y":200.7,"proficiency":0.075,"schoolCount":1},{"name":"Gateway Charter School","x":776.3,"y":199.3,"proficiency":0.1,"schoolCount":1},{"name":"First State Montessori Academy","x":777.4,"y":199.1,"proficiency":0.3,"schoolCount":1},{"name":"Freire Charter School Wilmington","x":777.4,"y":199,"proficiency":0.1,"schoolCount":1},{"name":"Great Oaks Charter School","x":777.4,"y":199.1,"proficiency":0.05,"schoolCount":1},{"name":"Appoquinimink School District","x":776.3,"y":204.7,"proficiency":0.3033,"schoolCount":3},{"name":"Cape Henlopen School District","x":785.9,"y":216.6,"proficiency":0.2533,"schoolCount":3},{"name":"Caesar Rodney School District","x":780.4,"y":210.8,"proficiency":0.2712,"schoolCount":4},{"name":"Capital School District","x":779.9,"y":209.8,"proficiency":0.02,"schoolCount":3},{"name":"Christina School District","x":775.7,"y":200.7,"proficiency":0.1814,"schoolCount":7},{"name":"Colonial School District","x":777.2,"y":201.1,"proficiency":0.1133,"schoolCount":3},{"name":"Delmar School District","x":782.3,"y":222.9,"proficiency":0.27,"schoolCount":1},{"name":"Indian River School District","x":785.8,"y":220,"proficiency":0.235,"schoolCount":5},{"name":"Lake Forest School District","x":780.2,"y":214.3,"proficiency":0.27,"schoolCount":1},{"name":"Laurel School District","x":782,"y":221.3,"proficiency":0.22,"schoolCount":1},{"name":"Milford School District","x":782.4,"y":213.8,"proficiency":0.22,"schoolCount":1},{"name":"Brandywine School District","x":777.6,"y":198.1,"proficiency":0.2717,"schoolCount":3},{"name":"Red Clay Consolidated School District","x":776.2,"y":199.5,"proficiency":0.1985,"schoolCount":10},{"name":"Seaford School District","x":780.9,"y":219.5,"proficiency":0.075,"schoolCount":1},{"name":"Smyrna School District","x":778.1,"y":207.5,"proficiency":0.15,"schoolCount":1},{"name":"Woodbridge School District","x":780.7,"y":217.8,"proficiency":0.12,"schoolCount":1}],"cities":[{"name":"Camden","x":780.2,"y":210.8,"lat":39.1066525,"lon":-75.527814,"proficiency":0.2575,"schoolCount":4},{"name":"Wilmington","x":776.9,"y":199.1,"lat":39.7510652631579,"lon":-75.57780026315788,"proficiency":0.1932,"schoolCount":19},{"name":"Dover","x":780.1,"y":209.9,"lat":39.154494799999995,"lon":-75.5254134,"proficiency":0.132,"schoolCount":5},{"name":"Georgetown","x":784.4,"y":218.3,"lat":38.671282999999995,"lon":-75.36021033333333,"proficiency":0.2533,"schoolCount":3},{"name":"Newark","x":775.4,"y":200.9,"lat":39.676358666666665,"lon":-75.71341911111112,"proficiency":0.2233,"schoolCount":9},{"name":"Clayton","x":777.8,"y":207.7,"lat":39.294338,"lon":-75.646303,"proficiency":0.3,"schoolCount":1},{"name":"Middletown","x":776.2,"y":205,"lat":39.455395499999995,"lon":-75.71383225,"proficiency":0.3387,"schoolCount":4},{"name":"New Castle","x":777.3,"y":200.9,"lat":39.65434225,"lon":-75.57997449999999,"proficiency":0.1225,"schoolCount":4},{"name":"Milton","x":784.7,"y":216.5,"lat":38.764522,"lon":-75.312362,"proficiency":0.27,"schoolCount":1},{"name":"Lewes","x":786.5,"y":216.7,"lat":38.731755,"lon":-75.19017,"proficiency":0.245,"schoolCount":2},{"name":"Delmar","x":782.3,"y":222.9,"lat":38.458803,"lon":-75.566858,"proficiency":0.27,"schoolCount":1},{"name":"Selbyville","x":787.2,"y":221.7,"lat":38.462103,"lon":-75.21738500000001,"proficiency":0.3575,"schoolCount":2},{"name":"Millsboro","x":785.7,"y":219.6,"lat":38.590166,"lon":-75.287866,"proficiency":0.27,"schoolCount":1},{"name":"Harrington","x":780.2,"y":214.3,"lat":38.928763,"lon":-75.582053,"proficiency":0.27,"schoolCount":1},{"name":"Laurel","x":782,"y":221.3,"lat":38.545982,"lon":-75.566342,"proficiency":0.22,"schoolCount":1},{"name":"Milford","x":782.4,"y":213.8,"lat":38.930662,"lon":-75.427076,"proficiency":0.22,"schoolCount":1},{"name":"Hockessin","x":775.2,"y":198.6,"lat":39.8004,"lon":-75.691619,"proficiency":0.37,"schoolCount":1},{"name":"Greenville","x":776.8,"y":198.8,"lat":39.767728,"lon":-75.583407,"proficiency":0.025,"schoolCount":1},{"name":"Seaford","x":780.9,"y":219.5,"lat":38.648538,"lon":-75.61213,"proficiency":0.075,"schoolCount":1},{"name":"Smyrna","x":778.1,"y":207.5,"lat":39.302595,"lon":-75.623778,"proficiency":0.15,"schoolCount":1},{"name":"Bridgeville","x":780.7,"y":217.8,"lat":38.739916,"lon":-75.600862,"proficiency":0.12,"schoolCount":1}]}