{"state":"HI","stateName":"Hawaii","naep":{"text":"3 out of 4","numerator":3,"denominator":4},"schools":[{"name":"Kahuku High & Intermediate School","x":296.9,"y":444.2,"proficiency":0.345,"district":"Hawaii Department of Education","city":"Kahuku"},{"name":"Kailua Intermediate School","x":300.6,"y":449.4,"proficiency":0.29,"district":"Hawaii Department of Education","city":"Kailua"},{"name":"Governor Samuel Wilder King Intermediate School","x":299.4,"y":448.8,"proficiency":0.17,"district":"Hawaii Department of Education","city":"Kaneohe"},{"name":"Puohala Elementary School","x":299.7,"y":449.1,"proficiency":0.245,"district":"Hawaii Department of Education","city":"Kaneohe"},{"name":"Waimanalo Elementary & Intermediate School","x":301,"y":450.3,"proficiency":0.05,"district":"Hawaii Department of Education","city":"Waimanalo"},{"name":"Hilo Intermediate School","x":347.1,"y":480.4,"proficiency":0.27,"district":"Hawaii Department of Education","city":"Hilo"},{"name":"Honokaa High & Intermediate School","x":340.6,"y":473.8,"proficiency":0.075,"district":"Hawaii Department of Education","city":"Honokaa"},{"name":"Prince Jonah Kalanianaole Elementary & Intermediate School","x":347.1,"y":479.1,"proficiency":0.05,"district":"Hawaii Department of Education","city":"Papaikou"},{"name":"Kau High & Pahala Elementary School","x":340.4,"y":490.1,"proficiency":0.025,"district":"Hawaii Department of Education","city":"Pahala"},{"name":"Keaau Middle School","x":348.1,"y":482.2,"proficiency":0.075,"district":"Hawaii Department of Education","city":"Keaau"},{"name":"Laupahoehoe Community - PCS","x":344.7,"y":475.6,"proficiency":0.245,"district":"Hawaii Department of Education","city":"Laupahoehoe"},{"name":"Paauilo Elementary & Intermediate School","x":342.2,"y":474.5,"proficiency":0.3,"district":"Hawaii Department of Education","city":"Paauilo"},{"name":"Pahoa High & Intermediate School","x":349.8,"y":484.6,"proficiency":0.17,"district":"Hawaii Department of Education","city":"Pahoa"},{"name":"Waiakea Intermediate School","x":347.4,"y":480.8,"proficiency":0.22,"district":"Hawaii Department of Education","city":"Hilo"},{"name":"Hana High & Elementary School","x":331.1,"y":460.8,"proficiency":0.3,"district":"Hawaii Department of Education","city":"Hana"},{"name":"Iao Intermediate School","x":322.3,"y":458.8,"proficiency":0.17,"district":"Hawaii Department of Education","city":"Wailuku"},{"name":"Lahaina Intermediate School","x":319.4,"y":458.8,"proficiency":0.17,"district":"Hawaii Department of Education","city":"Lahaina"},{"name":"Lanai High & Elementary School","x":314.9,"y":459.9,"proficiency":0.05,"district":"Hawaii Department of Education","city":"Lanai City"},{"name":"Waimea Canyon Middle School","x":266.8,"y":438.6,"proficiency":0.12,"district":"Hawaii Department of Education","city":"Waimea"},{"name":"Hawaii School for the Deaf and Blind","x":299.2,"y":451.6,"proficiency":-0.03,"district":"Hawaii Department of Education","city":"Honolulu"},{"name":"Olomana School","x":300.4,"y":449.8,"proficiency":-0.03,"district":"Hawaii Department of Education","city":"Kailua"},{"name":"Nanakuli High & Intermediate School","x":293.7,"y":449.5,"proficiency":0.05,"district":"Hawaii Department of Education","city":"Waianae"},{"name":"Ilima Intermediate School","x":295.8,"y":450.8,"proficiency":0.27,"district":"Hawaii Department of Education","city":"Ewa Beach"},{"name":"Highlands Intermediate School","x":296.7,"y":449.2,"proficiency":0.3,"district":"Hawaii Department of Education","city":"Pearl City"},{"name":"Major Sheldon Wheeler Middle School","x":295.3,"y":447.6,"proficiency":0.37,"district":"Hawaii Department of Education","city":"Wahiawa"},{"name":"Waialua High & Intermediate School","x":293.8,"y":446.2,"proficiency":0.22,"district":"Hawaii Department of Education","city":"Waialua"},{"name":"Wahiawa Middle School","x":295.7,"y":447.5,"proficiency":0.17,"district":"Hawaii Department of Education","city":"Wahiawa"},{"name":"Moanalua Middle School","x":297.9,"y":450.2,"proficiency":0.44,"district":"Hawaii Department of Education","city":"Honolulu"},{"name":"Waipahu Intermediate School","x":295.8,"y":449.6,"proficiency":0.21,"district":"Hawaii Department of Education","city":"Waipahu"},{"name":"King David Kalakaua Middle School","x":298.2,"y":450.6,"proficiency":0.25,"district":"Hawaii Department of Education","city":"Honolulu"},{"name":"Aliamanu Middle School","x":297.5,"y":450.3,"proficiency":0.33,"district":"Hawaii Department of Education","city":"Honolulu"},{"name":"Aiea Intermediate School","x":297.3,"y":449.6,"proficiency":0.37,"district":"Hawaii Department of Education","city":"Aiea"},{"name":"President George Washington Middle School","x":298.9,"y":451.2,"proficiency":0.27,"district":"Hawaii Department of Education","city":"Honolulu"},{"name":"Robert Louis Stevenson Middle School","x":298.8,"y":450.9,"proficiency":0.27,"district":"Hawaii Department of Education","city":"Honolulu"},{"name":"Niu Valley Middle School","x":300.5,"y":451.4,"proficiency":0.42,"district":"Hawaii Department of Education","city":"Honolulu"},{"name":"Prince David Kawananakoa Middle School","x":298.6,"y":450.8,"proficiency":0.32,"district":"Hawaii Department of Education","city":"Honolulu"},{"name":"Kaimuki Middle School","x":299.5,"y":451.7,"proficiency":0.61,"district":"Hawaii Department of Education","city":"Honolulu"},{"name":"William P Jarrett Middle School","x":299.6,"y":451.2,"proficiency":0.37,"district":"Hawaii Department of Education","city":"Honolulu"},{"name":"Governor Sanford B Dole Middle School","x":298.3,"y":450.3,"proficiency":0.075,"district":"Hawaii Department of Education","city":"Honolulu"},{"name":"Princess Ruth Keelikolani Middle School","x":298.5,"y":450.9,"proficiency":0.025,"district":"Hawaii Department of Education","city":"Honolulu"},{"name":"Waianae Intermediate School","x":292.6,"y":448.3,"proficiency":0.05,"district":"Hawaii Department of Education","city":"Waianae"},{"name":"Samuel Enoka Kalama Intermediate School","x":325.4,"y":459.5,"proficiency":0.27,"district":"Hawaii Department of Education","city":"Makawao"},{"name":"Kealakehe Intermediate School","x":331.4,"y":481.4,"proficiency":0.075,"district":"Hawaii Department of Education","city":"Kailua-Kona"},{"name":"Lokelani Intermediate School","x":323.2,"y":461.4,"proficiency":0.22,"district":"Hawaii Department of Education","city":"Kihei"},{"name":"Kamaile Academy PCS","x":292.6,"y":448.2,"proficiency":0.05,"district":"Hawaii Department of Education","city":"Waianae"},{"name":"Maui Waena Intermediate School","x":322.6,"y":459,"proficiency":0.22,"district":"Hawaii Department of Education","city":"Kahului"},{"name":"Anuenue School","x":299.7,"y":451,"proficiency":0.1,"district":"Hawaii Department of Education","city":"Honolulu"},{"name":"Waikoloa Elementary and Middle School","x":334.8,"y":476.2,"proficiency":0.17,"district":"Hawaii Department of Education","city":"Waikoloa"},{"name":"Konawaena Middle School","x":332.7,"y":484.4,"proficiency":0.17,"district":"Hawaii Department of Education","city":"Kealakekua"},{"name":"Kapaa Middle School","x":272.9,"y":436.5,"proficiency":0.17,"district":"Hawaii Department of Education","city":"Kapaa"},{"name":"Mililani Middle School","x":296.2,"y":447.9,"proficiency":0.35,"district":"Hawaii Department of Education","city":"Mililani"},{"name":"Kapolei Middle School","x":295,"y":450.5,"proficiency":0.27,"district":"Hawaii Department of Education","city":"Kapolei"},{"name":"Connections - New Century PCS","x":347.3,"y":480.3,"proficiency":0.15,"district":"Hawaii Department of Education","city":"Hilo"},{"name":"Kanu o ka Aina - New Century PCS","x":337.2,"y":474.9,"proficiency":0.1,"district":"Hawaii Department of Education","city":"Kamuela"},{"name":"West Hawaii Explorations Academy","x":330.5,"y":480.6,"proficiency":0.3,"district":"Hawaii Department of Education","city":"Kailua-Kona"},{"name":"Chiefess Kamakahelei Middle School","x":271.8,"y":438.6,"proficiency":0.21,"district":"Hawaii Department of Education","city":"Lihue"},{"name":"Kohala Middle School","x":335,"y":471,"proficiency":0.05,"district":"Hawaii Department of Education","city":"Kapaau"},{"name":"Waimea Middle - PCCS","x":337,"y":474.9,"proficiency":0.1,"district":"Hawaii Department of Education","city":"Kamuela"},{"name":"Halau Ku Mana - A New Century PCS","x":299,"y":450.9,"proficiency":0.3,"district":"Hawaii Department of Education","city":"Honolulu"},{"name":"Voyager - A Public Charter School","x":299.1,"y":451.2,"proficiency":0.245,"district":"Hawaii Department of Education","city":"Honolulu"},{"name":"University Laboratory School","x":299.1,"y":451.2,"proficiency":0.645,"district":"Hawaii Department of Education","city":"Honolulu"},{"name":"Myron B. Thompson Academy - New Century PCS","x":298.5,"y":451,"proficiency":0.645,"district":"Hawaii Department of Education","city":"Honolulu"},{"name":"Hakipuu Academy","x":299.3,"y":449.1,"proficiency":0.245,"district":"Hawaii Department of Education","city":"Kaneohe"},{"name":"Ke Kula o Samuel M Kamakau - A Laboratory PCS","x":299.1,"y":449.2,"proficiency":0.245,"district":"Hawaii Department of Education","city":"Kaneohe"},{"name":"Innovations - PCS","x":331.6,"y":482.1,"proficiency":0.3,"district":"Hawaii Department of Education","city":"Kailua-Kona"},{"name":"Ke Ana Laahana - PCS","x":348.2,"y":480.1,"proficiency":0.245,"district":"Hawaii Department of Education","city":"Hilo"},{"name":"Kihei Charter School","x":323.4,"y":461.4,"proficiency":0.345,"district":"Hawaii Department of Education","city":"Kihei"},{"name":"Ke Kula Niihau o Kekaha Learning Center","x":266.1,"y":438.4,"proficiency":-0.03,"district":"Hawaii Department of Education","city":"Kekaha"},{"name":"Volcano School of Arts & Sciences - A Community PCS","x":344.6,"y":485.9,"proficiency":0.1,"district":"Hawaii Department of Education","city":"Volcano"},{"name":"Hawaii Academy of Arts & Science PCS","x":349.8,"y":484.4,"proficiency":0.17,"district":"Hawaii Department of Education","city":"Pahoa"},{"name":"Ka Umeke Kaeo - PCS","x":348.2,"y":480.1,"proficiency":0.245,"district":"Hawaii Department of Education","city":"Hilo"},{"name":"Ke Kula o Nawahiokalaniopuu Iki - Laboratory PCS","x":348.3,"y":482.5,"proficiency":0.245,"district":"Hawaii Department of Education","city":"Keaau"},{"name":"Ka Waihona o ka Naauao - PCS","x":293.5,"y":449.6,"proficiency":0.075,"district":"Hawaii Department of Education","city":"Waianae"},{"name":"Ke Kula o Ehunuikaimalino","x":332.6,"y":484.4,"proficiency":0.245,"district":"Hawaii Department of Education","city":"Kealakekua"},{"name":"Kua o ka La - NCPCS","x":347.8,"y":481.3,"proficiency":0.245,"district":"Hawaii Department of Education","city":"Hilo"},{"name":"Kanuikapono - PCS","x":273.3,"y":435.4,"proficiency":0.3,"district":"Hawaii Department of Education","city":"Anahola"},{"name":"Molokai Middle School","x":312.7,"y":453.7,"proficiency":0.17,"district":"Hawaii Department of Education","city":"Hoolehua"},{"name":"Kona Pacific - PCS","x":332.7,"y":484.2,"proficiency":0.245,"district":"Hawaii Department of Education","city":"Kealakekua"},{"name":"Kawaikini - NCPCS","x":271.6,"y":438.6,"proficiency":0.245,"district":"Hawaii Department of Education","city":"Lihue"},{"name":"Hawaii Technology Academy - PCS","x":295.9,"y":449.5,"proficiency":0.32,"district":"Hawaii Department of Education","city":"Waipahu"},{"name":"Ewa Makai Middle School","x":295.5,"y":450.7,"proficiency":0.24,"district":"Hawaii Department of Education","city":"Ewa Beach"},{"name":"School for Examining Essential Questions of Sustainability","x":298.5,"y":450.8,"proficiency":0.245,"district":"Hawaii Department of Education","city":"Honolulu"},{"name":"Malama Honua Charter School","x":301.2,"y":450.4,"proficiency":0.1,"district":"Hawaii Department of Education","city":"Waimanalo"},{"name":"Kamalani Academy","x":295.7,"y":447.4,"proficiency":0.1,"district":"Hawaii Department of Education","city":"Wahiawa"}],"districts":[{"name":"Hawaii Department of Education","x":311.7,"y":459.4,"proficiency":0.2157,"schoolCount":84}],"cities":[{"name":"Kahuku","x":296.9,"y":444.2,"lat":21.675348,"lon":-157.947764,"proficiency":0.345,"schoolCount":1},{"name":"Kailua","x":300.5,"y":449.6,"lat":21.3830145,"lon":-157.742636,"proficiency":0.13,"schoolCount":2},{"name":"Kaneohe","x":299.4,"y":449,"lat":21.412754749999998,"lon":-157.80841600000002,"proficiency":0.2263,"schoolCount":4},{"name":"Waimanalo","x":301.1,"y":450.3,"lat":21.342604,"lon":-157.7085685,"proficiency":0.075,"schoolCount":2},{"name":"Hilo","x":347.7,"y":480.5,"lat":19.713471000000002,"lon":-155.06435533333334,"proficiency":0.2292,"schoolCount":6},{"name":"Honokaa","x":340.6,"y":473.8,"lat":20.077179,"lon":-155.464148,"proficiency":0.075,"schoolCount":1},{"name":"Papaikou","x":347.1,"y":479.1,"lat":19.790308,"lon":-155.094006,"proficiency":0.05,"schoolCount":1},{"name":"Pahala","x":340.4,"y":490.1,"lat":19.201972,"lon":-155.47973,"proficiency":0.025,"schoolCount":1},{"name":"Keaau","x":348.2,"y":482.3,"lat":19.6137735,"lon":-155.033488,"proficiency":0.16,"schoolCount":2},{"name":"Laupahoehoe","x":344.7,"y":475.6,"lat":19.979666,"lon":-155.228333,"proficiency":0.245,"schoolCount":1},{"name":"Paauilo","x":342.2,"y":474.5,"lat":20.039371,"lon":-155.372904,"proficiency":0.3,"schoolCount":1},{"name":"Pahoa","x":349.8,"y":484.5,"lat":19.496096,"lon":-154.94321,"proficiency":0.17,"schoolCount":2},{"name":"Hana","x":331.1,"y":460.8,"lat":20.776853,"lon":-155.998863,"proficiency":0.3,"schoolCount":1},{"name":"Wailuku","x":322.3,"y":458.8,"lat":20.884856,"lon":-156.500318,"proficiency":0.17,"schoolCount":1},{"name":"Lahaina","x":319.4,"y":458.8,"lat":20.886799,"lon":-156.6624,"proficiency":0.17,"schoolCount":1},{"name":"Lanai City","x":314.9,"y":459.9,"lat":20.826139,"lon":-156.923206,"proficiency":0.05,"schoolCount":1},{"name":"Waimea","x":266.8,"y":438.6,"lat":21.961502,"lon":-159.67256,"proficiency":0.12,"schoolCount":1},{"name":"Honolulu","x":298.9,"y":450.9,"lat":21.309179333333333,"lon":-157.83700455555555,"proficiency":0.3072,"schoolCount":18},{"name":"Waianae","x":293.1,"y":448.9,"lat":21.41943475,"lon":-158.165741,"proficiency":0.0563,"schoolCount":4},{"name":"Ewa Beach","x":295.7,"y":450.7,"lat":21.319844500000002,"lon":-158.019428,"proficiency":0.255,"schoolCount":2},{"name":"Pearl City","x":296.7,"y":449.2,"lat":21.401076,"lon":-157.962492,"proficiency":0.3,"schoolCount":1},{"name":"Wahiawa","x":295.6,"y":447.5,"lat":21.494292333333334,"lon":-158.023977,"proficiency":0.2133,"schoolCount":3},{"name":"Waialua","x":293.8,"y":446.2,"lat":21.565419,"lon":-158.126209,"proficiency":0.22,"schoolCount":1},{"name":"Waipahu","x":295.8,"y":449.5,"lat":21.3843715,"lon":-158.0104205,"proficiency":0.265,"schoolCount":2},{"name":"Aiea","x":297.3,"y":449.6,"lat":21.380552,"lon":-157.923878,"proficiency":0.37,"schoolCount":1},{"name":"Makawao","x":325.4,"y":459.5,"lat":20.850564,"lon":-156.320938,"proficiency":0.27,"schoolCount":1},{"name":"Kailua-Kona","x":331.2,"y":481.4,"lat":19.671891333333335,"lon":-155.99849933333334,"proficiency":0.225,"schoolCount":3},{"name":"Kihei","x":323.3,"y":461.4,"lat":20.747027000000003,"lon":-156.442278,"proficiency":0.2825,"schoolCount":2},{"name":"Kahului","x":322.6,"y":459,"lat":20.874035,"lon":-156.485142,"proficiency":0.22,"schoolCount":1},{"name":"Waikoloa","x":334.8,"y":476.2,"lat":19.946387,"lon":-155.790645,"proficiency":0.17,"schoolCount":1},{"name":"Kealakekua","x":332.6,"y":484.3,"lat":19.513118333333335,"lon":-155.91608766666667,"proficiency":0.22,"schoolCount":3},{"name":"Kapaa","x":272.9,"y":436.5,"lat":22.078693,"lon":-159.328324,"proficiency":0.17,"schoolCount":1},{"name":"Mililani","x":296.2,"y":447.9,"lat":21.475585,"lon":-157.988471,"proficiency":0.35,"schoolCount":1},{"name":"Kapolei","x":295,"y":450.5,"lat":21.332847,"lon":-158.057623,"proficiency":0.27,"schoolCount":1},{"name":"Kamuela","x":337.1,"y":474.9,"lat":20.017194,"lon":-155.660868,"proficiency":0.1,"schoolCount":2},{"name":"Lihue","x":271.7,"y":438.6,"lat":21.9677005,"lon":-159.3939755,"proficiency":0.2275,"schoolCount":2},{"name":"Kapaau","x":335,"y":471,"lat":20.227305,"lon":-155.778459,"proficiency":0.05,"schoolCount":1},{"name":"Kekaha","x":266.1,"y":438.4,"lat":21.972798,"lon":-159.715428,"proficiency":-0.03,"schoolCount":1},{"name":"Volcano","x":344.6,"y":485.9,"lat":19.423863,"lon":-155.241402,"proficiency":0.1,"schoolCount":1},{"name":"Anahola","x":273.3,"y":435.4,"lat":22.138744,"lon":-159.301637,"proficiency":0.3,"schoolCount":1},{"name":"Hoolehua","x":312.7,"y":453.7,"lat":21.164088,"lon":-157.047725,"proficiency":0.17,"schoolCount":1}]}