{"state":"NM","stateName":"New Mexico","naep":{"text":"9 out of 10","numerator":9,"denominator":10},"schools":[{"name":"PUBLIC ACADEMY FOR PERFORMING ARTS","x":329.7,"y":309.2,"proficiency":0.245,"district":"ALBUQUERQUE PUBLIC SCHOOLS","city":"ALBUQUERQUE"},{"name":"SCHOOL OF DREAMS ACADEMY","x":325.7,"y":314.4,"proficiency":0.245,"district":"SCHOOL OF DREAMS ACADEMY","city":"LOS LUNAS"},{"name":"ABQ SCHOOL OF EXCELLENCE","x":329.9,"y":309.4,"proficiency":0.495,"district":"ABQ SCHOOL OF EXCELLENCE","city":"ALBUQUERQUE"},{"name":"TAOS INTEGRATED SCHOOL OF ARTS","x":346.2,"y":286.3,"proficiency":0.245,"district":"TAOS INTEGRATED SCHOOL OF THE ARTS","city":"TAOS"},{"name":"ALBUQUERQUE BILINGUAL ACADEMY","x":326.6,"y":308.5,"proficiency":0.1,"district":"ALBUQUERQUE BILINGUAL ACADEMY","city":"ALBUQUERQUE"},{"name":"C.V. KOOGLER MIDDLE","x":311.3,"y":274,"proficiency":0.12,"district":"AZTEC MUNICIPAL SCHOOLS","city":"AZTEC"},{"name":"MOSAIC ACADEMY CHARTER","x":311.4,"y":274.4,"proficiency":0.3,"district":"AZTEC MUNICIPAL SCHOOLS","city":"AZTEC"},{"name":"21ST CENTURY PUBLIC ACADEMY","x":328.4,"y":308.9,"proficiency":0.15,"district":"21ST CENTURY PUBLIC ACADEMY","city":"ALBUQUERQUE"},{"name":"BERNALILLO MIDDLE","x":329.6,"y":305.1,"proficiency":0.1,"district":"BERNALILLO PUBLIC SCHOOLS","city":"BERNALILLO"},{"name":"TSE BIT AI MIDDLE","x":301,"y":274,"proficiency":0.05,"district":"CENTRAL CONSOLIDATED SCHOOLS","city":"SHIPROCK"},{"name":"NEWCOMB MIDDLE","x":299.6,"y":283.1,"proficiency":0.05,"district":"CENTRAL CONSOLIDATED SCHOOLS","city":"NEWCOMB"},{"name":"EAGLE NEST MIDDLE","x":351.3,"y":283.8,"proficiency":0.1,"district":"CIMARRON MUNICIPAL SCHOOLS","city":"EAGLE NEST"},{"name":"CIMARRON MIDDLE","x":356.2,"y":285.1,"proficiency":0.245,"district":"CIMARRON MUNICIPAL SCHOOLS","city":"CIMARRON"},{"name":"CLOUDCROFT MIDDLE","x":337.3,"y":350.4,"proficiency":0.245,"district":"CLOUDCROFT MUNICIPAL SCHOOLS","city":"CLOUDCROFT"},{"name":"CORONA HIGH","x":341.9,"y":326.5,"proficiency":0.245,"district":"CORONA MUNICIPAL SCHOOLS","city":"CORONA"},{"name":"DORA HIGH","x":375.9,"y":335.4,"proficiency":0.3,"district":"DORA MUNICIPAL SCHOOLS","city":"DORA"},{"name":"CATON MIDDLE","x":376.5,"y":363.7,"proficiency":0.05,"district":"EUNICE MUNICIPAL SCHOOLS","city":"EUNICE"},{"name":"FLOYD MIDDLE","x":372.7,"y":329.9,"proficiency":0.245,"district":"FLOYD MUNICIPAL SCHOOLS","city":"FLOYD"},{"name":"FORT SUMNER MIDDLE","x":363,"y":324.3,"proficiency":0.1,"district":"FORT SUMNER MUNICIPAL SCHOOLS","city":"FORT SUMNER"},{"name":"GADSDEN MIDDLE","x":321.5,"y":366.9,"proficiency":0.245,"district":"GADSDEN INDEPENDENT SCHOOLS","city":"ANTHONY"},{"name":"SANTA TERESA MIDDLE","x":321.4,"y":369.9,"proficiency":0.245,"district":"GADSDEN INDEPENDENT SCHOOLS","city":"SANTA TERESA"},{"name":"JOHN F. KENNEDY MIDDLE","x":297.8,"y":297.2,"proficiency":0.245,"district":"GALLUP-MCKINLEY CTY SCHOOLS","city":"GALLUP"},{"name":"DUGAN-TARANGO MIDDLE","x":289.8,"y":356.6,"proficiency":0.1,"district":"LORDSBURG MUNICIPAL SCHOOLS","city":"LORDSBURG"},{"name":"MAXWELL MIDDLE","x":361.8,"y":285.1,"proficiency":0.245,"district":"MAXWELL MUNICIPAL SCHOOLS","city":"MAXWELL"},{"name":"LAZARO LARRY GARCIA MIDDLE","x":349.1,"y":294.6,"proficiency":0.1,"district":"MORA INDEPENDENT SCHOOLS","city":"MORA"},{"name":"PORTALES JR HIGH","x":376.4,"y":330.8,"proficiency":0.12,"district":"PORTALES MUNICIPAL SCHOOLS","city":"PORTALES"},{"name":"RESERVE HIGH","x":292.4,"y":330.9,"proficiency":0.75,"district":"RESERVE PUBLIC SCHOOLS","city":"RESERVE"},{"name":"BERRENDO MIDDLE","x":357.2,"y":342.6,"proficiency":0.075,"district":"ROSWELL INDEPENDENT SCHOOLS","city":"ROSWELL"},{"name":"MESA MIDDLE","x":357.2,"y":344.2,"proficiency":0.075,"district":"ROSWELL INDEPENDENT SCHOOLS","city":"ROSWELL"},{"name":"MOUNTAIN VIEW MIDDLE","x":356.8,"y":345.1,"proficiency":0.075,"district":"ROSWELL INDEPENDENT SCHOOLS","city":"ROSWELL"},{"name":"SIERRA MIDDLE","x":356.3,"y":344.2,"proficiency":0.075,"district":"ROSWELL INDEPENDENT SCHOOLS","city":"ROSWELL"},{"name":"ROY HIGH","x":366.1,"y":296.7,"proficiency":0.75,"district":"ROY MUNICIPAL SCHOOLS","city":"ROY"},{"name":"RUIDOSO MIDDLE","x":339.4,"y":343.2,"proficiency":0.12,"district":"RUIDOSO MUNICIPAL SCHOOLS","city":"RUIDOSO"},{"name":"SAN JON MIDDLE SCHOOL","x":377.8,"y":313.5,"proficiency":0.75,"district":"SAN JON MUNICIPAL SCHOOLS","city":"SAN JON"},{"name":"ACADEMY FOR TECHNOLOGY & CLASSICS","x":338.2,"y":300.8,"proficiency":0.05,"district":"SANTA FE PUBLIC SCHOOLS","city":"SANTA FE"},{"name":"TULAROSA MIDDLE","x":333.3,"y":347.8,"proficiency":0.15,"district":"TULAROSA MUNICIPAL SCHOOLS","city":"TULAROSA"}],"districts":[{"name":"ALBUQUERQUE PUBLIC SCHOOLS","x":329.7,"y":309.2,"proficiency":0.245,"schoolCount":1},{"name":"SCHOOL OF DREAMS ACADEMY","x":325.7,"y":314.4,"proficiency":0.245,"schoolCount":1},{"name":"ABQ SCHOOL OF EXCELLENCE","x":329.9,"y":309.4,"proficiency":0.495,"schoolCount":1},{"name":"TAOS INTEGRATED SCHOOL OF THE ARTS","x":346.2,"y":286.3,"proficiency":0.245,"schoolCount":1},{"name":"ALBUQUERQUE BILINGUAL ACADEMY","x":326.6,"y":308.5,"proficiency":0.1,"schoolCount":1},{"name":"AZTEC MUNICIPAL SCHOOLS","x":311.4,"y":274.2,"proficiency":0.21,"schoolCount":2},{"name":"21ST CENTURY PUBLIC ACADEMY","x":328.4,"y":308.9,"proficiency":0.15,"schoolCount":1},{"name":"BERNALILLO PUBLIC SCHOOLS","x":329.6,"y":305.1,"proficiency":0.1,"schoolCount":1},{"name":"CENTRAL CONSOLIDATED SCHOOLS","x":300.3,"y":278.5,"proficiency":0.05,"schoolCount":2},{"name":"CIMARRON MUNICIPAL SCHOOLS","x":353.8,"y":284.5,"proficiency":0.1725,"schoolCount":2},{"name":"CLOUDCROFT MUNICIPAL SCHOOLS","x":337.3,"y":350.4,"proficiency":0.245,"schoolCount":1},{"name":"CORONA MUNICIPAL SCHOOLS","x":341.9,"y":326.5,"proficiency":0.245,"schoolCount":1},{"name":"DORA MUNICIPAL SCHOOLS","x":375.9,"y":335.4,"proficiency":0.3,"schoolCount":1},{"name":"EUNICE MUNICIPAL SCHOOLS","x":376.5,"y":363.7,"proficiency":0.05,"schoolCount":1},{"name":"FLOYD MUNICIPAL SCHOOLS","x":372.7,"y":329.9,"proficiency":0.245,"schoolCount":1},{"name":"FORT SUMNER MUNICIPAL SCHOOLS","x":363,"y":324.3,"proficiency":0.1,"schoolCount":1},{"name":"GADSDEN INDEPENDENT SCHOOLS","x":321.4,"y":368.4,"proficiency":0.245,"schoolCount":2},{"name":"GALLUP-MCKINLEY CTY SCHOOLS","x":297.8,"y":297.2,"proficiency":0.245,"schoolCount":1},{"name":"LORDSBURG MUNICIPAL SCHOOLS","x":289.8,"y":356.6,"proficiency":0.1,"schoolCount":1},{"name":"MAXWELL MUNICIPAL SCHOOLS","x":361.8,"y":285.1,"proficiency":0.245,"schoolCount":1},{"name":"MORA INDEPENDENT SCHOOLS","x":349.1,"y":294.6,"proficiency":0.1,"schoolCount":1},{"name":"PORTALES MUNICIPAL SCHOOLS","x":376.4,"y":330.8,"proficiency":0.12,"schoolCount":1},{"name":"RESERVE PUBLIC SCHOOLS","x":292.4,"y":330.9,"proficiency":0.75,"schoolCount":1},{"name":"ROSWELL INDEPENDENT SCHOOLS","x":356.9,"y":344,"proficiency":0.075,"schoolCount":4},{"name":"ROY MUNICIPAL SCHOOLS","x":366.1,"y":296.7,"proficiency":0.75,"schoolCount":1},{"name":"RUIDOSO MUNICIPAL SCHOOLS","x":339.4,"y":343.2,"proficiency":0.12,"schoolCount":1},{"name":"SAN JON MUNICIPAL SCHOOLS","x":377.8,"y":313.5,"proficiency":0.75,"schoolCount":1},{"name":"SANTA FE PUBLIC SCHOOLS","x":338.2,"y":300.8,"proficiency":0.05,"schoolCount":1},{"name":"TULAROSA MUNICIPAL SCHOOLS","x":333.3,"y":347.8,"proficiency":0.15,"schoolCount":1}],"cities":[{"name":"ALBUQUERQUE","x":328.6,"y":309,"lat":35.09973075,"lon":-106.5851135,"proficiency":0.2475,"schoolCount":4},{"name":"LOS LUNAS","x":325.7,"y":314.4,"lat":34.796899,"lon":-106.735743,"proficiency":0.245,"schoolCount":1},{"name":"TAOS","x":346.2,"y":286.3,"lat":36.3952,"lon":-105.581664,"proficiency":0.245,"schoolCount":1},{"name":"AZTEC","x":311.4,"y":274.2,"lat":36.8227655,"lon":-108.00520449999999,"proficiency":0.21,"schoolCount":2},{"name":"BERNALILLO","x":329.6,"y":305.1,"lat":35.312488,"lon":-106.552599,"proficiency":0.1,"schoolCount":1},{"name":"SHIPROCK","x":301,"y":274,"lat":36.763518,"lon":-108.705315,"proficiency":0.05,"schoolCount":1},{"name":"NEWCOMB","x":299.6,"y":283.1,"lat":36.276331,"lon":-108.711693,"proficiency":0.05,"schoolCount":1},{"name":"EAGLE NEST","x":351.3,"y":283.8,"lat":36.551246,"lon":-105.260309,"proficiency":0.1,"schoolCount":1},{"name":"CIMARRON","x":356.2,"y":285.1,"lat":36.511762,"lon":-104.91897,"proficiency":0.245,"schoolCount":1},{"name":"CLOUDCROFT","x":337.3,"y":350.4,"lat":32.958242,"lon":-105.738976,"proficiency":0.245,"schoolCount":1},{"name":"CORONA","x":341.9,"y":326.5,"lat":34.249168,"lon":-105.596559,"proficiency":0.245,"schoolCount":1},{"name":"DORA","x":375.9,"y":335.4,"lat":33.940139,"lon":-103.337921,"proficiency":0.3,"schoolCount":1},{"name":"EUNICE","x":376.5,"y":363.7,"lat":32.438901,"lon":-103.163314,"proficiency":0.05,"schoolCount":1},{"name":"FLOYD","x":372.7,"y":329.9,"lat":34.215244,"lon":-103.578605,"proficiency":0.245,"schoolCount":1},{"name":"FORT SUMNER","x":363,"y":324.3,"lat":34.468553,"lon":-104.238116,"proficiency":0.1,"schoolCount":1},{"name":"ANTHONY","x":321.5,"y":366.9,"lat":31.998867,"lon":-106.628946,"proficiency":0.245,"schoolCount":1},{"name":"SANTA TERESA","x":321.4,"y":369.9,"lat":31.835316,"lon":-106.614674,"proficiency":0.245,"schoolCount":1},{"name":"GALLUP","x":297.8,"y":297.2,"lat":35.52131,"lon":-108.708763,"proficiency":0.245,"schoolCount":1},{"name":"LORDSBURG","x":289.8,"y":356.6,"lat":32.336648,"lon":-108.708454,"proficiency":0.1,"schoolCount":1},{"name":"MAXWELL","x":361.8,"y":285.1,"lat":36.539253,"lon":-104.543912,"proficiency":0.245,"schoolCount":1},{"name":"MORA","x":349.1,"y":294.6,"lat":35.972568,"lon":-105.334841,"proficiency":0.1,"schoolCount":1},{"name":"PORTALES","x":376.4,"y":330.8,"lat":34.185862,"lon":-103.332226,"proficiency":0.12,"schoolCount":1},{"name":"RESERVE","x":292.4,"y":330.9,"lat":33.710723,"lon":-108.761851,"proficiency":0.75,"schoolCount":1},{"name":"ROSWELL","x":356.9,"y":344,"lat":33.3965095,"lon":-104.52192375,"proficiency":0.075,"schoolCount":4},{"name":"ROY","x":366.1,"y":296.7,"lat":35.946073,"lon":-104.193001,"proficiency":0.75,"schoolCount":1},{"name":"RUIDOSO","x":339.4,"y":343.2,"lat":33.353965,"lon":-105.647027,"proficiency":0.12,"schoolCount":1},{"name":"SAN JON","x":377.8,"y":313.5,"lat":35.107613,"lon":-103.326821,"proficiency":0.75,"schoolCount":1},{"name":"SANTA FE","x":338.2,"y":300.8,"lat":35.583905,"lon":-106.012302,"proficiency":0.05,"schoolCount":1},{"name":"TULAROSA","x":333.3,"y":347.8,"lat":33.073644,"lon":-106.013139,"proficiency":0.15,"schoolCount":1}]}