{"state":"RI","stateName":"Rhode Island","naep":{"text":"3 out of 4","numerator":3,"denominator":4},"schools":[{"name":"R.I. School for the Deaf","x":824.2,"y":147,"proficiency":0.245,"district":"R.I. Sch for the Deaf","city":"Providence"},{"name":"Urban Collaborative Program","x":824.5,"y":147.6,"proficiency":0.025,"district":"Urban Collaborative","city":"Providence"},{"name":"The Learning Community","x":824.6,"y":146.2,"proficiency":0.05,"district":"Learning Community","city":"Central Falls"},{"name":"Founders Academy","x":822.4,"y":144.5,"proficiency":0.05,"district":"Beacon Charter School","city":"Woonsocket"},{"name":"Segue Inst for Learning","x":824.5,"y":146.3,"proficiency":0.05,"district":"Segue Institute for Learning","city":"Central Falls"},{"name":"Blackstone Valley Prep Jr High","x":824.4,"y":146.2,"proficiency":0.32,"district":"Blackstone Valley Prep  A RI Mayoral Academy","city":"Central Falls"},{"name":"Trinity Academy Performing Art","x":824.5,"y":147.5,"proficiency":0.05,"district":"Trinity Academy for the Performing Arts","city":"Providence"},{"name":"AF Providence Mayoral Middle","x":824,"y":147.8,"proficiency":0.12,"district":"Achievement First Rhode Island","city":"Providence"},{"name":"Barrington Middle School","x":826,"y":148.6,"proficiency":0.52,"district":"Barrington","city":"Barrington"},{"name":"Highlander Secondary Charter S","x":826.8,"y":148.4,"proficiency":0.05,"district":"Highlander","city":"Warren"},{"name":"Paul Cuffee Middle School","x":824.3,"y":147.7,"proficiency":0.05,"district":"Paul Cuffee Charter Sch","city":"Providence"},{"name":"The Compass School","x":824.7,"y":153.8,"proficiency":0.495,"district":"The Compass School","city":"Kingston"},{"name":"Kickemuit Middle School","x":827.1,"y":148.7,"proficiency":0.22,"district":"Bristol Warren","city":"Warren"},{"name":"Burrillville Middle School","x":821,"y":145.3,"proficiency":0.17,"district":"Burrillville","city":"Harrisville"},{"name":"Calcutt Middle School","x":824.5,"y":146.2,"proficiency":0.025,"district":"Central Falls","city":"Central Falls"},{"name":"Chariho Alternative Learning A","x":822.5,"y":155.3,"proficiency":0.245,"district":"Chariho","city":"Wood River Junction"},{"name":"Chariho Regional Middle School","x":822.5,"y":155.3,"proficiency":0.22,"district":"Chariho","city":"Wood River Junction"},{"name":"Alan Shawn Feinstein MS of Cov","x":823.2,"y":150.3,"proficiency":0.17,"district":"Coventry","city":"Coventry"},{"name":"Hugh B. Bain Middle School","x":824.2,"y":148.3,"proficiency":0.075,"district":"Cranston","city":"Cranston"},{"name":"Park View Middle School","x":824.8,"y":148.4,"proficiency":0.075,"district":"Cranston","city":"Cranston"},{"name":"Western Hills Middle School","x":823.9,"y":148.6,"proficiency":0.12,"district":"Cranston","city":"Cranston"},{"name":"Hope Highlands Middle School","x":823.6,"y":149.1,"proficiency":0.17,"district":"Cranston","city":"Cranston"},{"name":"Joseph L. McCourt MS","x":824.4,"y":145.7,"proficiency":0.27,"district":"Cumberland","city":"Cumberland"},{"name":"North Cumberland Middle","x":823.6,"y":144.6,"proficiency":0.52,"district":"Cumberland","city":"Cumberland"},{"name":"Archie R. Cole MS","x":824.7,"y":150.8,"proficiency":0.32,"district":"East Greenwich","city":"East Greenwich"},{"name":"Riverside Middle School","x":825.6,"y":148.1,"proficiency":0.12,"district":"East Providence","city":"Riverside"},{"name":"Edward Martin Middle","x":825.3,"y":147.6,"proficiency":0.075,"district":"East Providence","city":"East Providence"},{"name":"Exeter-West Greenwich Reg. Jr.","x":822.6,"y":152.2,"proficiency":0.32,"district":"Exeter-West Greenwich","city":"West Greenwich"},{"name":"Ponaganset Middle School","x":820.8,"y":147.6,"proficiency":0.17,"district":"Foster-Glocester","city":"North Scituate"},{"name":"Jamestown School-Lawn","x":826.6,"y":153.3,"proficiency":0.545,"district":"Jamestown","city":"Jamestown"},{"name":"Nicholas A. Ferri Middle","x":823.3,"y":147.7,"proficiency":0.12,"district":"Johnston","city":"Johnston"},{"name":"Lincoln Middle School","x":823.3,"y":146.1,"proficiency":0.32,"district":"Lincoln","city":"Lincoln"},{"name":"Wilbur and McMahon Schools","x":829.3,"y":152.3,"proficiency":0.3,"district":"Little Compton","city":"Little Compton"},{"name":"Gaudet Middle School","x":827.8,"y":152.6,"proficiency":0.27,"district":"Middletown","city":"Middletown"},{"name":"Narragansett Pier School","x":825.7,"y":154.9,"proficiency":0.12,"district":"Narragansett","city":"Narragansett"},{"name":"Block Island School","x":825.7,"y":160,"proficiency":0.245,"district":"New Shoreham","city":"Block Island"},{"name":"Frank E. Thompson Middle","x":827.5,"y":153.2,"proficiency":0.025,"district":"Newport","city":"Newport"},{"name":"Davisville Middle School","x":824.8,"y":151.4,"proficiency":0.32,"district":"North Kingstown","city":"North Kingstown"},{"name":"Wickford Middle School","x":825.1,"y":152.3,"proficiency":0.37,"district":"North Kingstown","city":"North Kingstown"},{"name":"Birchwood Middle School","x":823.8,"y":146.8,"proficiency":0.22,"district":"North Providence","city":"North Providence"},{"name":"Dr. Edward Ricci School","x":823.7,"y":147.3,"proficiency":0.22,"district":"North Providence","city":"North Providence"},{"name":"North Smithfield MS","x":822.1,"y":145.6,"proficiency":0.22,"district":"North Smithfield","city":"North Smithfield"},{"name":"Joseph Jenks Middle School","x":824.9,"y":146.4,"proficiency":0.025,"district":"Pawtucket","city":"Pawtucket"},{"name":"Lyman B. Goff Middle School","x":825,"y":146.2,"proficiency":0.025,"district":"Pawtucket","city":"Pawtucket"},{"name":"Samuel Slater Middle School","x":824.5,"y":146.5,"proficiency":0.025,"district":"Pawtucket","city":"Pawtucket"},{"name":"Portsmouth Middle School","x":827.6,"y":151.9,"proficiency":0.27,"district":"Portsmouth","city":"Portsmouth"},{"name":"Governor Christopher DelSesto","x":823.9,"y":147.8,"proficiency":0.025,"district":"Providence","city":"Providence"},{"name":"Gilbert Stuart Middle School","x":824.5,"y":147.9,"proficiency":0.025,"district":"Providence","city":"Providence"},{"name":"Nathanael Greene Middle","x":824.3,"y":147.4,"proficiency":0.12,"district":"Providence","city":"Providence"},{"name":"Roger Williams Middle","x":824.7,"y":147.9,"proficiency":0.025,"district":"Providence","city":"Providence"},{"name":"Esek Hopkins Middle","x":824.3,"y":147.1,"proficiency":0.025,"district":"Providence","city":"Providence"},{"name":"Nathan Bishop Middle","x":824.7,"y":147.1,"proficiency":0.075,"district":"Providence","city":"Providence"},{"name":"West Broadway Middle School","x":824.3,"y":147.7,"proficiency":0.025,"district":"Providence","city":"Providence"},{"name":"Times2 Middle/High School","x":824.4,"y":147.3,"proficiency":0.12,"district":"Providence","city":"Providence"},{"name":"Scituate Middle School","x":821.8,"y":148.2,"proficiency":0.12,"district":"Scituate","city":"North Scituate"},{"name":"Vincent J. Gallagher Middle","x":822.5,"y":146.9,"proficiency":0.37,"district":"Smithfield","city":"Smithfield"},{"name":"Curtis Corner Middle School","x":824.9,"y":154.5,"proficiency":0.12,"district":"South Kingstown","city":"Wakefield"},{"name":"Tiverton Middle School","x":828.9,"y":150.1,"proficiency":0.27,"district":"Tiverton","city":"Tiverton"},{"name":"Winman Middle School","x":824.1,"y":149.9,"proficiency":0.12,"district":"Warwick","city":"Warwick"},{"name":"Warwick Veterans Middle School","x":825.2,"y":149.6,"proficiency":0.025,"district":"Warwick","city":"Warwick"},{"name":"John F. Deering Middle","x":823.7,"y":150,"proficiency":0.075,"district":"West Warwick","city":"West Warwick"},{"name":"Westerly Middle School","x":821.8,"y":157.4,"proficiency":0.12,"district":"Westerly","city":"Westerly"},{"name":"Woonsocket Middle at Hamlet","x":822.5,"y":144.5,"proficiency":0.075,"district":"Woonsocket","city":"Woonsocket"},{"name":"Woonsocket Middle @ Villa Nova","x":822.5,"y":144.5,"proficiency":0.075,"district":"Woonsocket","city":"Woonsocket"}],"districts":[{"name":"R.I. Sch for the Deaf","x":824.2,"y":147,"proficiency":0.245,"schoolCount":1},{"name":"Urban Collaborative","x":824.5,"y":147.6,"proficiency":0.025,"schoolCount":1},{"name":"Learning Community","x":824.6,"y":146.2,"proficiency":0.05,"schoolCount":1},{"name":"Beacon Charter School","x":822.4,"y":144.5,"proficiency":0.05,"schoolCount":1},{"name":"Segue Institute for Learning","x":824.5,"y":146.3,"proficiency":0.05,"schoolCount":1},{"name":"Blackstone Valley Prep  A RI Mayoral Academy","x":824.4,"y":146.2,"proficiency":0.32,"schoolCount":1},{"name":"Trinity Academy for the Performing Arts","x":824.5,"y":147.5,"proficiency":0.05,"schoolCount":1},{"name":"Achievement First Rhode Island","x":824,"y":147.8,"proficiency":0.12,"schoolCount":1},{"name":"Barrington","x":826,"y":148.6,"proficiency":0.52,"schoolCount":1},{"name":"Highlander","x":826.8,"y":148.4,"proficiency":0.05,"schoolCount":1},{"name":"Paul Cuffee Charter Sch","x":824.3,"y":147.7,"proficiency":0.05,"schoolCount":1},{"name":"The Compass School","x":824.7,"y":153.8,"proficiency":0.495,"schoolCount":1},{"name":"Bristol Warren","x":827.1,"y":148.7,"proficiency":0.22,"schoolCount":1},{"name":"Burrillville","x":821,"y":145.3,"proficiency":0.17,"schoolCount":1},{"name":"Central Falls","x":824.5,"y":146.2,"proficiency":0.025,"schoolCount":1},{"name":"Chariho","x":822.5,"y":155.3,"proficiency":0.2325,"schoolCount":2},{"name":"Coventry","x":823.2,"y":150.3,"proficiency":0.17,"schoolCount":1},{"name":"Cranston","x":824.1,"y":148.6,"proficiency":0.11,"schoolCount":4},{"name":"Cumberland","x":824,"y":145.2,"proficiency":0.395,"schoolCount":2},{"name":"East Greenwich","x":824.7,"y":150.8,"proficiency":0.32,"schoolCount":1},{"name":"East Providence","x":825.4,"y":147.9,"proficiency":0.0975,"schoolCount":2},{"name":"Exeter-West Greenwich","x":822.6,"y":152.2,"proficiency":0.32,"schoolCount":1},{"name":"Foster-Glocester","x":820.8,"y":147.6,"proficiency":0.17,"schoolCount":1},{"name":"Jamestown","x":826.6,"y":153.3,"proficiency":0.545,"schoolCount":1},{"name":"Johnston","x":823.3,"y":147.7,"proficiency":0.12,"schoolCount":1},{"name":"Lincoln","x":823.3,"y":146.1,"proficiency":0.32,"schoolCount":1},{"name":"Little Compton","x":829.3,"y":152.3,"proficiency":0.3,"schoolCount":1},{"name":"Middletown","x":827.8,"y":152.6,"proficiency":0.27,"schoolCount":1},{"name":"Narragansett","x":825.7,"y":154.9,"proficiency":0.12,"schoolCount":1},{"name":"New Shoreham","x":825.7,"y":160,"proficiency":0.245,"schoolCount":1},{"name":"Newport","x":827.5,"y":153.2,"proficiency":0.025,"schoolCount":1},{"name":"North Kingstown","x":825,"y":151.8,"proficiency":0.345,"schoolCount":2},{"name":"North Providence","x":823.7,"y":147,"proficiency":0.22,"schoolCount":2},{"name":"North Smithfield","x":822.1,"y":145.6,"proficiency":0.22,"schoolCount":1},{"name":"Pawtucket","x":824.8,"y":146.4,"proficiency":0.025,"schoolCount":3},{"name":"Portsmouth","x":827.6,"y":151.9,"proficiency":0.27,"schoolCount":1},{"name":"Providence","x":824.4,"y":147.5,"proficiency":0.055,"schoolCount":8},{"name":"Scituate","x":821.8,"y":148.2,"proficiency":0.12,"schoolCount":1},{"name":"Smithfield","x":822.5,"y":146.9,"proficiency":0.37,"schoolCount":1},{"name":"South Kingstown","x":824.9,"y":154.5,"proficiency":0.12,"schoolCount":1},{"name":"Tiverton","x":828.9,"y":150.1,"proficiency":0.27,"schoolCount":1},{"name":"Warwick","x":824.7,"y":149.8,"proficiency":0.0725,"schoolCount":2},{"name":"West Warwick","x":823.7,"y":150,"proficiency":0.075,"schoolCount":1},{"name":"Westerly","x":821.8,"y":157.4,"proficiency":0.12,"schoolCount":1},{"name":"Woonsocket","x":822.5,"y":144.5,"proficiency":0.075,"schoolCount":2}],"cities":[{"name":"Providence","x":824.3,"y":147.5,"lat":41.825442230769234,"lon":-71.42793107692309,"proficiency":0.0715,"schoolCount":13},{"name":"Central Falls","x":824.5,"y":146.2,"lat":41.89010075,"lon":-71.3946445,"proficiency":0.1113,"schoolCount":4},{"name":"Woonsocket","x":822.5,"y":144.5,"lat":42.004812333333334,"lon":-71.505071,"proficiency":0.0667,"schoolCount":3},{"name":"Barrington","x":826,"y":148.6,"lat":41.744419,"lon":-71.332921,"proficiency":0.52,"schoolCount":1},{"name":"Warren","x":826.9,"y":148.5,"lat":41.7377355,"lon":-71.267221,"proficiency":0.135,"schoolCount":2},{"name":"Kingston","x":824.7,"y":153.8,"lat":41.494249,"lon":-71.516384,"proficiency":0.495,"schoolCount":1},{"name":"Harrisville","x":821,"y":145.3,"lat":41.981659,"lon":-71.622293,"proficiency":0.17,"schoolCount":1},{"name":"Wood River Junction","x":822.5,"y":155.3,"lat":41.4493615,"lon":-71.69789850000001,"proficiency":0.2325,"schoolCount":2},{"name":"Coventry","x":823.2,"y":150.3,"lat":41.696637,"lon":-71.561237,"proficiency":0.17,"schoolCount":1},{"name":"Cranston","x":824.1,"y":148.6,"lat":41.771799,"lon":-71.46342725,"proficiency":0.11,"schoolCount":4},{"name":"Cumberland","x":824,"y":145.2,"lat":41.950323499999996,"lon":-71.4091675,"proficiency":0.395,"schoolCount":2},{"name":"East Greenwich","x":824.7,"y":150.8,"lat":41.651605,"lon":-71.462707,"proficiency":0.32,"schoolCount":1},{"name":"Riverside","x":825.6,"y":148.1,"lat":41.777001,"lon":-71.349879,"proficiency":0.12,"schoolCount":1},{"name":"East Providence","x":825.3,"y":147.6,"lat":41.807066,"lon":-71.365756,"proficiency":0.075,"schoolCount":1},{"name":"West Greenwich","x":822.6,"y":152.2,"lat":41.607586,"lon":-71.638398,"proficiency":0.32,"schoolCount":1},{"name":"North Scituate","x":821.3,"y":147.9,"lat":41.8462625,"lon":-71.6487995,"proficiency":0.145,"schoolCount":2},{"name":"Jamestown","x":826.6,"y":153.3,"lat":41.498671,"lon":-71.378437,"proficiency":0.545,"schoolCount":1},{"name":"Johnston","x":823.3,"y":147.7,"lat":41.829989,"lon":-71.501696,"proficiency":0.12,"schoolCount":1},{"name":"Lincoln","x":823.3,"y":146.1,"lat":41.910341,"lon":-71.473548,"proficiency":0.32,"schoolCount":1},{"name":"Little Compton","x":829.3,"y":152.3,"lat":41.509536,"lon":-71.17369,"proficiency":0.3,"schoolCount":1},{"name":"Middletown","x":827.8,"y":152.6,"lat":41.519206,"lon":-71.279917,"proficiency":0.27,"schoolCount":1},{"name":"Narragansett","x":825.7,"y":154.9,"lat":41.428764,"lon":-71.469878,"proficiency":0.12,"schoolCount":1},{"name":"Block Island","x":825.7,"y":160,"lat":41.164408,"lon":-71.560898,"proficiency":0.245,"schoolCount":1},{"name":"Newport","x":827.5,"y":153.2,"lat":41.491869,"lon":-71.311135,"proficiency":0.025,"schoolCount":1},{"name":"North Kingstown","x":825,"y":151.8,"lat":41.5936035,"lon":-71.462611,"proficiency":0.345,"schoolCount":2},{"name":"North Providence","x":823.7,"y":147,"lat":41.857862499999996,"lon":-71.4609035,"proficiency":0.22,"schoolCount":2},{"name":"North Smithfield","x":822.1,"y":145.6,"lat":41.95341,"lon":-71.546491,"proficiency":0.22,"schoolCount":1},{"name":"Pawtucket","x":824.8,"y":146.4,"lat":41.87722433333334,"lon":-71.37530766666667,"proficiency":0.025,"schoolCount":3},{"name":"Portsmouth","x":827.6,"y":151.9,"lat":41.555224,"lon":-71.285284,"proficiency":0.27,"schoolCount":1},{"name":"Smithfield","x":822.5,"y":146.9,"lat":41.883799,"lon":-71.542892,"proficiency":0.37,"schoolCount":1},{"name":"Wakefield","x":824.9,"y":154.5,"lat":41.45996,"lon":-71.520877,"proficiency":0.12,"schoolCount":1},{"name":"Tiverton","x":828.9,"y":150.1,"lat":41.628419,"lon":-71.159375,"proficiency":0.27,"schoolCount":1},{"name":"Warwick","x":824.7,"y":149.8,"lat":41.7054585,"lon":-71.447355,"proficiency":0.0725,"schoolCount":2},{"name":"West Warwick","x":823.7,"y":150,"lat":41.70819,"lon":-71.516751,"proficiency":0.075,"schoolCount":1},{"name":"Westerly","x":821.8,"y":157.4,"lat":41.34892,"lon":-71.786761,"proficiency":0.12,"schoolCount":1}]}