{"state":"WY","stateName":"Wyoming","naep":{"text":"7 out of 10","numerator":7,"denominator":10},"schools":[{"name":"Laramie Middle School","x":355.8,"y":193.9,"proficiency":0.6422,"district":"Albany County School District #1","city":"Laramie"},{"name":"Rock River Junior High School","x":351,"y":185.5,"proficiency":0.4167,"district":"Albany County School District #1","city":"Rock River"},{"name":"Snowy Range Academy","x":356,"y":194.2,"proficiency":0.8947,"district":"Albany County School District #1","city":"Laramie"},{"name":"UW Laboratory School","x":355.6,"y":194.1,"proficiency":0.6667,"district":"Albany County School District #1","city":"Laramie"},{"name":"Burlington Middle School","x":323.8,"y":131.1,"proficiency":0.5455,"district":"Big Horn County School District #1","city":"Burlington"},{"name":"Rocky Mountain Middle School","x":324.5,"y":123.1,"proficiency":0.2617,"district":"Big Horn County School District #1","city":"Cowley"},{"name":"Lovell Middle School","x":325.2,"y":124.1,"proficiency":0.6389,"district":"Big Horn County School District #2","city":"Lovell"},{"name":"Greybull Middle School","x":328.9,"y":130.8,"proficiency":0.6111,"district":"Big Horn County School District #3","city":"Greybull"},{"name":"Riverside Middle/High School","x":328.7,"y":133,"proficiency":0.7368,"district":"Big Horn County School District #4","city":"Basin"},{"name":"Sage Valley Junior High School","x":362,"y":138.9,"proficiency":0.5818,"district":"Campbell County School District #1","city":"Gillette"},{"name":"Twin Spruce Junior High School","x":362.2,"y":138.6,"proficiency":0.4645,"district":"Campbell County School District #1","city":"Gillette"},{"name":"Wright Jr. & Sr. High School","x":361.4,"y":148.5,"proficiency":0.5882,"district":"Campbell County School District #1","city":"Wright"},{"name":"Little Snake River Valley School","x":333.9,"y":182.2,"proficiency":0.6522,"district":"Carbon County School District #1","city":"Baggs"},{"name":"Rawlins Middle School","x":333.9,"y":182.4,"proficiency":0.3491,"district":"Carbon County School District #1","city":"Rawlins"},{"name":"Encampment K-12 School","x":338.6,"y":194.2,"proficiency":0.3333,"district":"Carbon County School District #2","city":"Encampment"},{"name":"HEM Junior/Senior High School","x":343.2,"y":182.4,"proficiency":0.5333,"district":"Carbon County School District #2","city":"Hanna"},{"name":"Saratoga Middle/High School","x":338.7,"y":189.6,"proficiency":0.2273,"district":"Carbon County School District #2","city":"Saratoga"},{"name":"Douglas Middle School","x":360.7,"y":167.4,"proficiency":0.5739,"district":"Converse County School District #1","city":"Douglas"},{"name":"Glenrock Jr/Sr High School","x":354.9,"y":164.7,"proficiency":0.4561,"district":"Converse County School District #2","city":"Glenrock"},{"name":"Hulett School","x":374.8,"y":132.3,"proficiency":0.5385,"district":"Crook County School District #1","city":"Hulett"},{"name":"Moorcroft Secondary School","x":369.6,"y":139.8,"proficiency":0.44,"district":"Crook County School District #1","city":"Moorcroft"},{"name":"Sundance Secondary School","x":377.4,"y":137.8,"proficiency":0.6944,"district":"Crook County School District #1","city":"Sundance"},{"name":"Lander Middle School","x":315.8,"y":160.4,"proficiency":0.3796,"district":"Fremont County School District # 1","city":"Lander"},{"name":"Wyoming Indian Middle School","x":315.8,"y":157,"proficiency":0.05,"district":"Fremont County School District #14","city":"Ethete"},{"name":"Dubois Middle School","x":305.6,"y":145.7,"proficiency":0.5625,"district":"Fremont County School District # 2","city":"Dubois"},{"name":"Ft. Washakie Middle School","x":314.6,"y":157.3,"proficiency":0.05,"district":"Fremont County School District #21","city":"Ft. Washakie"},{"name":"Shoshoni Junior High School","x":325.1,"y":154,"proficiency":0.4688,"district":"Fremont County School District #24","city":"Shoshoni"},{"name":"Riverton Middle School","x":320.6,"y":157.5,"proficiency":0.4724,"district":"Fremont County School District #25","city":"Riverton"},{"name":"Arapahoe Elementary","x":319.4,"y":158.6,"proficiency":0.1395,"district":"Fremont County School District #38","city":"Arapahoe"},{"name":"Wind River Middle School","x":317.5,"y":153,"proficiency":0.35,"district":"Fremont County School District # 6","city":"Pavillion"},{"name":"Lingle-Ft. Laramie Middle School","x":374.1,"y":180.3,"proficiency":0.4615,"district":"Goshen County School District #1","city":"Lingle"},{"name":"Southeast Junior High School","x":374.3,"y":184.5,"proficiency":0.5217,"district":"Goshen County School District #1","city":"Yoder"},{"name":"Torrington Middle School","x":376,"y":181.7,"proficiency":0.5765,"district":"Goshen County School District #1","city":"Torrington"},{"name":"Thermopolis Middle School","x":324.6,"y":146.5,"proficiency":0.725,"district":"Hot Springs County School District #1","city":"Thermopolis"},{"name":"Clear Creek Middle School","x":346.4,"y":135.9,"proficiency":0.7407,"district":"Johnson County School District #1","city":"Buffalo"},{"name":"Kaycee School","x":346,"y":147.7,"proficiency":0.95,"district":"Johnson County School District #1","city":"Kaycee"},{"name":"Carey Junior High School","x":366.5,"y":198.3,"proficiency":0.3929,"district":"Laramie County School District #1","city":"Cheyenne"},{"name":"Johnson Junior High School","x":365.7,"y":198.9,"proficiency":0.2299,"district":"Laramie County School District #1","city":"Cheyenne"},{"name":"McCormick Junior High School","x":365.6,"y":197.7,"proficiency":0.4984,"district":"Laramie County School District #1","city":"Cheyenne"},{"name":"PODER Academy Secondary School","x":365.6,"y":198.3,"proficiency":0.8,"district":"Laramie County School District #1","city":"Cheyenne"},{"name":"Burns Jr & Sr High School","x":372.4,"y":198,"proficiency":0.4364,"district":"Laramie County School District #2","city":"Burns"},{"name":"Pine Bluffs Jr & Sr High School","x":376.4,"y":198.5,"proficiency":0.4333,"district":"Laramie County School District #2","city":"Pine Bluffs"},{"name":"Kemmerer Junior Senior High School","x":288.4,"y":176.5,"proficiency":0.5211,"district":"Lincoln County School District #1","city":"Diamondville"},{"name":"Cokeville High School","x":283.7,"y":170.1,"proficiency":0.4545,"district":"Lincoln County School District #2","city":"Cokeville"},{"name":"Star Valley Middle School","x":285.8,"y":157.8,"proficiency":0.6095,"district":"Lincoln County School District #2","city":"Afton"},{"name":"C Y Middle School","x":347.9,"y":164.9,"proficiency":0.6039,"district":"Natrona County School District #1","city":"Casper"},{"name":"Casper Classical Academy","x":348.7,"y":164.4,"proficiency":0.4177,"district":"Natrona County School District #1","city":"Casper"},{"name":"Centennial Middle School","x":349.2,"y":164.6,"proficiency":0.4141,"district":"Natrona County School District #1","city":"Casper"},{"name":"Dean Morgan Middle School","x":348.3,"y":164.5,"proficiency":0.285,"district":"Natrona County School District #1","city":"Casper"},{"name":"Midwest School","x":350.2,"y":153.9,"proficiency":0.5,"district":"Natrona County School District #1","city":"Midwest"},{"name":"Poison Spider Elementary","x":345.1,"y":164.2,"proficiency":0.2174,"district":"Natrona County School District #1","city":"Casper"},{"name":"Woods Learning Center","x":349,"y":164.4,"proficiency":0.1538,"district":"Natrona County School District #1","city":"Casper"},{"name":"Lusk Middle School","x":373.7,"y":168.5,"proficiency":0.3333,"district":"Niobrara County School District #1","city":"Lusk"},{"name":"Powell Middle School","x":320.4,"y":124.8,"proficiency":0.72,"district":"Park County School District # 1","city":"Powell"},{"name":"Meeteetse School","x":317.3,"y":135.8,"proficiency":0.4444,"district":"Park County School District #16","city":"Meeteetse"},{"name":"Cody Middle School","x":316.1,"y":128.5,"proficiency":0.6423,"district":"Park County School District # 6","city":"Cody"},{"name":"Wheatland Middle School","x":365.2,"y":181.1,"proficiency":0.4,"district":"Platte County School District #1","city":"Wheatland"},{"name":"Guernsey-Sunrise Junior High","x":368.8,"y":177.4,"proficiency":0.2667,"district":"Platte County School District #2","city":"Guernsey"},{"name":"Prairie View Community School","x":366.9,"y":186.7,"proficiency":0.3125,"district":"Prairie View Community School","city":"Chugwater"},{"name":"Big Horn Middle School","x":343.3,"y":129.1,"proficiency":0.8409,"district":"Sheridan County School District #1","city":"Big Horn"},{"name":"Tongue River Middle School","x":341.4,"y":124.7,"proficiency":0.7,"district":"Sheridan County School District #1","city":"Ranchester"},{"name":"Sheridan Junior High School","x":344,"y":126.9,"proficiency":0.7409,"district":"Sheridan County School District #2","city":"Sheridan"},{"name":"Clearmont K-12 School","x":351.3,"y":130.9,"proficiency":0.95,"district":"Sheridan County School District #3","city":"Clearmont"},{"name":"Pinedale Middle School","x":300.8,"y":157.8,"proficiency":0.6804,"district":"Sublette County School District #1","city":"Pinedale"},{"name":"Big Piney Middle School","x":296.4,"y":163.4,"proficiency":0.5,"district":"Sublette County School District #9","city":"Big Piney"},{"name":"Farson-Eden Middle School","x":304.3,"y":172.8,"proficiency":0.8667,"district":"Sweetwater County School District #1","city":"Farson"},{"name":"Rock Springs Junior High","x":305.5,"y":182.8,"proficiency":0.3984,"district":"Sweetwater County School District #1","city":"Rock Springs"},{"name":"Lincoln Middle School","x":302.4,"y":183.9,"proficiency":0.4938,"district":"Sweetwater County School District #2","city":"Green River"},{"name":"Jackson Hole Middle School","x":289.8,"y":144.9,"proficiency":0.5901,"district":"Teton County School District #1","city":"Jackson"},{"name":"Davis Middle School","x":281,"y":185.4,"proficiency":0.4783,"district":"Uinta County School District #1","city":"Evanston"},{"name":"Evanston Middle School","x":281.1,"y":185.4,"proficiency":0.6869,"district":"Uinta County School District #1","city":"Evanston"},{"name":"Mountain View K-8","x":290,"y":186.6,"proficiency":0.4915,"district":"Uinta County School District #4","city":"Mountain View"},{"name":"Lyman Intermediate School","x":290.6,"y":185.6,"proficiency":0.6607,"district":"Uinta County School District #6","city":"Lyman"},{"name":"Worland Middle School","x":329.3,"y":140.1,"proficiency":0.4835,"district":"Washakie County School District #1","city":"Worland"},{"name":"Ten Sleep K-12","x":335.9,"y":140.4,"proficiency":0.75,"district":"Washakie County School District #2","city":"Ten Sleep"},{"name":"Newcastle Middle School","x":378.7,"y":148.3,"proficiency":0.5918,"district":"Weston County School District #1","city":"Newcastle"},{"name":"Upton Middle School","x":373.6,"y":143.2,"proficiency":0.3478,"district":"Weston County School District #7","city":"Upton"}],"districts":[{"name":"Albany County School District #1","x":354.6,"y":191.9,"proficiency":0.6551,"schoolCount":4},{"name":"Big Horn County School District #1","x":324.1,"y":127.1,"proficiency":0.4036,"schoolCount":2},{"name":"Big Horn County School District #2","x":325.2,"y":124.1,"proficiency":0.6389,"schoolCount":1},{"name":"Big Horn County School District #3","x":328.9,"y":130.8,"proficiency":0.6111,"schoolCount":1},{"name":"Big Horn County School District #4","x":328.7,"y":133,"proficiency":0.7368,"schoolCount":1},{"name":"Campbell County School District #1","x":361.9,"y":142,"proficiency":0.5448,"schoolCount":3},{"name":"Carbon County School District #1","x":333.9,"y":182.3,"proficiency":0.5007,"schoolCount":2},{"name":"Carbon County School District #2","x":340.2,"y":188.7,"proficiency":0.3646,"schoolCount":3},{"name":"Converse County School District #1","x":360.7,"y":167.4,"proficiency":0.5739,"schoolCount":1},{"name":"Converse County School District #2","x":354.9,"y":164.7,"proficiency":0.4561,"schoolCount":1},{"name":"Crook County School District #1","x":374,"y":136.6,"proficiency":0.5576,"schoolCount":3},{"name":"Fremont County School District # 1","x":315.8,"y":160.4,"proficiency":0.3796,"schoolCount":1},{"name":"Fremont County School District #14","x":315.8,"y":157,"proficiency":0.05,"schoolCount":1},{"name":"Fremont County School District # 2","x":305.6,"y":145.7,"proficiency":0.5625,"schoolCount":1},{"name":"Fremont County School District #21","x":314.6,"y":157.3,"proficiency":0.05,"schoolCount":1},{"name":"Fremont County School District #24","x":325.1,"y":154,"proficiency":0.4688,"schoolCount":1},{"name":"Fremont County School District #25","x":320.6,"y":157.5,"proficiency":0.4724,"schoolCount":1},{"name":"Fremont County School District #38","x":319.4,"y":158.6,"proficiency":0.1395,"schoolCount":1},{"name":"Fremont County School District # 6","x":317.5,"y":153,"proficiency":0.35,"schoolCount":1},{"name":"Goshen County School District #1","x":374.8,"y":182.1,"proficiency":0.5199,"schoolCount":3},{"name":"Hot Springs County School District #1","x":324.6,"y":146.5,"proficiency":0.725,"schoolCount":1},{"name":"Johnson County School District #1","x":346.2,"y":141.8,"proficiency":0.8454,"schoolCount":2},{"name":"Laramie County School District #1","x":365.9,"y":198.3,"proficiency":0.4803,"schoolCount":4},{"name":"Laramie County School District #2","x":374.4,"y":198.3,"proficiency":0.4349,"schoolCount":2},{"name":"Lincoln County School District #1","x":288.4,"y":176.5,"proficiency":0.5211,"schoolCount":1},{"name":"Lincoln County School District #2","x":284.7,"y":164,"proficiency":0.532,"schoolCount":2},{"name":"Natrona County School District #1","x":348.3,"y":163,"proficiency":0.3703,"schoolCount":7},{"name":"Niobrara County School District #1","x":373.7,"y":168.5,"proficiency":0.3333,"schoolCount":1},{"name":"Park County School District # 1","x":320.4,"y":124.8,"proficiency":0.72,"schoolCount":1},{"name":"Park County School District #16","x":317.3,"y":135.8,"proficiency":0.4444,"schoolCount":1},{"name":"Park County School District # 6","x":316.1,"y":128.5,"proficiency":0.6423,"schoolCount":1},{"name":"Platte County School District #1","x":365.2,"y":181.1,"proficiency":0.4,"schoolCount":1},{"name":"Platte County School District #2","x":368.8,"y":177.4,"proficiency":0.2667,"schoolCount":1},{"name":"Prairie View Community School","x":366.9,"y":186.7,"proficiency":0.3125,"schoolCount":1},{"name":"Sheridan County School District #1","x":342.3,"y":126.9,"proficiency":0.7704,"schoolCount":2},{"name":"Sheridan County School District #2","x":344,"y":126.9,"proficiency":0.7409,"schoolCount":1},{"name":"Sheridan County School District #3","x":351.3,"y":130.9,"proficiency":0.95,"schoolCount":1},{"name":"Sublette County School District #1","x":300.8,"y":157.8,"proficiency":0.6804,"schoolCount":1},{"name":"Sublette County School District #9","x":296.4,"y":163.4,"proficiency":0.5,"schoolCount":1},{"name":"Sweetwater County School District #1","x":304.9,"y":177.8,"proficiency":0.6325,"schoolCount":2},{"name":"Sweetwater County School District #2","x":302.4,"y":183.9,"proficiency":0.4938,"schoolCount":1},{"name":"Teton County School District #1","x":289.8,"y":144.9,"proficiency":0.5901,"schoolCount":1},{"name":"Uinta County School District #1","x":281.1,"y":185.4,"proficiency":0.5826,"schoolCount":2},{"name":"Uinta County School District #4","x":290,"y":186.6,"proficiency":0.4915,"schoolCount":1},{"name":"Uinta County School District #6","x":290.6,"y":185.6,"proficiency":0.6607,"schoolCount":1},{"name":"Washakie County School District #1","x":329.3,"y":140.1,"proficiency":0.4835,"schoolCount":1},{"name":"Washakie County School District #2","x":335.9,"y":140.4,"proficiency":0.75,"schoolCount":1},{"name":"Weston County School District #1","x":378.7,"y":148.3,"proficiency":0.5918,"schoolCount":1},{"name":"Weston County School District #7","x":373.6,"y":143.2,"proficiency":0.3478,"schoolCount":1}],"cities":[{"name":"Laramie","x":355.8,"y":194.1,"lat":41.31525633333334,"lon":-105.56331033333333,"proficiency":0.7345,"schoolCount":3},{"name":"Rock River","x":351,"y":185.5,"lat":41.742975,"lon":-105.969402,"proficiency":0.4167,"schoolCount":1},{"name":"Burlington","x":323.8,"y":131.1,"lat":44.451148,"lon":-108.433748,"proficiency":0.5455,"schoolCount":1},{"name":"Cowley","x":324.5,"y":123.1,"lat":44.876375,"lon":-108.464366,"proficiency":0.2617,"schoolCount":1},{"name":"Lovell","x":325.2,"y":124.1,"lat":44.830594,"lon":-108.400135,"proficiency":0.6389,"schoolCount":1},{"name":"Greybull","x":328.9,"y":130.8,"lat":44.497287,"lon":-108.057217,"proficiency":0.6111,"schoolCount":1},{"name":"Basin","x":328.7,"y":133,"lat":44.380558,"lon":-108.052722,"proficiency":0.7368,"schoolCount":1},{"name":"Gillette","x":362.1,"y":138.7,"lat":44.278925,"lon":-105.51096100000001,"proficiency":0.5232,"schoolCount":2},{"name":"Wright","x":361.4,"y":148.5,"lat":43.756234,"lon":-105.491657,"proficiency":0.5882,"schoolCount":1},{"name":"Baggs","x":333.9,"y":182.2,"lat":41.816455,"lon":-107.223771,"proficiency":0.6522,"schoolCount":1},{"name":"Rawlins","x":333.9,"y":182.4,"lat":41.802819,"lon":-107.22711,"proficiency":0.3491,"schoolCount":1},{"name":"Encampment","x":338.6,"y":194.2,"lat":41.209449,"lon":-106.793026,"proficiency":0.3333,"schoolCount":1},{"name":"Hanna","x":343.2,"y":182.4,"lat":41.862054,"lon":-106.555805,"proficiency":0.5333,"schoolCount":1},{"name":"Saratoga","x":338.7,"y":189.6,"lat":41.451756,"lon":-106.818903,"proficiency":0.2273,"schoolCount":1},{"name":"Douglas","x":360.7,"y":167.4,"lat":42.749981,"lon":-105.398722,"proficiency":0.5739,"schoolCount":1},{"name":"Glenrock","x":354.9,"y":164.7,"lat":42.86098,"lon":-105.84937,"proficiency":0.4561,"schoolCount":1},{"name":"Hulett","x":374.8,"y":132.3,"lat":44.686403,"lon":-104.602808,"proficiency":0.5385,"schoolCount":1},{"name":"Moorcroft","x":369.6,"y":139.8,"lat":44.260367,"lon":-104.944069,"proficiency":0.44,"schoolCount":1},{"name":"Sundance","x":377.4,"y":137.8,"lat":44.407155,"lon":-104.371186,"proficiency":0.6944,"schoolCount":1},{"name":"Lander","x":315.8,"y":160.4,"lat":42.84208,"lon":-108.738731,"proficiency":0.3796,"schoolCount":1},{"name":"Ethete","x":315.8,"y":157,"lat":43.025099,"lon":-108.770237,"proficiency":0.05,"schoolCount":1},{"name":"Dubois","x":305.6,"y":145.7,"lat":43.542002,"lon":-109.63039,"proficiency":0.5625,"schoolCount":1},{"name":"Ft. Washakie","x":314.6,"y":157.3,"lat":42.999067,"lon":-108.854857,"proficiency":0.05,"schoolCount":1},{"name":"Shoshoni","x":325.1,"y":154,"lat":43.245414,"lon":-108.116231,"proficiency":0.4688,"schoolCount":1},{"name":"Riverton","x":320.6,"y":157.5,"lat":43.032413,"lon":-108.411827,"proficiency":0.4724,"schoolCount":1},{"name":"Arapahoe","x":319.4,"y":158.6,"lat":42.964229,"lon":-108.490074,"proficiency":0.1395,"schoolCount":1},{"name":"Pavillion","x":317.5,"y":153,"lat":43.246238,"lon":-108.684995,"proficiency":0.35,"schoolCount":1},{"name":"Lingle","x":374.1,"y":180.3,"lat":42.136384,"lon":-104.34154,"proficiency":0.4615,"schoolCount":1},{"name":"Yoder","x":374.3,"y":184.5,"lat":41.91277,"lon":-104.296803,"proficiency":0.5217,"schoolCount":1},{"name":"Torrington","x":376,"y":181.7,"lat":42.0714,"lon":-104.193,"proficiency":0.5765,"schoolCount":1},{"name":"Thermopolis","x":324.6,"y":146.5,"lat":43.641336,"lon":-108.228194,"proficiency":0.725,"schoolCount":1},{"name":"Buffalo","x":346.4,"y":135.9,"lat":44.340939,"lon":-106.703016,"proficiency":0.7407,"schoolCount":1},{"name":"Kaycee","x":346,"y":147.7,"lat":43.712712,"lon":-106.63385,"proficiency":0.95,"schoolCount":1},{"name":"Cheyenne","x":365.9,"y":198.3,"lat":41.143859750000004,"lon":-104.81575525,"proficiency":0.4803,"schoolCount":4},{"name":"Burns","x":372.4,"y":198,"lat":41.188003,"lon":-104.353325,"proficiency":0.4364,"schoolCount":1},{"name":"Pine Bluffs","x":376.4,"y":198.5,"lat":41.179277,"lon":-104.064568,"proficiency":0.4333,"schoolCount":1},{"name":"Diamondville","x":288.4,"y":176.5,"lat":41.786268,"lon":-110.544047,"proficiency":0.5211,"schoolCount":1},{"name":"Cokeville","x":283.7,"y":170.1,"lat":42.08274,"lon":-110.955407,"proficiency":0.4545,"schoolCount":1},{"name":"Afton","x":285.8,"y":157.8,"lat":42.749397,"lon":-110.942239,"proficiency":0.6095,"schoolCount":1},{"name":"Casper","x":348,"y":164.5,"lat":42.83434516666667,"lon":-106.34951733333332,"proficiency":0.3486,"schoolCount":6},{"name":"Midwest","x":350.2,"y":153.9,"lat":43.409682,"lon":-106.273378,"proficiency":0.5,"schoolCount":1},{"name":"Lusk","x":373.7,"y":168.5,"lat":42.759881,"lon":-104.446441,"proficiency":0.3333,"schoolCount":1},{"name":"Powell","x":320.4,"y":124.8,"lat":44.756479,"lon":-108.754556,"proficiency":0.72,"schoolCount":1},{"name":"Meeteetse","x":317.3,"y":135.8,"lat":44.153664,"lon":-108.872369,"proficiency":0.4444,"schoolCount":1},{"name":"Cody","x":316.1,"y":128.5,"lat":44.530639,"lon":-109.03488,"proficiency":0.6423,"schoolCount":1},{"name":"Wheatland","x":365.2,"y":181.1,"lat":42.048952,"lon":-104.977015,"proficiency":0.4,"schoolCount":1},{"name":"Guernsey","x":368.8,"y":177.4,"lat":42.264807,"lon":-104.742339,"proficiency":0.2667,"schoolCount":1},{"name":"Chugwater","x":366.9,"y":186.7,"lat":41.762217,"lon":-104.820843,"proficiency":0.3125,"schoolCount":1},{"name":"Big Horn","x":343.3,"y":129.1,"lat":44.682332,"lon":-106.997833,"proficiency":0.8409,"schoolCount":1},{"name":"Ranchester","x":341.4,"y":124.7,"lat":44.905842,"lon":-107.177691,"proficiency":0.7,"schoolCount":1},{"name":"Sheridan","x":344,"y":126.9,"lat":44.803212,"lon":-106.963889,"proficiency":0.7409,"schoolCount":1},{"name":"Clearmont","x":351.3,"y":130.9,"lat":44.637318,"lon":-106.38178,"proficiency":0.95,"schoolCount":1},{"name":"Pinedale","x":300.8,"y":157.8,"lat":42.870732,"lon":-109.857728,"proficiency":0.6804,"schoolCount":1},{"name":"Big Piney","x":296.4,"y":163.4,"lat":42.537443,"lon":-110.115579,"proficiency":0.5,"schoolCount":1},{"name":"Farson","x":304.3,"y":172.8,"lat":42.108714,"lon":-109.442793,"proficiency":0.8667,"schoolCount":1},{"name":"Rock Springs","x":305.5,"y":182.8,"lat":41.59032,"lon":-109.255794,"proficiency":0.3984,"schoolCount":1},{"name":"Green River","x":302.4,"y":183.9,"lat":41.509855,"lon":-109.46663,"proficiency":0.4938,"schoolCount":1},{"name":"Jackson","x":289.8,"y":144.9,"lat":43.462973,"lon":-110.803563,"proficiency":0.5901,"schoolCount":1},{"name":"Evanston","x":281.1,"y":185.4,"lat":41.26059,"lon":-110.96748550000001,"proficiency":0.5826,"schoolCount":2},{"name":"Mountain View","x":290,"y":186.6,"lat":41.270944,"lon":-110.319708,"proficiency":0.4915,"schoolCount":1},{"name":"Lyman","x":290.6,"y":185.6,"lat":41.328583,"lon":-110.292311,"proficiency":0.6607,"schoolCount":1},{"name":"Worland","x":329.3,"y":140.1,"lat":44.010839,"lon":-107.941625,"proficiency":0.4835,"schoolCount":1},{"name":"Ten Sleep","x":335.9,"y":140.4,"lat":44.036012,"lon":-107.447922,"proficiency":0.75,"schoolCount":1},{"name":"Newcastle","x":378.7,"y":148.3,"lat":43.85104,"lon":-104.208172,"proficiency":0.5918,"schoolCount":1},{"name":"Upton","x":373.6,"y":143.2,"lat":44.101674,"lon":-104.621453,"proficiency":0.3478,"schoolCount":1}]}